     2.11           OBSERVATION DATA    G (GPS)             RINEX VERSION / TYPE
teqc  2010Oct21                         20130701 02:00:04UTCPGM / RUN BY / DATE
Linux 2.4.20-8|Pentium IV|gcc -static|Linux|486/DX+         COMMENT
teqc  2010Oct21                         20130701 02:00:04UTCCOMMENT
Project=   Mission=   CDU Serial No.= --PC--                COMMENT
BIT 2 OF LLI FLAGS DATA COLLECTED UNDER A/S CONDITION       COMMENT
Forced Modulo Decimation to 30 seconds                      COMMENT
 SNR is mapped to RINEX snr flag value [0-9]                COMMENT
  L1 & L2: (SN - 14)/4, min = 0, max = 9                    COMMENT
BOLG                                                        MARKER NAME
12771M001                                                   MARKER NUMBER
GEOFISICA BOLOGNA   GEOFISICA BOLOGNA                       OBSERVER / AGENCY
10469               LEICA SR9500        5.04                REC # / TYPE / VERS
9037                LEIAT302+GP     NONE                    ANT # / TYPE
  4467541.9142   897307.2684  4447979.0208                  APPROX POSITION XYZ
        1.1746        0.0000        0.0000                  ANTENNA: DELTA H/E/N
     1     1                                                WAVELENGTH FACT L1/2
     4    C1    L1    P2    L2                              # / TYPES OF OBSERV
    30.0000                                                 INTERVAL
teqc windowed: start @ 2013 Jun 30 00:00:00.000             COMMENT
teqc windowed: delta = 86400.000 sec                        COMMENT
  2013     6    30     0     0    0.0000000     GPS         TIME OF FIRST OBS
                                                            END OF HEADER
 13  6 30  0  0  0.0000000  0  9G19G01G11G23G32G17G20G31G14
  24939818.5274  131059635.12547  24939809.9964  102124365.62547
  20220615.174   106260139.500 8  20220609.518    82800083.125 9
  20999306.0414  110352139.12549  20999296.7394   85988677.75049
  23149864.8974  121653407.37548  23149856.1964   94794835.97248
  20509955.4194  107780626.25048  20509947.5054   83984894.50049
  23031615.005   121031974.000 8  23031606.641    94310592.375 8
  20644357.6164  108486889.12548  20644348.8854   84535239.87549
  23625275.294   124151672.375 7  23625268.489    96741533.403 7
  24138294.6194  126847620.00046  24138286.4494   98842291.12546
 13  6 30  0  0 30.0000000  0  9G19G01G11G23G32G17G20G31G14
  24961276.5214  131172397.27147  24961267.9244  102212232.12647
  20222324.566   106269122.540 8  20222318.977    82807082.948 9
  21012169.7824  110419738.53749  21012160.5144   86041352.63149
  23130647.2074  121552417.85848  23130638.4804   94716142.95048
  20514276.7314  107803334.89548  20514268.8344   84002589.62349
  23019312.816   120967324.997 8  23019304.309    94260216.507 8
  20636234.8594  108444203.74648  20636226.1344   84501978.62949
  23615878.036   124102289.324 7  23615871.174    96703053.280 7
  24156167.0504  126941539.76046  24156158.8144   98915475.28746
 13  6 30  0  1  0.0000000  0  9G19G01G11G23G32G17G20G31G14
  24982705.1374  131285005.03346  24982696.5144  102299978.31047
  20224087.979   106278389.523 8  20224082.428    82814303.987 9
  21025083.1934  110487598.90749  21025073.9264   86094230.83349
  23111438.7954  121451477.09748  23111430.0004   94637487.87348
  20518633.0444  107826227.47448  20518625.1484   84020427.99749
  23007068.516   120902980.890 8  23007059.937    94210078.288 8
  20628145.4084  108401693.45548  20628136.6644   84468853.72649
  23606535.415   124053193.585 7  23606528.576    96664796.964 7
  24174054.2754  127035537.38645  24174045.9804   98988720.11546
 13  6 30  0  1 30.0000000  0  9G19G01G11G23G32G17G20G31G14
  25004103.8004  131397455.39147  25004095.1624  102387601.88147
  20225905.423   106287940.509 8  20225899.945    82821746.290 9
  21038046.0904  110555719.02049  21038036.7854   86147311.44849
  23092239.9304  121350586.50548  23092231.0824   94558871.89148
  20523023.9934  107849302.19548  20523016.1094   84038408.31249
  22994882.614   120838943.605 8  22994874.053    94160179.131 8
  20620089.3814  108359359.12548  20620080.7194   84435865.97749
  23597247.828   124004386.858 7  23597240.950    96626765.815 7
  24191955.7454  127129609.87246  24191947.4174   99062023.31746
 13  6 30  0  2  0.0000000  0  9G19G01G11G23G32G17G20G31G14
  25025530.8354  131510054.96847  25025522.1974  102475341.76047
  20227835.875   106298084.974 8  20227830.355    82829651.058 9
  21051116.8024  110624406.13648  21051107.5314   86200833.84349
  23073109.8864  121250057.32149  23073100.9184   94480537.50448
  20527508.2294  107872866.94948  20527500.3004   84056770.45049
  22982814.320   120775524.170 8  22982805.720    94110761.386 8
  20612125.7964  108317510.08048  20612117.1264   84403256.33349
  23588074.438   123956180.681 6  23588067.620    96589202.623 7
  24209929.7624  127224063.77646  24209921.4084   99135623.80846
 13  6 30  0  2 30.0000000  0  9G19G01G11G23G32G17G20G31G14
  25046985.8504  131622801.58747  25046977.2334  102563196.16847
  20229879.339   106308823.513 8  20229873.837    82838018.774 9
  21064295.0864  110693658.61148  21064285.8924   86254796.77849
  23054049.0064  121149891.59648  23054039.8874   94402486.32848
  20532085.4904  107896920.43048  20532077.5424   84075513.42849
  22970863.918   120712724.570 8  22970855.347    94061826.669 8
  20604254.3834  108276145.77348  20604245.7784   84371024.41549
  23579015.718   123908577.288 7  23579008.964    96552109.130 7
  24227975.9144  127318896.63346  24227967.4104   99209519.48346
 13  6 30  0  3  0.0000000  0  9G19G01G11G23G32G17G20G31G14
  25068409.6644  131735383.86147  25068401.0284  102650922.53147
  20231977.156   106319847.682 8  20231971.648    82846609.021 9
  21077521.9384  110763166.18748  21077512.7524   86308958.49649
  23034998.8934  121049782.57848  23034989.6354   94324479.35648
  20536696.7524  107921152.65448  20536688.7494   84094395.67749
  22958973.101   120650238.218 8  22958964.531    94013136.014 8
  20596416.5704  108234957.78848  20596407.9434   84338929.91849
  23570013.461   123861270.483 7  23570006.748    96515246.746 7
  24246034.7314  127413796.79445  24246026.3204   99283467.69846
 13  6 30  0  3 30.0000000  0  9G19G01G11G23G32G17G20G31G14
  25089831.2004  131847954.16946  25089822.5434  102738639.55047
  20234158.916   106331312.720 9  20234153.392    82855542.836 9
  21090826.4674  110833082.33548  21090817.3804   86363438.60049
  23015989.4544  120949887.36548  23015980.1354   94246639.00648
  20541371.2254  107945717.04748  20541363.1854   84113536.77249
  22947171.859   120588221.958 8  22947163.198    93964811.653 8
  20588641.8234  108194101.15348  20588633.1724   84307093.59249
  23561097.665   123814417.159 7  23561090.809    96478737.778 7
  24264135.3044  127508916.51246  24264127.0244   99357586.86746
 13  6 30  0  4  0.0000000  0  9G19G01G11G23G32G17G20G31G14
  25111250.0064  131960510.44047  25111241.3634  102826345.66647
  20236424.709   106343219.355 9  20236419.118    82864820.730 9
  21104208.5274  110903405.65648  21104199.4554   86418235.96249
  22997020.8824  120850207.34448  22997011.6384   94168966.37048
  20546108.7484  107970612.71448  20546100.6924   84132936.01149
  22935460.389   120526678.143 8  22935451.828    93916855.491 8
  20580930.1744  108153576.35348  20580921.5184   84275515.84849
  23552268.587   123768019.792 7  23552261.584    96442584.018 7
  24282277.4004  127604253.62146  24282269.0814   99431875.49846
 13  6 30  0  4 30.0000000  0  9G19G01G11G23G32G17G20G31G14
  25132665.6854  132073050.40847  25132657.1154  102914039.08847
  20238774.677   106355568.266 9  20238769.035    82874443.249 9
  21117667.8774  110974134.83349  21117658.7724   86473349.61549
  22978093.7744  120750745.09648  22978084.5794   94091463.41448
  20550909.0384  107995838.53148  20550901.0194   84152592.48449
  22923839.175   120465608.752 8  22923830.684    93869268.971 8
  20573281.7124  108113383.66548  20573273.0804   84244196.89649
  23543526.632   123722081.007 7  23543519.590    96406787.637 7
  24300460.3234  127699805.77545  24300452.0674   99506331.65946
 13  6 30  0  5  0.0000000  0  9G19G01G11G23G32G17G20G31G14
  25154077.5704  132185570.56047  25154069.0594  103001717.04647
  20241208.678   106368358.716 9  20241202.971    82884409.811 9
  21131203.9514  111045267.31849  21131194.8304   86528777.50749
  22959208.3624  120651501.70848  22959199.1614   94014130.97348
  20555771.6944  108021392.15148  20555763.6974   84172504.40149
  22912308.484   120405014.750 8  22912300.017    93822052.881 8
  20565696.3244  108073522.24148  20565687.6754   84213136.05549
  23534872.172   123676601.824 7  23534865.061    96371349.351 7
  24318683.5424  127795569.37645  24318675.2534   99580952.62146
 13  6 30  0  5 30.0000000  0  9G19G01G11G23G32G17G20G31G14
  25175456.4244  132297916.75747  25175447.9624  103089259.45547
  20243697.853   106381439.233 8  20243692.111    82894602.421 9
  21144787.5814  111116649.65349  21144778.4394   86584400.11449
  22940336.0394  120552327.41848  22940326.8424   93936852.35548
  20560667.5774  108047120.37648  20560659.6014   84192552.37149
  22900839.644   120344746.212 7  22900831.305    93775090.422 8
  20558145.1634  108033840.31448  20558136.4234   84182215.06649
  23526276.635   123631432.533 7  23526269.500    96336152.590 7
  24336917.5424  127891389.75745  24336909.2734   99655617.82246
 13  6 30  0  6  0.0000000  0  9G19G01G11G23G32G17G20G31G14
  25196860.0294  132410392.96447  25196851.5644  103176903.19047
  20246300.612   106395116.825 8  20246294.855    82905260.287 9
  21158476.8174  111188586.82349  21158467.6224   86640455.03449
  22921535.5674  120453530.52448  22921526.3714   93859867.82348
  20565654.8684  108073328.64048  20565646.8684   84212974.39449
  22889491.495   120285111.916 8  22889483.219    93728622.159 8
  20550686.5074  107994644.74648  20550677.7324   84151673.09949
  23517798.837   123586881.970 7  23517791.695    96301437.960 7
  24355220.2664  127987571.34245  24355211.9674   99730564.48546
 13  6 30  0  6 30.0000000  0  9G19G01G11G23G32G17G20G31G14
  25218258.4834  132522842.03447  25218250.0294  103264525.76447
  20248987.564   106409236.791 8  20248981.811    82916262.859 9
  21172241.7874  111260922.22549  21172232.6014   86696820.25749
  22902777.8184  120354958.01248  22902768.6024   93783058.14348
  20570703.7434  108099860.59648  20570695.7454   84233648.64149
  22878234.976   120225958.760 8  22878226.691    93682528.809 8
  20543290.8464  107955780.66348  20543282.0844   84121389.40449
  23509409.747   123542797.315 7  23509402.591    96267086.356 7
  24373561.6774  128083956.54545  24373553.4694   99805669.80746
 13  6 30  0  7  0.0000000  0  9G19G01G11G23G32G17G20G31G14
  25239651.7404  132635264.36046  25239643.3704  103352127.48147
  20251759.307   106423802.334 9  20251753.557    82927612.635 9
  21186082.7364  111333656.78149  21186073.5184   86753496.49749
  22884063.6474  120256614.69248  22884054.4394   93706427.02548
  20575814.4544  108126717.75148  20575806.4964   84254576.31149
  22867070.822   120167290.981 8  22867062.578    93636813.695 8
  20535958.8044  107917250.95748  20535950.0974   84091366.26949
  23501110.206   123499183.557 6  23501103.091    96233101.667 7
  24391941.7894  128180545.24946  24391933.7174   99880933.72546
 13  6 30  0  7 30.0000000  0  9G19G01G11G23G32G17G20G31G14
  25261009.8674  132747502.00947  25261001.6044  103439585.31447
  20254586.303   106438658.362 8  20254580.544    82939188.736 9
  21199969.9094  111406634.11949  21199960.6754   86810361.96249
  22865363.8614  120158347.15548  22865354.6934   93629855.00248
  20580957.2234  108153743.49648  20580949.2944   84275635.33449
  22855970.045   120108955.695 8  22855961.713    93591357.631 8
  20528660.8974  107878900.26248  20528652.1764   84061482.62949
  23492871.148   123455887.516 7  23492864.070    96199364.566 7
  24410330.7994  128277179.58546  24410322.6684   99956233.21746
 13  6 30  0  8  0.0000000  0  9G19G01G11G23G32G17G20G31G14
  25282390.8884  132859860.16147  25282382.7594  103527137.07147
  20257527.200   106454112.941 8  20257521.485    82951231.274 9
  21213961.4414  111480159.98849  21213952.2134   86867654.84649
  22846737.4194  120060464.97848  22846728.2764   93553583.25048
  20586190.4534  108181244.18248  20586182.4854   84297064.44049
  22844991.380   120051262.354 8  22844982.949    93546401.802 8
  20521455.7104  107841036.56248  20521446.9444   84031978.46949
  23484751.520   123413218.710 7  23484744.371    96166116.194 7
  24428786.5974  128374164.58646  24428778.3714  100031805.85846
 13  6 30  0  8 30.0000000  0  9G19G01G11G23G32G17G20G31G14
  25303794.6114  132972337.36047  25303786.5274  103614781.61147
  20260582.174   106470167.126 8  20260576.490    82963741.009 9
  21228057.1204  111554233.40849  21228047.9214   86925374.35149
  22828184.8344  119962970.80148  22828175.7204   93477613.82548
  20591513.9674  108209219.31348  20591505.9774   84318863.24849
  22834135.306   119994213.488 7  22834126.820    93501948.146 8
  20514343.3374  107803660.91548  20514334.5984   84002854.60349
  23476751.902   123371179.996 7  23476744.583    96133358.835 7
  24447308.6804  128471498.85245  24447300.5144  100107650.75046
 13  6 30  0  9  0.0000000  0  9G19G01G11G23G32G17G20G31G14
  25325162.1194  133084624.05646  25325154.1014  103702277.69147
  20263692.848   106486514.018 8  20263687.215    82976478.842 9
  21242198.2744  111628545.60949  21242189.0944   86983279.96449
  22809648.0694  119865559.50548  22809638.9394   93401708.98948
  20596869.0174  108237360.28948  20596861.0114   84340791.28049
  22823343.786   119937503.605 8  22823335.236    93457758.663 8
  20507265.3204  107766465.81048  20507256.5754   83973871.40849
  23468814.088   123329466.499 7  23468806.652    96100854.898 7
  24465838.1654  128568872.45145  24465830.1544  100183526.21646
 13  6 30  0  9 30.0000000  0  9G19G01G11G23G32G17G20G31G14
  25346492.6084  133196716.28246  25346484.6384  103789622.23647
  20266858.944   106503152.027 8  20266853.350    82989443.513 9
  21256384.2204  111703093.01249  21256374.9754   87041368.83949
  22791127.0904  119768231.10148  22791117.9384   93325868.71248
  20602255.0494  108265664.01348  20602247.0154   84362846.12849
  22812616.864   119881133.127 8  22812608.267    93413833.644 8
  20500221.4234  107729449.87748  20500212.6674   83945027.84249
  23460938.168   123288078.199 7  23460930.631    96068604.344 7
  24484374.2324  128666280.82945  24484366.4554  100259428.77246
 13  6 30  0 10  0.0000000  0  9G19G01G11G23G32G17G20G31G14
  25367844.6654  133308921.72546  25367836.6994  103877054.98447
  20270139.577   106520391.867 9  20270133.963    83002877.135 9
  21270673.7444  111778184.65349  21270664.4484   87099881.77849
  22772681.2894  119671297.95048  22772672.1284   93250336.45548
  20607730.8284  108294439.67848  20607722.8164   84385268.74249
  22802013.855   119825413.874 8  22802005.248    93370416.051 8
  20493270.6544  107692923.52748  20493261.9244   83916565.77649
  23453183.510   123247327.633 6  23453175.961    96036850.768 7
  24502975.7214  128764032.06046  24502967.9854  100335598.61646
 13  6 30  0 10 30.0000000  0  9G19G01G11G23G32G17G20G31G14
  25389217.6694  133421237.62146  25389209.7584  103964573.83947
  20273534.723   106538233.607 8  20273529.114    83016779.773 9
  21285066.4014  111853818.32449  21285057.0714   87158817.10349
  22754311.0184  119574761.77348  22754301.8224   93175113.49748
  20613296.1154  108323685.64848  20613288.1394   84408057.81249
  22791535.120   119770347.690 8  22791526.462    93327507.364 8
  20486412.9834  107656886.54048  20486404.3004   83888485.01549
  23445550.669   123207216.656 7  23445543.056    96005595.549 7
  24521642.1284  128862123.19546  24521634.1794  100412033.24646
 13  6 30  0 11  0.0000000  0  9G19G01G11G23G32G17G20G31G14
  25410552.3624  133533351.62746  25410544.3884  104051935.32947
  20276985.442   106556367.316 9  20276979.813    83030909.934 9
  21299502.8634  111929682.19349  21299493.4924   87217931.77249
  22735957.6564  119478314.32948  22735948.4184   93099959.68948
  20618891.7214  108353090.69348  20618883.7294   84430970.81449
  22781121.980   119715626.269 8  22781113.312    93284867.315 8
  20479589.5114  107621028.88648  20479580.8024   83860543.99149
  23437980.874   123167437.180 6  23437973.178    95974598.601 7
  24540313.6214  128960241.92545  24540305.5284  100488489.42246
 13  6 30  0 11 30.0000000  0  9G19G01G11G23G32G17G20G31G14
  25431877.6984  133645416.64646  25431869.7194  104139258.68447
  20280521.321   106574948.428 9  20280515.680    83045388.719 9
  21314012.3364  112005929.86549  21314002.9574   87277345.54249
  22717650.9764  119382112.57748  22717641.7584   93024997.34948
  20624546.8814  108382808.50848  20624538.8124   84454127.56149
  22770804.267   119661406.446 8  22770795.577    93242618.105 8
  20472829.7074  107585505.93948  20472820.9804   83832863.77849
  23430503.933   123128146.214 7  23430496.366    95943982.367 7
  24559019.3394  129058540.57345  24559011.1764  100565085.67746
 13  6 30  0 12  0.0000000  0  9G19G01G11G23G32G17G20G31G14
  25453193.2614  133757430.87746  25453185.3994  104226542.51847
  20284142.543   106593978.012 8  20284136.873    83060216.961 9
  21328594.6754  112082560.51049  21328585.2994   87337057.73249
  22699391.6054  119286159.24948  22699382.3674   92950228.57248
  20630261.4394  108412838.64848  20630253.3584   84477527.67049
  22760582.436   119607690.801 8  22760573.832    93200761.769 8
  20466133.7984  107550318.76148  20466125.0414   83805445.21249
  23423120.441   123089346.453 7  23423113.022    95913748.870 7
  24577758.9004  129157017.25646  24577750.7044  100641820.72446
 13  6 30  0 12 30.0000000  0  9G19G01G11G23G32G17G20G31G14
  25474498.8764  133869392.76346  25474491.0924  104313785.58146
  20287849.254   106613456.910 8  20287843.618    83075395.336 9
  21343249.6104  112159572.84249  21343240.2554   87397067.32749
  22681179.9494  119190456.85348  22681170.7334   92875655.34948
  20636035.3054  108443180.52148  20636027.2264   84501170.69449
  22750457.068   119554482.008 8  22750448.534    93159300.364 8
  20459501.8924  107515467.98848  20459493.1424   83778288.75949
  23415830.984   123051040.472 7  23415823.608    95883900.128 7
  24596531.9614  129255670.41945  24596523.7794  100718693.26546
 13  6 30  0 13  0.0000000  0  9G19G01G11G23G32G17G20G31G14
  25495764.5644  133981144.83046  25495756.8104  104400865.14046
  20291611.924   106633230.064 8  20291606.340    83090802.994 9
  21357947.3674  112236810.13649  21357938.0134   87457252.18949
  22662986.9624  119094852.24448  22662977.6984   92801158.29048
  20641838.6954  108473677.47948  20641830.5724   84524934.55149
  22740398.966   119501626.322 8  22740390.434    93118114.125 8
  20452904.4834  107480798.43148  20452895.7014   83751273.52649
  23408606.295   123013075.163 7  23408599.034    95854316.826 7
  24615308.5304  129354342.02245  24615300.3294  100795580.28546
 13  6 30  0 13 30.0000000  0  9G19G01G11G23G32G17G20G31G14
  25517048.6764  134092993.96945  25517040.9444  104488020.29946
  20295489.494   106653607.141 8  20295484.001    83106681.243 9
  21372746.4524  112314579.97849  21372737.1654   87517852.05349
  22644871.7984  118999656.60648  22644862.4744   92726979.91248
  20647730.2744  108504637.80948  20647722.1264   84549059.48249
  22730467.363   119449434.959 8  22730458.784    93077445.553 8
  20446400.4454  107446619.73048  20446391.7044   83724640.80849
  23401505.741   122975761.811 7  23401498.528    95825241.569 7
  24634147.2394  129453339.22746  24634138.9484  100872720.97046
 13  6 30  0 14  0.0000000  0  9G19G01G11G23G32G17G20G31G14
  25538321.3604  134204783.30446  25538313.6774  104575128.83346
  20299452.634   106674433.834 8  20299447.202    83122909.825 9
  21387617.1484  112392726.19949  21387607.9024   87578745.17449
  22626805.3854  118904717.21548  22626796.0284   92653001.20948
  20653680.2954  108535905.62948  20653672.2074   84573424.00649
  22720633.036   119397755.100 8  22720624.449    93037175.535 8
  20439960.4284  107412777.27648  20439951.6824   83698270.06049
  23394500.110   122938947.600 7  23394492.935    95796555.212 7
  24653017.8114  129552504.94145  24653009.6044  100949992.96146
 13  6 30  0 14 30.0000000  0  9G19G01G11G23G32G17G20G31G14
  25559582.1234  134316509.80846  25559574.4894  104662188.43347
  20303501.285   106695709.576 8  20303495.854    83139488.317 9
  21402558.9394  112471246.34149  21402549.7704   87639929.68749
  22608788.0084  118810035.32148  22608778.5684   92579223.16248
  20659688.4734  108567479.00648  20659680.4274   84598026.66349
  22710896.191   119346587.506 8  22710887.567    92997304.695 8
  20433584.3294  107379270.52548  20433575.5504   83672160.92549
  23387589.808   122902633.905 7  23387582.615    95768258.858 7
  24671919.7504  129651835.92645  24671911.6894  101027393.78045
 13  6 30  0 15  0.0000000  0  9G19G01G11G23G32G17G20G31G14
  25580801.5644  134428018.84646  25580793.9074  104749078.58747
  20307606.407   106717282.201 8  20307600.986    83156298.146 9
  21417542.6244  112549986.20349  21417533.4644   87701285.41049
  22590791.0254  118715460.72448  22590781.5394   92505528.71348
  20665725.6314  108599204.30248  20665717.5334   84622747.66549
  22701228.138   119295781.856 8  22701219.572    92957715.869 8
  20427243.1054  107345947.16548  20427234.3014   83646194.69549
  23380746.098   122866670.150 7  23380738.859    95740235.255 7
  24690823.7154  129751177.37245  24690815.7794  101104802.61846
 13  6 30  0 15 30.0000000  0  9G19G01G11G23G32G17G20G31G14
  25602067.0064  134539769.43346  25602059.2914  104836156.96847
  20311855.840   106739613.186 8  20311850.412    83173698.896 9
  21432655.6194  112629405.33748  21432646.4394   87763170.45249
  22572902.5164  118621456.22448  22572893.0314   92432278.51248
  20671879.2094  108631541.57048  20671871.1084   84647945.52749
  22691717.069   119245800.918 8  22691708.486    92918769.688 8
  20421024.5814  107313268.79248  20421015.8024   83620731.04449
  23374057.099   122831519.472 7  23374049.837    95712845.142 7
  24709816.9214  129850988.21945  24709809.1134  101182577.27146
 13  6 30  0 16  0.0000000  0  9G19G01G11G23G32G17G20G31G14
  25623290.0244  134651296.52446  25623282.1954  104923061.21447
  20316161.566   106762239.739 8  20316156.085    83191329.971 9
  21447809.3824  112709039.21548  21447800.2674   87825222.78349
  22555034.7664  118527560.81448  22555025.2364   92359113.31648
  20678060.9184  108664026.48348  20678052.7854   84673258.45949
  22682275.221   119196183.918 8  22682266.654    92880107.090 8
  20414840.7294  107280772.49048  20414831.9194   83595409.26549
  23367435.089   122796720.766 7  23367427.848    95685729.331 7
  24728810.8764  129950802.93545  24728803.1834  101260355.00046
 13  6 30  0 16 30.0000000  0  9G19G01G11G23G32G17G20G31G14
  25644470.1694  134762599.06046  25644462.3394  105009790.54946
  20320523.791   106785163.575 8  20320518.347    83209192.705 9
  21463004.0484  112788887.34949  21462994.8844   87887442.07649
  22537188.4774  118433778.12148  22537178.8894   92286035.94548
  20684270.7754  108696659.37548  20684262.6174   84698686.68349
  22672903.267   119146933.656 8  22672894.638    92841730.248 8
  20408691.8254  107248459.59648  20408682.9834   83570230.40049
  23360880.779   122762277.570 7  23360873.489    95658890.510 7
  24747805.5924  130050620.65545  24747797.8744  101338135.08346
 13  6 30  0 17  0.0000000  0  9G19G01G11G23G32G17G20G31G14
  25665665.7374  134873982.64846  25665657.8894  105096582.97046
  20325001.193   106808692.416 8  20324995.724    83227526.877 9
  21478297.7094  112869255.89049  21478288.5064   87950066.90049
  22519422.5184  118340417.43949  22519412.8124   92213287.39248
  20690567.1124  108729746.66548  20690558.9514   84724468.99349
  22663659.821   119098359.267 8  22663651.242    92803880.090 8
  20402636.4334  107216638.23048  20402627.5644   83545434.53649
  23354452.830   122728498.907 7  23354445.596    95632569.551 7
  24766858.8494  130150746.19445  24766851.1814  101416155.06546
 13  6 30  0 17 30.0000000  0  9G19G01G11G23G32G17G20G31G14
  25686876.1944  134985444.60245  25686868.4184  105183436.60246
  20329593.692   106832826.036 8  20329588.169    83246332.295 9
  21493689.9634  112950142.60949  21493680.7314   88013095.49149
  22501737.1694  118247480.36349  22501727.4054   92140868.91949
  20696949.5314  108763286.69048  20696941.3874   84750604.06249
  22654545.275   119050462.194 8  22654536.718    92766557.699 8
  20396674.4434  107185307.95048  20396665.5974   83521021.34049
  23348151.707   122695386.533 7  23348144.459    95606767.761 7
  24785970.2064  130251177.18245  24785962.5804  101494412.92346
 13  6 30  0 18  0.0000000  0  9G19G01G11G23G32G17G20G31G14
  25708042.4794  135096674.30346  25708034.6004  105270108.95746
  20334242.639   106857256.544 8  20334237.110    83265369.057 9
  21509121.8644  113031237.79448  21509112.6564   88076286.51649
  22484074.1064  118154660.52948  22484064.3124   92068541.81848
  20703359.2974  108796970.17448  20703351.1724   84776850.93749
  22645501.275   119002935.777 8  22645492.725    92729524.122 8
  20390747.3564  107154161.08848  20390738.5364   83496751.07849
  23341919.181   122662633.953 7  23341911.796    95581246.301 7
  24805080.5964  130351602.95645  24805072.9984  101572666.76446
 13  6 30  0 18 30.0000000  0  9G01G11G23G32G17G20G31G13G14
  20338977.632   106882139.161 8  20338972.096    83284758.098 9
  21524622.6034  113112694.47949  21524613.3854   88139759.22349
  22466463.1974  118062115.14348  22466453.4964   91996428.59848
  20709825.6324  108830951.05548  20709817.4894   84803329.55049
  22636557.781   118955937.278 8  22636549.225    92692901.923 8
  20384884.7024  107123352.75548  20384875.8774   83472744.59549
  23335784.939   122630398.291 7  23335777.474    95556127.649 8
  24826744.0474  130465418.16044
  24824219.1374  130452176.23445  24824211.5284  101651035.53546
 13  6 30  0 19  0.0000000  0  9G01G11G23G32G17G20G31G13G14
  20343798.475   106907472.800 9  20343792.932    83304498.613 9
  21540191.6074  113194509.95849  21540182.3884   88203511.50049
  22448904.6874  117969844.98448  22448895.0364   91924529.82448
  20716348.1224  108865226.84848  20716339.9514   84830037.94249
  22627714.654   118909466.706 8  22627706.187    92656691.098 8
  20379086.2364  107092881.61248  20379077.4164   83449000.86649
  23329749.036   122598679.781 7  23329741.666    95531412.026 8
  24804537.3914  130348717.20845
  24843385.0764  130552893.36045  24843377.3104  101729516.58246
 13  6 30  0 19 30.0000000  0  9G01G11G23G32G17G20G31G13G14
  20348704.691   106933255.266 8  20348699.188    83324588.848 9
  21555828.0814  113276679.99749  21555818.8644   88267540.07049
  22431398.4014  117877849.33448  22431388.8324   91852844.97148
  20722926.1174  108899794.07048  20722917.8944   84856973.45549
  22618971.882   118863523.189 8  22618963.427    92620890.958 8
  20373351.6174  107062745.86348  20373342.7454   83425518.47149
  23323811.560   122567477.821 7  23323804.106    95507098.900 8
  24782338.3144  130232060.52045
  24862577.3994  130653749.51245  24862569.5484  101808105.71546
 13  6 30  0 20  0.0000000  0  9G01G11G23G32G17G20G31G13G14
  20353696.985   106959490.134 8  20353691.519    83345031.609 9
  21571532.3064  113359206.37949  21571523.1254   88331846.33249
  22413945.4424  117786133.66248  22413935.8894   91781378.27548
  20729559.8874  108934654.89348  20729551.6554   84884137.72249
  22610330.346   118818111.924 8  22610321.934    92585505.551 8
  20367681.3824  107032948.70148  20367672.5384   83402299.92149
  23317973.313   122536797.689 7  23317965.862    95483192.390 7
  24760148.4194  130115454.02645
  24881796.5424  130754746.22445  24881788.5654  101886804.56446
 13  6 30  0 20 30.0000000  0  9G01G11G23G32G17G20G31G13G14
  20358746.039   106986023.216 8  20358740.597    83365706.741 9
  21587274.7064  113441933.50248  21587265.5644   88396308.98849
  22396516.7524  117694545.46548  22396507.1884   91710010.90648
  20736219.9674  108969653.84949  20736211.7684   84911409.64749
  22601761.073   118773080.466 8  22601752.766    92550416.113 8
  20362046.3124  107003336.20648  20362037.4574   83379225.27049
  23312205.300   122506486.892 7  23312197.859    95459573.632 7
  24737937.8934  129998739.17245
  24901012.5604  130855726.70645  24901004.5054  101965490.68946
 13  6 30  0 21  0.0000000  0  9G01G11G23G32G17G20G31G13G14
  20363910.331   107013161.691 8  20363904.873    83386853.587 9
  21603113.3044  113525165.89549  21603104.1884   88461165.38049
  22379171.1244  117603393.95148  22379161.5524   91638983.80248
  20742964.6394  109005096.90349  20742956.3724   84939027.61249
  22593322.825   118728737.111 8  22593314.554    92515862.858 8
  20356504.7934  106974215.51648  20356495.9504   83356533.84949
  23306566.379   122476854.161 7  23306558.855    95436483.228 7
  24715770.1304  129882237.48045
  24920283.5194  130956995.52945  24920275.3304  102044401.55646
 13  6 30  0 21 30.0000000  0  9G01G11G23G32G17G20G31G13G14
  20369160.608   107040752.335 8  20369155.201    83408352.803 9
  21619018.6144  113608748.67449  21619009.4594   88526294.80549
  22361879.7694  117512527.51948  22361870.1634   91568178.83148
  20749764.3624  109040829.50049  20749756.0454   84966871.19849
  22584986.643   118684930.116 8  22584978.393    92481727.549 8
  20351027.6864  106945433.31248  20351018.8384   83334106.17949
  23301027.555   122447747.757 7  23301019.939    95413802.980 7
  24693611.2944  129765791.63245
  24939579.5734  131058396.78945  24939571.3604  102123415.57646
 13  6 30  0 22  0.0000000  0  9G01G11G23G32G17G20G31G13G14
  20374497.073   107068795.711 8  20374491.662    83430204.779 9
  21634990.3594  113692680.57649  21634981.1904   88591696.24849
  22344643.0974  117421948.25748  22344633.4194   91497597.62048
  20756619.0704  109076850.98148  20756610.7334   84994939.87549
  22576752.914   118641661.514 8  22576744.635    92448011.750 8
  20345615.1914  106916990.58248  20345606.3684   83311943.02049
  23295589.295   122419169.821 7  23295581.609    95391534.489 7
  24671463.6764  129649404.24045
  24958900.4094  131159928.77945  24958892.2374  102202531.33845
 13  6 30  0 22 30.0000000  0  9G01G11G23G32G17G20G31G13G14
  20379919.726   107097291.944 8  20379914.345    83452409.636 9
  21651028.2364  113776959.99749  21651019.0414   88657368.50349
  22327461.5064  117331658.38748  22327451.7664   91427241.93848
  20763528.5004  109113160.22248  20763520.1234   85023232.79649
  22568621.936   118598932.939 8  22568613.627    92414716.754 8
  20340267.2504  106888887.15248  20340258.4584   83290044.28249
  23290251.954   122391121.967 7  23290244.261    95369679.132 7
  24649327.3914  129533077.84245
  24978245.7264  131261589.42045  24978237.6114  102281747.59646
 13  6 30  0 23  0.0000000  0  9G01G11G23G32G17G20G31G13G14
  20385428.670   107126241.954 8  20385423.333    83474968.084 9
  21667132.1114  113861586.05749  21667122.8754   88723310.88749
  22310335.5114  117241660.80048  22310325.7274   91357113.98248
  20770492.6044  109149756.89648  20770484.2534   85051749.68449
  22560594.153   118556746.776 8  22560585.854    92381844.428 8
  20334984.1374  106861124.33048  20334975.3694   83268410.91549
  23285015.958   122363606.933 7  23285008.204    95348238.854 7
  24627203.2724  129416815.37245
  24997615.3224  131363377.21045  24997607.1934  102361062.73346
 13  6 30  0 23 30.0000000  0  9G01G11G23G32G17G20G31G13G14
  20390994.402   107155490.198 8  20390989.113    83497758.899 9
  21683271.9904  113946401.31849  21683262.7134   88789400.70249
  22293235.8054  117151801.36348  22293226.0134   91287093.69849
  20777481.5734  109186484.30248  20777473.2624   85080368.44349
  22552640.293   118514949.025 8  22552632.025    92349274.766 8
  20329736.2274  106833546.43948  20329727.4554   83246921.64849
  23279851.956   122336470.355 7  23279844.245    95327093.552 7
  24605062.3044  129300463.36445
  25016978.9714  131465134.05745  25016970.8524  102440353.86845
 13  6 30  0 24  0.0000000  0  9G01G11G23G32G17G20G31G13G14
  20396675.700   107185345.684 8  20396670.395    83521022.922 9
  21699506.2914  114031712.77349  21699497.0014   88855877.14649
  22276221.5914  117062391.31448  22276211.8284   91217423.58049
  20784553.9824  109223650.12348  20784545.6864   85109328.83949
  22544819.402   118473849.903 8  22544811.157    92317249.494 8
  20324582.3514  106806462.76548  20324573.5974   83225817.52549
  23274819.122   122310023.013 7  23274811.484    95306485.300 7
  24582963.3864  129184332.64145
  25036395.1154  131567166.95945  25036386.9884  102519860.07545
 13  6 30  0 24 30.0000000  0  9G01G11G23G32G17G20G31G13G14
  20402443.182   107215654.069 8  20402437.889    83544639.848 9
  21715805.2814  114117364.22949  21715795.9864   88922618.51749
  22259263.7744  116973277.63748  22259254.0504   91147984.44049
  20791680.2714  109261098.96149  20791671.9634   85138509.74949
  22537102.419   118433296.633 8  22537094.148    92285649.570 8
  20319493.1174  106779719.03148  20319484.4154   83204978.30049
  23269888.340   122284111.950 7  23269880.781    95286294.896 7
  24560877.5444  129068271.38145
  25055833.8994  131669318.95945  25055825.7474  102599459.16945
 13  6 30  0 25  0.0000000  0  9G01G11G23G32G17G20G31G13G14
  20408326.142   107246569.669 8  20408320.913    83568729.910 9
  21732198.0264  114203508.31049  21732188.6734   88989743.76549
  22242392.1784  116884616.80248  22242382.4494   91078898.11749
  20798889.5354  109298983.77448  20798881.2204   85168030.39149
  22529518.810   118393444.563 8  22529510.550    92254596.004 8
  20314497.9464  106753469.48547  20314489.2664   83184524.12549
  23265089.286   122258893.067 7  23265081.744    95266643.891 7
  24538834.5944  128952435.96245
  25075324.2664  131771742.15544
 13  6 30  0 25 30.0000000  0  8G01G11G23G32G17G20G31G13
  20414265.875   107277783.114 8  20414260.639    83593052.092 9
  21748625.2894  114289833.91349  21748615.9154   89057010.45349
  22225548.2094  116796101.20849  22225538.4394   91009924.96149
  20806122.7004  109336994.25148  20806114.3734   85197648.94249
  22522010.098   118353986.137 8  22522001.873    92223849.228 8
  20309537.9784  106727405.11447  20309529.3704   83164214.24448
  23260363.386   122234058.481 7  23260355.755    95247292.258 7
  24516776.4204  128836519.34845
 13  6 30  0 26  0.0000000  0  8G01G11G23G32G17G20G31G13
  20420291.749   107309449.418 9  20420286.550    83617727.128 9
  21765116.2814  114376494.22349  21765106.8514   89124537.95449
  22208761.7164  116707887.65649  22208751.9104   90941187.18049
  20813409.0824  109375284.13348  20813400.7134   85227485.22249
  22514606.027   118315077.732 8  22514597.850    92193530.988 8
  20304642.8544  106701681.12248  20304634.2184   83144169.60249
  23255740.336   122209764.815 7  23255732.700    95228362.184 7
  24494732.6114  128720678.60245
 13  6 30  0 26 30.0000000  0  8G01G11G23G32G17G20G31G13
  20426374.620   107341414.999 8  20426369.386    83642635.390 9
  21781641.2914  114463333.54949  21781631.8654   89192204.93649
  22192003.8264  116619824.59949  22191994.0044   90872566.66849
  20820719.2054  109413698.84048  20820710.7914   85257418.77149
  22507277.705   118276566.952 8  22507269.429    92163522.579 8
  20299783.2844  106676143.84748  20299774.5964   83124270.45049
  23251191.300   122185859.717 7  23251183.599    95209734.875 7
  24472673.1704  128604766.51845
 13  6 30  0 27  0.0000000  0  9G01G11G23G32G17G20G31G13G14
  20432572.798   107373986.894 8  20432567.568    83668016.096 9
  21798258.5094  114550657.49149  21798249.0994   89260249.54249
  22175333.3394  116532220.72349  22175323.4904   90804303.95349
  20828111.2444  109452544.14349  20828102.7784   85287687.84949
  22500083.681   118238762.413 8  22500075.399    92134064.542 8
  20295017.7304  106651100.69348  20295009.0134   83104756.30949
  23246774.977   122162651.910 7  23246767.200    95191650.897 7
  24450659.5434  128489084.06846  24450654.0164  100121338.40646
  25153351.6634  132181746.45345
 13  6 30  0 27 30.0000000  0  9G01G11G23G32G17G20G31G13G14
  20438857.174   107407011.325 9  20438851.890    83693749.407 9
  21814938.3564  114638310.55449  21814928.9824   89328550.62449
  22158721.3774  116444924.21149  22158711.4334   90736280.72848
  20835555.7194  109491665.25148  20835547.2944   85318171.83449
  22492995.145   118201511.721 8  22492986.803    92105038.053 8
  20290316.9774  106626397.81948  20290308.1714   83085507.33349
  23242462.329   122139988.977 7  23242454.522    95173991.575 7
  24428661.2754  128373484.07246  24428656.7024  100031260.64446
  25172917.7774  132284564.57845  25172909.5084  103078852.22346
 13  6 30  0 28  0.0000000  0  9G01G11G23G32G17G20G31G13G14
  20445256.970   107440642.417 8  20445251.662    83719955.466 9
  21831709.7364  114726444.81649  21831700.3984   89397226.64649
  22142197.5314  116358090.75549  22142187.4784   90668618.33649
  20843081.8324  109531215.24149  20843073.4064   85348990.00549
  22486041.502   118164970.017 8  22486033.121    92076564.012 8
  20285710.2944  106602189.47348  20285701.4534   83066643.71849
  23238282.941   122118026.582 7  23238275.105    95156878.064 7
  24406708.8014  128258122.67046  24406704.1754   99941368.84346
  25192532.5844  132387639.83345  25192524.0384  103159170.56746
 13  6 30  0 28 30.0000000  0  9G01G11G23G32G17G20G31G13G14
  20451713.666   107474572.333 8  20451708.310    83746394.358 9
  21848513.7754  114814750.51048  21848504.4084   89466036.25649
  22125703.5904  116271414.63448  22125693.4814   90601078.54948
  20850630.7724  109570885.18448  20850622.3374   85379901.67549
  22479164.512   118128831.126 8  22479156.092    92048403.854 8
  20281139.1924  106578168.29548  20281130.3634   83047925.93049
  23234178.560   122096458.230 7  23234170.747    95140071.590 7
  24384743.7104  128142694.52846  24384738.7944   99851425.02947
  25212137.0154  132490662.50545  25212128.5134  103239448.11746
 13  6 30  0 29  0.0000000  0  9G01G11G23G32G17G20G31G13G14
  20458256.342   107508954.140 8  20458250.936    83773185.382 9
  21865379.2364  114903379.29348  21865369.9144   89535097.62048
  22109269.0364  116185050.90748  22109258.9484   90533782.19848
  20858231.4554  109610827.10948  20858223.0164   85411025.25149
  22472393.401   118093249.322 8  22472385.095    92020677.816 8
  20276632.8744  106554487.62648  20276624.0554   83029473.47949
  23230178.618   122075438.329 7  23230170.743    95123692.492 7
  24362795.5634  128027354.92446  24362790.3044   99761550.19447
  25231760.1504  132593783.15045  25231751.8014  103319802.01245
 13  6 30  0 29 30.0000000  0  9G01G11G23G32G17G20G31G13G14
  20464885.265   107543789.364 9  20464879.870    83800329.697 9
  21882306.0804  114992330.77348  21882296.8534   89604410.42148
  22092894.5494  116099002.83448  22092884.4864   90466731.82448
  20865883.9384  109651041.43048  20865875.5534   85442361.10749
  22465728.999   118058227.468 8  22465720.630    91993388.072 8
  20272191.7824  106531149.34048  20272182.9464   83011287.81849
  23226283.608   122054969.848 7  23226275.674    95107743.087 7
  24340864.7564  127912107.62746  24340859.4504   99671747.32647
  25251401.9404  132697001.57745  25251393.5694  103400231.95545
 13  6 30  0 30  0.0000000  0  9G01G11G23G32G17G20G31G13G14
  20471600.271   107579076.773 8  20471594.870    83827826.371 9
  21899293.7554  115081601.85548  21899284.5894   89673972.29649
  22076580.2834  116013271.22549  22076570.2574   90399928.03248
  20873587.8814  109691525.98148  20873579.5054   85473907.50649
  22459171.130   118023765.883 8  22459162.813    91966534.908 8
  20267815.5604  106508152.01348  20267806.6924   82993367.85249
  23222493.656   122035053.268 7  23222485.673    95092223.726 7
  24318951.6624  127796953.66547  24318946.3164   99582017.14247
  25271061.5734  132800313.95745  25271053.3934  103480735.15045
 13  6 30  0 30 30.0000000  0  9G01G11G23G32G17G20G31G13G14
  20478401.383   107614816.734 9  20478395.974    83855675.696 9
  21916341.9564  115171191.13348  21916332.8594   89743782.11348
  22060326.6484  115927858.04849  22060316.6274   90333372.38449
  20881343.1084  109732280.10448  20881334.7584   85505663.97049
  22452720.109   117989865.977 8  22452711.881    91940119.417 8
  20263504.2964  106485496.17048  20263495.4374   82975713.98149
  23218808.997   122015690.192 7  23218800.959    95077135.627 7
  24297056.9024  127681895.92947  24297051.4614   99492361.93547
  25290739.0124  132903718.84545  25290730.7104  103561310.41145
 13  6 30  0 31  0.0000000  0  9G01G11G23G32G17G20G31G13G14
  20485288.588   107651009.052 9  20485283.157    83883877.494 9
  21933450.3724  115261096.83948  21933441.3694   89813838.47448
  22044133.9154  115842764.65949  22044123.8744   90267065.89449
  20889149.4274  109773302.64648  20889141.1224   85537629.60149
  22446376.361   117956529.041 8  22446368.061    91914142.599 8
  20259258.0434  106463182.08148  20259249.1644   82958326.39349
  23215229.819   121996881.608 7  23215221.752    95062479.621 7
  24275180.7274  127566936.28847  24275175.2834   99402783.20747
  25310435.0964  133007229.09245
 13  6 30  0 31 30.0000000  0  8G01G11G23G32G17G20G31G13
  20492232.490   107687499.130 9  20492226.989    83912311.326 9
  21950589.2424  115351162.39548  21950580.2564   89884019.41748
  22027973.1264  115757839.14349  22027963.0084   90200890.22349
  20896977.1994  109814437.92948  20896968.9074   85569683.07149
  22440110.583   117923601.845 8  22440102.196    91888485.052 9
  20255047.5324  106441055.57348  20255038.6034   82941084.97249
  23211727.018   121978474.515 7  23211718.956    95048136.445 8
  24253294.2954  127451922.62547  24253288.8534   99313162.36847
 13  6 30  0 32  0.0000000  0  8G01G11G23G32G17G20G31G13
  20499291.663   107724595.272 9  20499286.153    83941217.423 9
  21967816.9644  115441694.56048  21967807.9664   89954563.94448
  22011903.2104  115673391.41349  22011893.0764   90135086.85349
  20904884.9114  109855993.48848  20904876.6834   85602064.02949
  22433981.541   117891393.701 8  22433973.195    91863387.817 8
  20250931.3304  106419424.91248  20250922.3994   82924229.93349
  23208359.636   121960778.615 7  23208351.498    95034347.457 8
  24231456.6534  127337165.41847  24231451.2024   99223741.33947
 13  6 30  0 32 30.0000000  0  8G01G11G23G32G17G20G31G13
  20506436.764   107762143.027 9  20506431.270    83970475.421 9
  21985103.7694  115532537.27449  21985094.7424   90025350.46748
  21995895.1634  115589268.80748  21995885.0154   90069536.83249
  20912842.9914  109897813.79248  20912834.8204   85634651.27249
  22427960.305   117859751.825 8  22427951.949    91838731.822 8
  20246880.0894  106398135.80948  20246871.1944   82907641.04949
  23205098.415   121943640.784 7  23205090.224    95020993.333 7
  24209638.9124  127222512.66647  24209633.4384   99134401.74247
 13  6 30  0 33  0.0000000  0  8G01G11G23G32G17G20G31G13
  20513667.943   107800143.132 8  20513662.462    84000085.878 9
  22002449.4294  115623689.20548  22002440.3714   90096377.91948
  21979949.4924  115505473.92848  21979939.3174   90004242.17649
  20920851.3954  109939898.67548  20920843.2844   85667444.71449
  22422047.073   117828678.086 8  22422038.815    91814518.527 8
  20242894.1974  106377189.80748  20242885.2744   82891319.49749
  23201943.657   121927063.047 7  23201935.549    95008075.656 7
  24187841.6334  127107967.69247  24187836.2054   99045146.09247
 13  6 30  0 33 30.0000000  0  8G01G11G23G32G17G20G31G13
  20520984.821   107838593.709 8  20520979.361    84030047.358 9
  22019853.2514  115715147.03549  22019844.2024   90167643.75849
  21964066.2284  115422007.00049  21964056.0154   89939203.08549
  20928909.6864  109982245.40548  20928901.6024   85700442.18349
  22416241.909   117798171.741 8  22416233.671    91790747.370 8
  20238973.2884  106356585.22648  20238964.3294   82875264.00849
  23198895.425   121911044.788 7  23198887.331    94995593.961 7
  24166064.9634  126993530.76647  24166059.4694   98955974.62347
 13  6 30  0 34  0.0000000  0  8G01G11G23G32G17G20G31G13
  20528358.170   107877340.796 9  20528352.717    84060239.893 9
  22037285.6614  115806754.90649  22037276.5994   90239026.50949
  21948216.4244  115338715.78148  21948206.1594   89874300.88749
  20936988.3134  110024699.12548  20936980.2454   85733522.99949
  22410515.659   117768080.092 8  22410507.411    91767299.355 8
  20235088.1254  106336168.24747  20235079.1214   82859354.67049
  23195924.607   121895433.349 6  23195916.512    94983429.266 7
  24144279.9354  126879050.48347  24144274.4894   98866769.39647
 13  6 30  0 34 30.0000000  0  8G01G11G23G32G17G20G31G13
  20535846.641   107916692.790 9  20535841.149    84090903.772 9
  22054805.0024  115898819.41549  22054795.8994   90310765.05249
  21932459.1404  115255910.69449  21932448.7964   89809777.49549
  20945145.8614  110067567.33248  20945137.7954   85766926.80449
  22404927.353   117738713.350 8  22404919.062    91744416.186 8
  20231297.3304  106316247.60948  20231288.3564   82843832.11949
  23193090.177   121880538.758 7  23193082.061    94971823.102 8
  24122545.8234  126764837.64047  24122540.3984   98777772.55447
 13  6 30  0 35  0.0000000  0  8G01G11G23G32G17G20G31G13
  20543420.828   107956495.346 9  20543415.357    84121918.761 9
  22072381.6194  115991184.97149  22072372.5064   90382738.19648
  21916765.3474  115173439.50749  21916755.0064   89745514.29649
  20953352.7204  110110694.79348  20953344.6614   85800532.61049
  22399447.824   117709917.728 8  22399439.405    91721978.034 8
  20227571.6084  106296669.05748  20227562.6564   82828576.12649
  23190363.007   121866207.692 7  23190354.935    94960656.100 8
  24100833.6674  126650740.11547  24100828.2864   98688865.58447
 13  6 30  0 35 30.0000000  0  8G01G11G23G32G17G20G31G13
  20551110.209   107996903.443 8  20551104.761    84153405.586 9
  22090044.6544  116084004.65749  22090035.5044   90455065.22049
  21901164.9524  115091458.93949  21901154.5904   89681633.39049
  20961638.2124  110154235.72148  20961630.2134   85834460.62149
  22394106.621   117681849.581 8  22394098.188    91700106.766 8
  20223940.6844  106277588.23347  20223931.6844   82813707.96549
  23187772.816   121852596.524 7  23187764.790    94950050.015 8
  24079173.4374  126536915.40247  24079168.0094   98600171.18347
 13  6 30  0 36  0.0000000  0  8G01G11G23G32G17G20G31G13
  20558856.157   108037608.737 8  20558850.710    84185124.014 9
  22107735.1544  116176968.61549  22107725.9674   90527504.64348
  21885599.6294  115009662.42449  21885589.1614   89617895.86949
  20969943.5574  110197880.91648  20969935.6194   85868469.87149
  22388845.495   117654202.303 8  22388837.072    91678563.438 8
  20220345.7774  106258697.11848  20220336.8024   82798987.65049
  23185261.222   121839398.383 7  23185253.184    94939765.784 8
  24057506.9464  126423057.97347  24057501.5024   98511451.27447
 13  6 30  0 36 30.0000000  0  8G01G11G23G32G17G20G31G13
  20566658.606   108078610.819 9  20566653.162    84217073.690 9
  22125452.5874  116270074.47849  22125443.4184   90600054.64749
  21870069.5984  114928051.56249  21870059.1134   89554303.04449
  20978268.4604  110241629.13948  20978260.6134   85902559.39449
  22383664.490   117626976.185 8  22383656.120    91657348.308 8
  20216786.9444  106239995.63648  20216778.0334   82784415.08549
  23182828.380   121826613.586 7  23182820.303    94929803.668 8
  24035834.5844  126309169.56647  24035829.1034   98422707.23447
 13  6 30  0 37  0.0000000  0  8G01G11G23G32G17G20G31G13
  20574576.005   108120216.846 8  20574570.546    84249493.989 9
  22143255.2304  116363627.74749  22143246.0454   90672953.30048
  21854633.6654  114846935.43849  21854623.2114   89491095.73149
  20986671.2984  110285786.72448  20986663.5104   85936967.91249
  22378622.361   117600479.680 8  22378614.002    91636701.679 8
  20213322.7734  106221791.48548  20213313.9034   82770230.05149
  23180532.917   121814550.782 7  23180524.824    94920404.129 8
  24014215.2304  126195559.97047  24014209.7754   98334180.44947
 13  6 30  0 37 30.0000000  0  8G01G11G23G32G17G20G31G13
  20582607.917   108162425.014 8  20582602.476    84282383.464 9
  22161142.4004  116457625.14849  22161133.1224   90746198.01548
  21839291.9864  114766314.55849  21839281.5314   89428274.30449
  20995151.6334  110330351.18548  20995143.8454   85971693.46749
  22373718.984   117574712.260 8  22373710.603    91616623.201 8
  20209953.0194  106204083.18248  20209944.1014   82756431.40049
  23178374.794   121803209.772 7  23178366.635    94911567.015 7
  23992649.0714  126082229.85147  23992643.6344   98245871.45947
 13  6 30  0 38  0.0000000  0  8G01G11G23G32G17G20G31G13
  20590696.229   108204929.319 9  20590690.787    84315503.681 9
  22179055.5044  116551758.95649  22179046.1544   90819549.01548
  21823986.6264  114685884.34649  21823976.1344   89365601.45149
  21003650.9704  110375015.69148  21003643.2214   86006496.99249
  22368896.326   117549369.150 8  22368887.954    91596875.323 8
  20206619.4624  106186565.03748  20206610.4784   82742780.89749
  23176295.927   121792285.437 7  23176287.718    94903054.573 8
  23971078.3744  125968875.45247  23971072.8354   98157543.51647
 13  6 30  0 38 30.0000000  0  8G01G11G23G32G17G20G31G13
  20598869.690   108247881.394 9  20598864.278    84348972.822 9
  22197023.1124  116646179.12449  22197013.7254   90893123.15048
  21808746.7844  114605798.62449  21808736.2964   89303197.04949
  21012198.1224  110419931.21848  21012190.3354   86041496.11849
  22364183.546   117524603.385 8  22364175.184    91577577.318 8
  20203350.9974  106169389.07348  20203341.9784   82729397.06049
  23174325.480   121781930.734 7  23174317.213    94894985.997 8
  23949532.5294  125855651.27147  23949526.8124   98069317.03147
 13  6 30  0 39  0.0000000  0  8G01G11G23G32G17G20G31G13
  20607128.628   108291282.346 8  20607123.218    84382791.738 9
  22215045.1504  116740885.32249  22215035.7304   90966920.18548
  21793573.0924  114526060.64949  21793562.6154   89241063.61349
  21020793.1294  110465098.09448  21020785.2874   86076691.07349
  22359580.960   117500416.883 8  22359572.666    91558730.715 8
  20200147.8954  106152556.84648  20200138.9054   82716281.07449
  23172463.905   121772148.029 7  23172455.594    94887363.168 8
  23928012.1554  125742560.94447  23928006.2634   97981194.85247
 13  6 30  0 39 30.0000000  0  8G01G11G23G32G17G20G31G13
  20615443.461   108334977.087 8  20615438.079    84416839.581 9
  22233091.7394  116835720.66449  22233082.3084   91040817.84348
  21778436.3704  114446516.95249  21778425.9354   89179081.56049
  21029406.2644  110510360.42748  21029398.3994   86111960.45149
  22355059.367   117476655.627 8  22355051.016    91540215.437 8
  20196980.7784  106135913.71947  20196971.7634   82703312.41049
  23170681.844   121762783.231 7  23170673.514    94880065.972 7
  23906488.0444  125629451.28547  23906482.0264   97893057.57447
 13  6 30  0 40  0.0000000  0  8G01G11G23G32G17G20G31G13
  20623872.703   108379273.491 8  20623867.389    84451356.258 9
  22251221.2024  116930991.45049  22251211.7334   91115054.80749
  21763395.7024  114367477.89249  21763385.2514   89117492.72749
  21038096.0404  110556025.56948  21038088.1734   86147543.68849
  22350677.583   117453629.010 8  22350669.167    91522272.625 8
  20193908.3124  106119768.05547  20193899.3384   82690731.40249
  23169038.105   121754145.637 7  23169029.798    94873335.420 7
  23885019.3604  125516633.27847  23885013.3194   97805147.56147
 13  6 30  0 40 30.0000000  0  8G01G11G23G32G17G20G31G13
  20632386.912   108424016.526 8  20632381.675    84486220.959 9
  22269403.6994  117026540.98749  22269394.2354   91189508.99148
  21748421.9054  114288790.05849  21748411.4044   89056177.57549
  21046832.8154  110601937.75848  21046824.9234   86183319.40649
  22346406.209   117431182.784 8  22346397.810    91504782.071 8
  20190901.0934  106103965.19747  20190892.0934   82678417.48949
  23167503.474   121746081.348 7  23167495.208    94867051.590 7
  23863577.2144  125403954.73147  23863571.1634   97717346.26347
 13  6 30  0 41  0.0000000  0  8G01G11G23G32G17G20G31G13
  20640985.887   108469204.505 8  20640980.657    84521432.355 9
  22287638.6094  117122366.02548  22287629.1564   91264177.81748
  21733514.9524  114210453.68249  21733504.4374   88995136.28849
  21055616.2164  110648094.65548  21055608.2794   86219285.84449
  22342245.238   117409316.547 8  22342236.823    91487743.460 8
  20187958.8874  106088503.80247  20187949.8624   82666369.66849
  23166077.881   121738589.870 7  23166069.610    94861214.129 8
  23842161.7194  125291416.16647  23842155.6734   97629654.03747
 13  6 30  0 41 30.0000000  0  8G01G11G23G32G17G20G31G13
  20649640.422   108514684.329 9  20649635.192    84556871.165 9
  22305896.4854  117218311.93548  22305887.0804   91338940.83848
  21718646.1004  114132317.83649  21718635.6124   88934251.24749
  21064416.9584  110694342.48948  21064408.9334   86255323.11349
  22338165.733   117387878.481 8  22338157.293    91471038.467 8
  20185052.6624  106073231.48547  20185043.6224   82654469.16549
  23164732.436   121731519.320 7  23164724.132    94855704.623 8
  23820744.2554  125178867.19547  23820738.1964   97541953.67747
 13  6 30  0 42  0.0000000  0  8G01G11G23G32G17G20G31G13
  20658408.975   108560763.575 9  20658403.778    84592777.062 9
  22324235.6324  117314684.99248  22324226.3004   91414036.69148
  21703874.2274  114054691.68149  21703863.7634   88873763.37149
  21073293.3804  110740988.27748  21073285.3334   86291670.48449
  22334226.449   117367177.462 8  22334217.991    91454907.808 8
  20182240.9824  106058456.32247  20182231.9824   82642956.09349
  23163525.764   121725178.218 7  23163517.421    94850763.530 8
  23799383.7654  125066617.75548  23799377.7084   97454486.73748
 13  6 30  0 42 30.0000000  0  8G01G11G23G32G17G20G31G13
  20667291.597   108607442.196 8  20667286.389    84629149.994 9
  22342655.6764  117411482.97848  22342646.4124   91489463.65848
  21689199.7954  113977577.52048  21689189.3764   88813674.45949
  21082245.3764  110788031.21048  21082237.3254   86328327.33449
  22330427.595   117347214.291 8  22330419.125    91439352.088 8
  20179524.0064  106044178.76647  20179514.9994   82631830.75349
  23162458.008   121719567.495 7  23162449.714    94846391.575 8
  23778080.8584  124954670.78148  23778074.7434   97367255.46648
 13  6 30  0 43  0.0000000  0  8G01G11G23G32G17G20G31G13
  20676229.415   108654410.870 8  20676224.259    84665748.951 9
  22361097.5214  117508395.46248  22361088.2954   91564979.83548
  21674564.2634  113900667.97049  21674553.9144   88753744.99949
  21091214.0054  110835161.54648  21091205.9344   86365052.28949
  22326710.435   117327680.421 8  22326701.925    91424130.899 8
  20176843.0224  106030090.09847  20176833.9704   82620852.57549
  23161470.616   121714379.342 7  23161462.373    94842348.888 7
  23756777.0974  124842719.26548  23756770.9204   97280020.62448
 13  6 30  0 43 30.0000000  0  8G01G11G23G32G17G20G31G13
  20685222.764   108701671.612 8  20685217.664    84702575.503 9
  22379561.2244  117605422.87948  22379552.0714   91640585.59948
  21659968.4464  113823966.93449  21659958.1504   88693977.97649
  21100199.4784  110882380.65248  21100191.4144   86401846.39049
  22323075.665   117308579.324 8  22323067.048    91409246.935 8
  20174198.4614  106016192.77547  20174189.3864   82610023.50749
  23160564.328   121709616.829 7  23160556.018    94838637.892 8
  23735473.3804  124730767.97647  23735467.1274   97192785.96348
 13  6 30  0 44  0.0000000  0  8G01G11G23G32G17G20G31G13
  20694329.879   108749529.827 8  20694324.764    84739867.620 9
  22398104.5854  117702868.96148  22398095.4784   91716517.56548
  21645470.8864  113747781.86449  21645460.5504   88634613.04049
  21109259.8474  110929993.39748  21109251.8214   86438947.24449
  22319581.455   117290217.191 8  22319572.868    91394938.789 8
  20171648.4404  106002792.38847  20171639.3494   82599581.65949
  23159797.371   121705586.441 7  23159788.968    94835497.326 8
  23714228.3734  124619125.08548  23714222.0354   97105791.61448
 13  6 30  0 44 30.0000000  0  8G01G11G23G32G17G20G31G13
  20703550.721   108797985.867 9  20703545.624    84777625.562 9
  22416727.4104  117800732.56748  22416718.3354   91792774.92448
  21631071.9334  113672115.04349  21631061.5774   88575651.90249
  21118395.1184  110977999.57048  21118387.0954   86476354.66349
  22316228.201   117272595.848 8  22316219.576    91381207.870 8
  20169193.2574  105989890.18948  20169184.1624   82589528.01549
  23159169.950   121702289.572 7  23159161.576    94832928.384 8
  23693042.5534  124507793.28947  23693036.1464   97019039.69147
 13  6 30  0 45  0.0000000  0  8G01G11G23G32G17G20G31G13
  20712826.491   108846730.429 8  20712821.371    84815608.318 9
  22435370.5024  117898702.79948  22435361.4934   91869115.35648
  21616713.1574  113596659.47848  21616702.8094   88516855.39549
  21127546.2724  111026089.39648  21127538.3174   86513827.26149
  22312957.193   117255406.835 8  22312948.601    91367813.838 8
  20166774.0874  105977177.42547  20166764.9734   82579621.96749
  23158623.440   121699417.832 7  23158615.043    94830690.673 8
  23671857.5804  124396466.06347  23671851.0904   96932291.30247
 13  6 30  0 45 30.0000000  0  8G01G11G23G32G17G20G31G13
  20722186.624   108895918.260 9  20722181.487    84853936.492 9
  22454063.1024  117996933.14048  22454054.1394   91945658.42848
  21602424.3594  113521571.65249  21602413.9914   88458345.45149
  21136742.7274  111074417.15748  21136734.7854   86551485.26249
  22309798.072   117238805.728 8  22309789.531    91354877.911 8
  20164420.4234  105964809.27747  20164411.4024   82569984.48549
  23158187.443   121697127.087 7  23158179.133    94828905.759 8
  23650703.4604  124285300.97847  23650696.9094   96845669.28047
 13  6 30  0 46  0.0000000  0  8G01G11G23G32G17G20G31G13
  20731630.837   108945547.431 9  20731625.586    84892608.560 9
  22472804.5814  118095420.15048  22472795.6354   92022401.53348
  21588205.5084  113446851.52349  21588195.1554   88400122.00749
  21145984.0084  111122980.35448  21145976.0734   86589326.72749
  22306750.732   117222791.909 8  22306742.237    91342399.628 8
  20162132.2044  105952784.60547  20162123.1864   82560614.62449
  23157861.957   121695416.648 7  23157853.625    94827572.983 8
  23629580.3714  124174298.76947  23629573.7654   96759174.16247
 13  6 30  0 46 30.0000000  0  8G01G11G23G32G17G20G31G13
  20741158.896   108995617.531 9  20741153.593    84931624.219 9
  22491594.5094  118194161.70048  22491585.5664   92099342.97348
  21574056.9704  113372500.89349  21574046.6334   88342186.48649
  21155269.9704  111171778.16449  21155261.9464   86627351.01249
  22303815.273   117207366.033 7  22303806.775    91330379.462 8
  20159909.2584  105941103.19447  20159900.2784   82551512.24949
  23157646.966   121694286.990 7  23157638.619    94826692.755 8
  23608488.6494  124063461.83347  23608482.0554   96672807.82247
 13  6 30  0 47  0.0000000  0  8G01G11G23G32G17G20G31G13
  20750741.456   109045973.912 9  20750736.108    84970862.952 9
  22510403.2114  118293001.85048  22510394.2414   92176361.22548
  21559949.7834  113298367.05949  21559939.3964   88284419.89549
  21164571.0074  111220655.31649  21164562.9584   86665437.10349
  22300962.438   117192374.407 7  22300953.932    91318697.672 8
  20157722.5144  105929611.90247  20157713.4964   82542557.99449
  23157513.244   121693584.398 7  23157504.880    94826145.306 7
  23587399.4534  123952637.92747  23587392.8134   96586451.65147
 13  6 30  0 47 30.0000000  0  8G01G11G23G32G17G20G31G13
  20760437.037   109096924.220 9  20760431.628    85010564.487 9
  22529288.9344  118392246.61748  22529279.8874   92253694.79148
  21545942.7994  113224759.80149  21545932.3514   88227063.63949
  21173945.6464  111269919.25648  21173937.5774   86703824.60149
  22298250.973   117178125.876 7  22298242.504    91307594.953 8
  20155630.5154  105918618.18747  20155621.4334   82533991.46749
  23157519.575   121693617.731 7  23157511.170    94826171.311 8
  23566371.8104  123842137.60247  23566365.1804   96500347.57347
 13  6 30  0 48  0.0000000  0  8G01G11G23G32G17G20G31G13
  20770216.336   109148314.410 9  20770210.901    85050608.787 9
  22548221.9834  118491740.64748  22548212.9764   92331222.56348
  21532007.0824  113151526.98949  21531996.5844   88169999.12649
  21183364.4464  111319415.44348  21183356.4184   86742393.05449
  22295651.772   117164466.793 8  22295643.242    91296951.474 8
  20153603.9244  105907968.68947  20153594.8884   82525693.17049
  23157636.810   121694233.932 7  23157628.370    94826651.475 8
  23545376.9244  123731809.48447  23545370.3434   96414377.72647
 13  6 30  0 48 30.0000000  0  8G01G11G23G32G17G20G31G13
  20780079.115   109200143.474 9  20780073.642    85090995.066 9
  22567202.1064  118591481.30648  22567193.0304   92408942.52148
  21518142.7174  113078669.57349  21518132.2644   88113227.17949
  21192827.1494  111369142.41248  21192819.1484   86781141.35249
  22293164.698   117151397.319 8  22293156.168    91286767.506 8
  20151642.8034  105897663.17947  20151633.7734   82517662.91949
  23157864.840   121695432.921 7  23157856.487    94827585.765 8
  23524415.1304  123621655.45047  23524408.5404   96328543.45847
 13  6 30  0 49  0.0000000  0  8G01G11G23G32G17G20G31G13
  20789995.836   109252256.072 9  20789990.366    85131602.265 9
  22586199.3774  118691312.07848  22586190.2744   92486732.68548
  21504320.7054  113006034.41049  21504310.2254   88056628.36749
  21202304.1674  111418944.59948  21202296.1574   86819948.24349
  22290760.638   117138763.584 8  22290752.019    91276923.044 8
  20149717.7574  105887547.05647  20149708.7224   82509780.21949
  23158174.484   121697060.237 7  23158166.150    94828853.845 8
  23503457.4514  123511522.79047  23503450.8734   96242725.87847
 13  6 30  0 49 30.0000000  0  8G01G11G23G32G17G20G31G13
  20800025.208   109304960.714 9  20800019.738    85172670.807 9
  22605272.1344  118791539.78048  22605262.9964   92564832.17148
  21490600.0434  112933931.90749  21490589.5354   88000444.62249
  21211854.1444  111469130.00448  21211846.0944   86859053.76349
  22288498.175   117126874.326 8  22288489.601    91267658.696 8
  20147887.5384  105877929.37947  20147878.5244   82502285.92849
  23158624.668   121699425.595 7  23158616.252    94830696.999 8
  23482563.0994  123401722.66347  23482556.4944   96157167.45147
 13  6 30  0 50  0.0000000  0  8G01G11G23G32G17G20G31G13
  20810166.914   109358255.864 8  20810161.478    85214199.474 9
  22624419.8324  118892161.61048  22624410.7654   92643238.77148
  21476980.9144  112862362.83349  21476970.3574   87944676.55249
  21221476.6304  111519696.76248  21221468.6154   86898456.44449
  22286377.297   117115729.600 8  22286368.803    91258974.507 8
  20146152.0684  105868809.42447  20146143.0774   82495179.49849
  23159215.096   121702528.439 7  23159206.706    94833114.810 8
  23461732.3764  123292256.85147  23461725.7044   96071869.47547
 13  6 30  0 50 30.0000000  0  8G01G11G23G32G17G20G31G13
  20820362.427   109411833.772 9  20820357.045    85255948.490 9
  22643583.6934  118992868.37948  22643574.6704   92721711.50948
  21463405.0464  112791020.91949  21463394.3694   87889085.46149
  21231113.0474  111570336.72548  21231105.0774   86937916.14449
  22284339.698   117105022.196 8  22284331.231    91250631.052 8
  20144452.8924  105859880.19347  20144443.9014   82488221.65549
  23159887.461   121706061.679 7  23159879.016    94835867.994 8
  23440907.1504  123182819.80347  23440900.4154   95986593.95847
 13  6 30  0 51  0.0000000  0  8G01G11G23G32G17G20G31G13
  20830611.574   109465693.152 9  20830606.145    85297916.843 9
  22662763.2314  119093657.46948  22662754.1894   92800248.43248
  21449872.5904  112719907.25849  21449861.8484   87833672.23749
  21240763.1624  111621048.36148  21240755.1664   86977431.70849
  22282385.257   117094751.727 8  22282376.836    91242628.134 8
  20142789.8794  105851140.87747  20142780.8524   82481411.81049
  23160641.611   121710024.952 7  23160633.181    94838956.299 7
  23420087.7144  123073413.30147  23420080.9344   95901342.22848
 13  6 30  0 51 30.0000000  0  8G01G11G23G32G17G20G31G13
  20840972.749   109520141.370 9  20840967.296    85340344.023 9
  22682016.6394  119194834.68648  22682007.5154   92879087.83348
  21436442.4114  112649331.25149  21436431.6764   87778677.99049
  21250485.4404  111672138.83848  21250477.3464   87017242.47349
  22280572.672   117085226.528 8  22280564.245    91235205.877 8
  20141221.6084  105842899.62047  20141212.6294   82474990.07549
  23161536.326   121714726.713 7  23161527.893    94842620.059 8
  23399333.1504  122964347.51747  23399326.2884   95816355.98547
 13  6 30  0 52  0.0000000  0  8G01G11G23G32G17G20G31G13
  20851445.939   109575178.228 9  20851440.474    85383229.873 9
  22701343.5734  119296398.22448  22701334.3864   92958228.26548
  21423114.8974  112579294.63249  21423104.1594   87724104.03849
  21260279.6014  111723607.50248  21260271.4784   87057347.92949
  22278902.057   117076447.388 8  22278893.651    91228365.008 8
  20139748.1674  105835156.69847  20139739.1904   82468956.65349
  23162571.687   121720167.571 7  23162563.252    94846859.679 8
  23378643.8534  122855624.84047  23378636.9474   95731637.08948
 13  6 30  0 52 30.0000000  0  8G01G11G23G32G17G20G31G13
  20861972.354   109630494.912 9  20861966.918    85426333.776 9
  22720685.0644  119398038.50748  22720675.8774   93037428.43748
  21409831.6844  112509490.87749  21409820.9224   87669711.52749
  21270086.9174  111775145.41948  21270078.7874   87097507.34649
  22277314.766   117068106.425 8  22277306.419    91221865.559 8
  20138310.9964  105827604.56347  20138302.0684   82463071.87749
  23163688.978   121726039.723 7  23163680.644    94851435.401 7
  23357961.5624  122746939.29248  23357954.6434   95646947.07548
 13  6 30  0 53  0.0000000  0  8G01G11G23G32G17G20G31G13
  20872581.083   109686244.101 9  20872575.620    85469774.702 9
  22740069.8964  119499906.61348  22740060.7764   93116806.16948
  21396622.2064  112440074.47349  21396611.3934   87615620.83849
  21279936.3374  111826905.03048  21279928.3004   87137839.51649
  22275840.077   117060357.011 8  22275831.758    91215827.068 8
  20136939.2794  105820396.26447  20136930.3634   82457455.03649
  23164917.603   121732496.630 7  23164909.316    94856466.793 8
  23337316.0164  122638446.59348  23337309.0154   95562407.36848
 13  6 30  0 53 30.0000000  0  8G01G11G23G32G17G20G31G13
  20883272.136   109742425.713 9  20883266.612    85513552.589 9
  22759497.8124  119602001.00148  22759488.7524   93196360.17248
  21383486.7114  112371047.04849  21383475.9034   87561833.26749
  21289827.8794  111878885.93848  21289819.9554   87178344.12949
  22274478.094   117053199.988 8  22274469.822    91210250.168 8
  20135633.2224  105813532.63847  20135624.2124   82452106.75449
  23166257.707   121739539.113 7  23166249.443    94861954.452 8
  23316707.7244  122530149.66448  23316700.6874   95478020.21148
 13  6 30  0 54  0.0000000  0  8G01G11G23G32G17G20G31G13
  20894016.114   109798885.511 9  20894010.557    85557547.247 9
  22778939.2044  119704166.26448  22778930.1824   93275969.45148
  21370396.3724  112302257.03849  21370385.5794   87508230.70149
  21299732.2294  111930933.70848  21299724.2874   87218900.83649
  22273199.677   117046481.800 8  22273191.378    91205015.217 8
  20134363.5594  105806860.20147  20134354.4454   82446907.45749
  23167680.114   121747013.786 7  23167671.861    94867778.895 8
  23296107.8284  122421896.91847  23296100.7834   95393667.48348
 13  6 30  0 54 30.0000000  0  9G04G01G11G23G32G17G20G31G13
  24744606.2254  130033777.18145
  20904871.130   109855929.067 9  20904865.594    85601996.748 9
  22798452.0074  119806706.67748  22798442.9974   93355871.04448
  21357409.7004  112234011.73949  21357398.9094   87455052.58549
  21309707.4564  111983353.81948  21309699.5224   87259747.69349
  22272063.145   117040509.037 8  22272054.752    91200361.111 8
  20133188.4674  105800685.05147  20133179.3404   82442095.66249
  23169243.072   121755227.309 7  23169234.828    94874179.045 7
  23275575.0324  122313996.84347  23275568.0174   95309589.55348
 13  6 30  0 55  0.0000000  0  9G04G01G11G23G32G17G20G31G13
  24724054.7624  129925784.95244
  20915807.978   109913402.717 9  20915802.523    85646781.394 9
  22818006.6394  119909467.02548  22817997.6534   93435944.02748
  21344497.8684  112166159.91649  21344487.1004   87402181.07449
  21319724.2554  112035992.32648  21319716.2954   87300764.70449
  22271039.364   117035128.840 8  22271030.922    91196168.761 8
  20132078.9974  105794854.68747  20132069.8664   82437552.55349
  23170917.413   121764026.344 7  23170909.210    94881035.481 8
  23255080.6684  122206298.67447  23255073.7264   95225668.98148
 13  6 30  0 55 30.0000000  0  9G04G01G11G23G32G17G20G31G13
  24703515.5824  129817852.70944  24703506.6774  101156732.34645
  20926826.463   109971305.431 9  20926821.055    85691900.376 9
  22837602.6914  120012445.15848  22837593.7664   93516186.70948
  21331661.0784  112098702.25849  21331650.2624   87349616.68049
  21329782.4174  112088848.13848  21329774.4344   87341951.04049
  22270128.349   117030340.987 8  22270119.839    91192437.967 8
  20131035.0724  105789368.76247  20131025.9154   82433277.80949
  23172703.182   121773410.938 7  23172694.989    94888348.136 8
  23234625.0314  122098804.20047  23234618.1524   95141907.13648
 13  6 30  0 56  0.0000000  0  9G04G01G11G23G32G17G20G31G13
  24682988.1034  129709982.26345
  20937926.495   110029636.370 9  20937921.078    85737353.051 9
  22857239.7944  120115638.89348  22857230.9504   93596597.38248
  21318899.4704  112031639.93048  21318888.7234   87297360.37349
  21339881.6644  112141920.10049  21339873.6914   87383305.81049
  22269329.996   117026145.551 8  22269321.496    91189168.821 8
  20130056.6744  105784227.11948  20130047.4844   82429271.29949
  23174600.383   121783381.045 8  23174592.165    94896117.067 8
  23214208.5774  121991515.57047  23214201.7064   95058305.64348
 13  6 30  0 56 30.0000000  0  9G04G01G11G23G32G17G20G31G13
  24662444.3764  129602021.99844  24662435.5834  100988549.64546
  20949078.571   110088240.986 9  20949073.146    85783018.971 9
  22876888.2834  120218892.27648  22876879.4514   93677054.52448
  21306184.0724  111964820.43749  21306173.3374   87245293.24349
  21349992.6794  112195053.78249  21349984.7094   87424708.67449
  22268615.105   117022388.714 8  22268606.562    91186241.413 8
  20129114.5404  105779276.17347  20129105.3544   82425413.43349
  23176579.828   121793783.098 7  23176571.550    94904222.569 8
  23193802.4394  121884281.15748  23193795.6114   94974746.40548
 13  6 30  0 57  0.0000000  0  9G04G01G11G23G32G17G20G31G13
  24641971.5884  129494434.89545  24641962.7804  100904715.56546
  20960370.303   110147579.752 9  20960364.903    85829256.951 9
  22896635.5434  120322664.45148  22896626.6954   93757915.93748
  21293602.8984  111898706.23349  21293592.1894   87193775.73149
  21360203.0184  112248709.41348  21360195.0384   87466518.26649
  22268071.427   117019531.666 8  22268062.880    91184015.124 8
  20128296.4184  105774977.10147  20128287.2394   82422063.51549
  23178729.244   121805078.044 7  23178720.868    94913023.853 8
  23173494.7994  121777564.28947  23173487.9574   94891590.45948
 13  6 30  0 57 30.0000000  0  9G04G01G11G23G32G17G20G31G13
  24621482.3344  129386762.20645  24621473.4324  100820814.73646
  20971713.934   110207190.747 8  20971708.511    85875707.067 9
  22916393.4334  120426492.48948  22916384.5514   93838820.86448
  21281068.4484  111832837.69149  21281057.7694   87142449.62949
  21370424.7274  112302424.97948  21370416.8004   87508374.55049
  22267611.231   117017113.443 8  22267602.732    91182130.773 8
  20127514.6314  105770868.84147  20127505.4444   82418862.25849
  23180960.811   121816804.881 7  23180952.396    94922161.652 8
  23153198.3454  121670905.76347  23153191.4184   94808479.96148
 13  6 30  0 58  0.0000000  0  9G04G01G11G23G32G17G20G31G13
  24600976.7514  129279003.95244  24600967.6964  100736847.42546
  20983108.920   110267071.676 9  20983103.469    85922367.515 9
  22936161.2464  120530372.79648  22936152.3704   93919766.53148
  21268580.7424  111767214.66648  21268570.0654   87091314.82049
  21380657.4664  112356198.20248  21380649.5204   87550275.76449
  22267234.102   117015131.806 8  22267225.653    91180586.635 8
  20126768.9194  105766950.16148  20126759.7484   82415808.75749
  23183274.208   121828961.988 7  23183265.843    94931634.707 8
  23132913.0924  121564306.35447  23132906.1694   94725415.56948
 13  6 30  0 58 30.0000000  0  9G04G01G11G23G32G17G20G31G13
  24580543.0814  129171625.47645  24580534.1724  100653175.87046
  20994643.189   110327684.546 9  20994637.725    85969598.305 9
  22956026.6164  120634765.95948  22956017.7694   94001111.83148
  21256227.9634  111702300.74949  21256217.3044   87040732.57949
  21390989.0104  112410490.89248  21390981.1054   87592581.75249
  22267028.187   117014049.903 8  22267019.787    91179743.586 8
  20126147.2994  105763683.77547  20126138.1824   82413263.54949
  23185757.609   121842012.224 7  23185749.212    94941803.747 8
  23112727.4574  121458231.06347  23112720.6194   94642759.55647
 13  6 30  0 59  0.0000000  0  9G04G01G11G23G32G17G20G31G13
  24560094.4124  129064166.62146  24560085.4374  100569441.78446
  21006228.717   110388566.654 8  21006223.219    86017038.903 9
  22975901.2894  120739208.38248  22975892.5614   94082495.46948
  21243922.6334  111637635.86549  21243911.9664   86990344.39949
  21401331.3674  112464840.47348  21401323.5174   87634932.07349
  22266905.672   117013405.954 8  22266897.248    91179241.806 8
  20125561.9674  105760607.90147  20125552.8604   82410866.75049
  23188323.126   121855493.607 7  23188314.631    94952308.774 8
  23092554.0964  121352220.02347  23092547.3414   94560153.60547
 13  6 30  0 59 30.0000000  0  9G04G01G11G23G32G17G20G31G13
  24539659.8944  128956783.13246  24539650.9974  100485766.29346
  21017894.442   110449870.581 8  21017888.979    86064808.177 9
  22995814.1974  120843851.23548  22995805.4904   94164035.33348
  21231693.9964  111573374.19448  21231683.3574   86940270.41749
  21411713.5554  112519399.36148  21411705.7314   87677445.50649
  22266895.682   117013353.269 8  22266887.216    91179200.729 8
  20125042.0544  105757875.80147  20125033.0134   82408737.87949
  23190999.800   121869559.377 7  23190991.253    94963269.093 8
  23072422.6084  121246429.02747  23072415.9154   94477719.15748
 13  6 30  1  0  0.0000000  0  9G04G01G11G23G32G17G20G31G13
  24519240.1404  128849476.85046  24519231.2124  100402150.93746
  21029640.284   110511595.520 9  21029634.871    86112905.516 9
  23015764.8744  120948692.37348  23015756.1464   94245729.68648
  21219542.4334  111509517.29849  21219531.8024   86890511.83049
  21422135.4204  112574166.82248  21422127.6464   87720121.44349
  22266998.113   117013891.610 8  22266989.667    91179620.185 8
  20124587.6184  105755487.78347  20124578.6124   82406877.12049
  23193787.541   121884209.366 7  23193779.101    94974684.675 8
  23052333.4164  121140860.04747  23052326.7684   94395457.70548
 13  6 30  1  0 30.0000000  0  9G04G01G11G23G32G17G20G31G13
  24498835.5494  128742249.99746  24498826.5324  100318597.49346
  21041466.159   110573740.788 9  21041460.750    86161330.389 9
  23035752.9374  121053730.04148  23035744.1864   94327577.18148
  21207468.1324  111446066.42248  21207457.4464   86841069.60849
  21432596.8254  112629142.12649  21432589.1034   87762959.36049
  22267213.002   117015020.986 8  22267204.639    91180500.208 8
  20124198.7234  105753444.19247  20124189.7154   82405284.71249
  23196686.415   121899443.616 7  23196678.026    94986555.539 7
  23032287.0934  121035515.65848  23032280.2984   94313371.20248
 13  6 30  1  1  0.0000000  0  9G04G01G11G23G32G17G20G31G13
  24478416.9264  128634949.15946  24478407.7724  100234986.46146
  21053342.176   110636149.742 8  21053336.807    86209960.733 9
  23055748.3234  121158806.37948  23055739.6004   94409454.80948
  21195441.5964  111382866.73449  21195430.9134   86791823.15349
  21443068.0844  112684168.77648  21443060.3564   87805837.26749
  22267510.605   117016585.278 8  22267502.322    91181719.110 8
  20123845.6844  105751589.08147  20123836.7044   82403839.19149
  23199667.001   121915106.136 7  23199658.493    94998760.115 8
  23012254.2414  120930241.99748  23012247.2914   94231339.82248
 13  6 30  1  1 30.0000000  0  9G04G01G11G23G32G17G20G31G13
  24458043.3464  128527885.02646  24458034.1634  100151559.93946
  21065326.923   110699130.198 8  21065321.571    86259036.399 9
  23075809.3614  121264228.03048  23075800.7124   94491601.52048
  21183521.9584  111320228.55249  21183511.1924   86743014.20349
  21453607.6544  112739554.52648  21453599.9304   87848994.99849
  22267949.733   117018893.161 8  22267941.533    91183517.417 8
  20123587.2404  105750231.26547  20123578.2914   82402781.15749
  23202787.735   121931505.515 7  23202779.097    95011538.842 7
  22992293.9274  120825349.71447  22992286.8374   94149605.60048
 13  6 30  1  2  0.0000000  0  9G04G01G11G23G32G17G20G31G13
  24437685.9574  128420906.41246  24437676.8824  100068199.96146
  21077391.103   110762528.018 8  21077385.804    86308437.293 9
  23095906.5534  121369839.61648  23095897.9854   94573896.24548
  21171680.0934  111257999.31749  21171669.3074   86694523.91349
  21464186.2244  112795145.34748  21464178.4954   87892312.51449
  22268501.197   117021791.062 8  22268493.013    91185775.511 8
  20123394.3254  105749217.54948  20123385.4074   82401991.26749
  23206019.287   121948488.315 7  23206010.746    95024772.157 7
  22972377.3514  120720687.77847  22972370.2324   94068050.93348
 13  6 30  1  2 30.0000000  0  9G04G01G11G23G32G17G20G31G13
  24417345.5624  128314017.66646  24417336.7694   99984910.03946
  21089535.042   110826344.785 8  21089529.735    86358164.597 9
  23116040.0244  121475641.72048  23116031.5184   94656339.38448
  21159916.8034  111196182.99849  21159906.0294   86646355.38149
  21474804.1244  112850942.91248  21474796.3884   87935791.13849
  22269165.450   117025281.233 8  22269157.240    91188495.096 8
  20123267.4234  105748550.48748  20123258.4504   82401471.46549
  23209362.388   121966056.739 7  23209353.871    95038461.879 7
  22952505.5324  120616260.85347  22952498.3914   93986679.38048
 13  6 30  1  3  0.0000000  0  9G04G01G11G23G32G17G20G31G13
  24396992.9974  128207064.65046  24396984.3744   99901570.00946
  21101728.716   110890423.038 9  21101723.452    86408095.706 9
  23136179.5264  121581475.63948  23136171.0814   94738807.34048
  21148202.5144  111134624.18449  21148191.7204   86598387.49549
  21485431.4884  112906789.83948  21485423.7084   87979308.23449
  22269912.498   117029206.432 8  22269904.205    91191553.668 8
  20123176.6804  105748073.63147  20123167.7104   82401099.90049
  23212787.183   121984053.844 7  23212778.560    95052485.599 8
  22932648.9654  120511914.45048  22932641.8394   93905370.55548
 13  6 30  1  3 30.0000000  0  9G04G01G11G23G32G17G20G31G13
  24376687.4714  128100358.32846  24376678.9204   99818422.25646
  21114030.813   110955070.742 9  21114025.509    86458470.508 9
  23156383.5054  121687648.26648  23156375.0534   94821539.22748
  21136596.2584  111073633.02249  21136585.4844   86550861.96049
  21496126.8564  112962994.25448  21496119.0364   88023103.87649
  22270801.026   117033875.617 8  22270792.687    91195191.980 8
  20123180.9494  105748095.94047  20123171.9384   82401117.27449
  23216352.219   122002788.236 7  23216343.610    95067083.820 8
  22912867.0384  120407959.71948  22912859.7874   93824366.91948
 13  6 30  1  4  0.0000000  0  9G04G01G11G23G32G17G20G31G13
  24356428.8574  127993898.78346  24356420.3574   99735466.76346
  21126440.747   111020285.012 9  21126435.387    86509286.821 9
  23176651.2064  121794155.75548  23176642.7474   94904532.04548
  21125097.8714  111013208.46349  21125087.0644   86503777.91549
  21506889.6454  113019553.21649  21506881.8514   88067175.80549
  22271830.709   117039286.577 8  22271822.366    91199408.281 8
  20123279.8114  105748615.33747  20123270.7634   82401522.01049
  23220057.175   122022257.850 7  23220048.517    95082254.980 7
  22893159.6004  120304396.31248  22893152.1984   93743668.19948
 13  6 30  1  4 30.0000000  0  9G04G01G11G23G32G17G20G31G13
  24336159.1264  127887380.68946  24336150.6324   99652465.69146
  21138899.796   111085757.382 8  21138894.360    86560304.235 9
  23196923.6954  121900688.40247  23196915.2244   94987544.45248
  21113649.0224  110953044.23349  21113638.1784   86456896.70349
  21517661.3314  113076158.68248  21517653.5294   88111283.96749
  22272942.967   117045131.592 8  22272934.630    91203962.814 8
  20123414.8034  105749324.66247  20123405.7414   82402074.72149
  23223843.275   122042154.626 7  23223834.741    95097758.999 7
  22873468.6234  120200919.21448  22873461.0664   93663036.74448
 13  6 30  1  5  0.0000000  0  9G04G01G11G23G32G17G20G31G13
  24315878.4254  127780805.69646  24315870.0334   99569420.21546
  21151407.570   111151486.116 9  21151402.131    86611521.403 9
  23217200.3664  122007243.34147  23217191.9764   95070574.23748
  21102249.7684  110893140.62049  21102238.8814   86410218.61149
  21528441.5424  113132808.94948  21528433.7354   88155427.04349
  22274137.676   117051409.392 8  22274129.291    91208854.563 8
  20123585.7374  105750222.98847  20123576.6634   82402774.74249
  23227710.435   122062477.255 7  23227701.992    95113594.808 8
  22853794.3074  120097529.86448  22853786.6594   93582473.64948
 13  6 30  1  5 30.0000000  0  9G04G01G11G23G32G17G20G31G13
  24295645.7234  127674483.00946  24295637.4654   99486571.35646
  21164022.487   111217777.638 9  21164017.032    86663177.127 9
  23237539.3964  122114125.79347  23237531.0684   95153859.23048
  21090958.7904  110833806.00749  21090947.8374   86363983.86349
  21539288.5454  113189810.58348  21539280.7694   88199843.89649
  22275472.992   117058426.342 8  22275464.608    91214322.278 8
  20123851.0714  105751617.45347  20123842.0234   82403861.34749
  23231717.347   122083532.903 7  23231708.811    95130001.812 8
  22834195.4994  119994537.43148  22834187.8514   93502219.87148
 13  6 30  1  6  0.0000000  0  9G04G01G11G23G32G17G20G31G13
  24275462.2064  127568418.41046  24275453.9784   99403923.60346
  21176744.961   111284634.503 9  21176739.464    86715273.360 9
  23257941.1024  122221337.48148  23257932.8024   95237400.73348
  21079776.9074  110775044.75649  21079765.9504   86318195.90649
  21550203.0434  113247166.53348  21550195.2414   88244536.83749
  22276949.679   117066186.068 8  22276941.293    91220368.807 8
  20124211.4984  105753512.13747  20124202.5384   82405337.72049
  23235864.361   122105324.733 8  23235855.706    95146982.463 8
  22814673.2524  119891947.64147  22814665.6404   93422279.86548
 13  6 30  1  6 30.0000000  0  9G04G01G11G23G32G17G20G31G13
  24255269.3544  127462305.06946  24255261.2794   99321237.87546
  21189515.983   111351746.613 9  21189510.505    86767568.511 9
  23278346.1974  122328566.91248  23278337.9004   95320956.07048
  21068645.6114  110716549.39849  21068634.6164   86272615.13949
  21561125.9324  113304566.70048  21561118.1304   88289264.23849
  22278508.726   117074378.794 8  22278500.340    91226752.717 8
  20124608.3254  105755597.91547  20124599.4494   82406963.00449
  23240092.420   122127542.898 7  23240083.641    95164295.339 7
  22795169.1764  119789453.40647  22795161.6184   93342414.28048
 13  6 30  1  7  0.0000000  0  9G04G01G11G23G32G17G20G31G13
  24235096.9704  127356298.22446  24235088.8174   99238635.20446
  21202364.570   111419266.147 9  21202359.042    86820181.124 9
  23298783.5314  122435965.45448  23298775.2114   95404643.19448
  21057594.2424  110658473.99849  21057583.2114   86227361.60749
  21572086.1974  113362163.59548  21572078.4104   88334144.94249
  22280179.241   117083157.284 8  22280170.845    91233593.094 8
  20125070.7364  105758027.90047  20125061.8804   82408856.52049
  23244430.637   122150340.570 7  23244421.758    95182059.705 8
  22775712.8684  119687209.94148  22775705.2384   93262744.09448
 13  6 30  1  7 30.0000000  0  9G04G01G11G23G32G17G20G31G13
  24214945.2734  127250400.40246  24214937.1434   99156117.40346
  21215290.516   111487192.198 9  21215284.953    86873110.505 9
  23319252.6954  122543531.01248  23319244.3104   95488460.48248
  21046622.9604  110600819.52249  21046611.9194   86182436.06649
  21583083.8494  113419956.52148  21583076.0694   88379178.39249
  22281961.083   117092521.240 8  22281952.730    91240889.676 8
  20125598.5884  105760801.97047  20125589.7744   82411018.15749
  23248879.031   122173717.038 7  23248870.133    95200275.180 8
  22756304.7344  119585219.63548  22756297.0184   93183271.17848
 13  6 30  1  8  0.0000000  0  9G04G01G11G23G32G17G20G31G13
  24194814.4434  127144612.17746  24194806.2704   99073685.09346
  21228293.317   111555522.316 8  21228287.726    86926354.748 9
  23339752.9694  122651260.05248  23339744.5154   95572405.14748
  21035731.7354  110543585.81348  21035720.6954   86137838.38449
  21594118.4144  113477943.36748  21594110.5974   88424362.93849
  22283854.033   117102468.758 8  22283845.674    91248640.968 8
  20126191.7204  105763919.21247  20126182.9654   82413447.17549
  23253437.353   122197670.556 7  23253428.359    95218940.291 8
  22736944.8134  119483482.87748  22736937.0444   93103995.82248
 13  6 30  1  8 30.0000000  0  9G04G01G11G23G32G17G20G31G13
  24174675.9284  127038783.25546  24174667.6334   98991220.99246
  21241343.749   111624102.738 9  21241338.138    86979794.006 9
  23360254.9304  122758998.02648  23360246.4384   95656356.77948
  21024891.5844  110486620.93648  21024880.6034   86093450.21049
  21605160.6124  113535970.56948  21605152.7894   88469578.93149
  22285828.856   117112846.459 8  22285820.479    91256727.462 8
  20126821.1944  105767226.80447  20126812.3764   82416024.51049
  23258076.196   122222047.590 7  23258067.178    95237935.416 8
  22717604.4964  119381849.19848  22717596.6654   93024800.76748
 13  6 30  1  9  0.0000000  0  9G04G01G11G23G32G17G20G31G13
  24154588.4314  126933222.30847  24154580.0034   98908965.69347
  21254499.930   111693239.188 9  21254494.320    87033666.557 9
  23380816.5394  122867049.63248  23380808.0334   95740552.76248
  21014161.2024  110430232.70948  21014150.2424   86049511.36149
  21616268.7364  113594344.15648  21616260.8974   88515064.84149
  22287943.778   117123960.636 8  22287935.458    91265387.824 8
  20127545.2364  105771031.42448  20127536.3754   82418989.16349
  23262853.824   122247154.570 7  23262844.874    95257499.282 8
  22698342.6064  119280627.41148  22698334.7024   92945926.68448
 13  6 30  1  9 30.0000000  0  9G04G01G11G23G32G17G20G31G13
  24134523.2314  126827778.40746  24134514.7004   98826801.63047
  21267732.521   111762777.045 9  21267726.932    87087851.894 9
  23401408.1854  122975259.09048  23401399.6274   95824871.77148
  21003511.4814  110374268.48449  21003500.5934   86005902.89149
  21627413.3524  113652909.88648  21627405.5884   88560700.48849
  22290169.548   117135657.135 8  22290161.274    91274501.980 8
  20128334.6574  105775179.60947  20128325.7494   82422221.51949
  23267741.011   122272837.413 7  23267732.159    95277511.835 8
  22679130.2244  119179665.84948  22679122.3154   92867255.42348
 13  6 30  1 10  0.0000000  0  9G04G01G11G23G32G17G20G31G13
  24114480.5564  126722453.18946  24114472.0034   98744730.01147
  21281041.276   111832715.086 8  21281035.721    87142349.034 9
  23422029.4174  123083624.14348  23422020.8124   95909312.01448
  20992942.7764  110318729.50249  20992931.8674   85962625.78849
  21638594.4444  113711666.79148  21638586.6404   88606485.08949
  22292505.829   117147934.689 8  22292497.637    91284068.870 8
  20129189.3804  105779671.21047  20129180.4294   82425721.47649
  23272737.692   122299095.021 7  23272728.825    95297972.348 8
  22659967.6764  119078966.47947  22659959.8434   92788788.42548
 13  6 30  1 10 30.0000000  0  9G04G01G11G23G32G17G20G31G13
  24094431.7374  126617096.06147  24094423.2414   98662633.56147
  21294396.878   111902898.999 9  21294391.296    87197037.756 9
  23442650.6334  123191989.23948  23442642.0194   95993752.28648
  20982425.9044  110263463.15449  20982415.0204   85919561.11949
  21649782.6744  113770461.09148  21649774.8224   88652298.82349
  22294923.536   117160639.636 8  22294915.354    91293968.831 8
  20130080.3474  105784353.27347  20130071.3794   82429369.83149
  23277814.594   122325773.823 7  23277805.647    95318761.023 8
  22640826.2634  118978378.29847  22640818.5694   92710408.10948
 13  6 30  1 11  0.0000000  0  9G04G01G11G23G32G17G20G31G13
  24074465.1394  126512171.25546  24074456.7124   98580873.95947
  21307886.993   111973789.845 9  21307881.403    87252277.363 9
  23463359.5674  123300815.36248  23463350.9524   96078551.78148
  20972049.0504  110208932.60849  20972038.1764   85877069.80549
  21661065.7784  113829754.01349  21661057.9194   88698501.09549
  22297510.344   117174233.531 8  22297502.224    91304561.444 8
  20131095.4514  105789687.55447  20131086.4324   82433526.43049
  23283059.433   122353335.076 7  23283050.374    95340237.366 8
  22621794.3724  118878365.53947  22621786.7504   92632476.17948
 13  6 30  1 11 30.0000000  0  9G04G01G11G23G32G17G20G31G13
  24054493.1474  126407218.10446  24054484.8354   98499092.33846
  21321423.307   112044923.594 8  21321417.707    87307706.202 9
  23484067.6494  123409637.13048  23484059.0474   96163347.90448
  20961724.2864  110154675.85748  20961713.4344   85834791.83449
  21672355.5884  113889081.92748  21672347.6414   88744730.61849
  22300178.158   117188252.865 8  22300170.099    91315485.568 8
  20132146.6914  105795211.79448  20132137.6464   82437831.03849
  23288383.918   122381315.372 7  23288374.877    95362040.192 8
  22602784.2314  118778467.01048  22602776.7104   92554633.24248
 13  6 30  1 12  0.0000000  0  9G04G01G11G23G32G17G20G31G13
  24034516.0994  126302238.81846  24034507.9174   98417290.26147
  21335005.551   112116298.832 8  21334999.997    87363323.286 9
  23504774.4764  123518451.93048  23504765.8174   96248138.60448
  20951451.7524  110100693.51349  20951440.8934   85792727.68549
  21683651.8114  113948443.91948  21683643.8374   88790986.71749
  22302926.643   117202696.375 8  22302918.631    91326740.223 8
  20133233.9604  105800925.36847  20133224.8874   82442283.17049
  23293787.935   122409713.856 7  23293778.966    95384168.843 8
  22583796.1794  118678684.43748  22583788.7004   92476880.64348
 13  6 30  1 12 30.0000000  0  9G04G01G11G23G32G17G20G31G13
  24014592.9234  126197542.82546  24014584.8954   98335708.93946
  21348692.089   112188221.950 9  21348686.537    87419367.252 9
  23525538.0684  123627565.46248  23525529.4854   96333162.10548
  20941290.1554  110047293.83748  20941279.2344   85751117.57649
  21695012.8364  114008146.63348  21695004.8714   88837508.31149
  22305814.287   117217870.919 8  22305806.262    91338564.530 8
  20134415.7424  105807135.80247  20134406.6954   82447122.47549
  23299329.783   122438837.030 7  23299320.940    95406862.238 8
  22564889.1574  118579327.42548  22564881.6134   92399459.59448
 13  6 30  1 13  0.0000000  0  9G04G01G11G23G32G17G20G31G13
  23994724.2324  126093133.39746  23994716.4684   98254350.99146
  21362482.785   112260692.422 9  21362477.206    87475837.738 9
  23546358.2974  123736976.31848  23546349.6934   96418417.25148
  20931239.7764  109994478.86348  20931228.8584   85709963.09249
  21706438.7454  114068190.12848  21706430.7834   88884295.45149
  22308841.023   117233776.462 8  22308832.999    91350958.448 8
  20135692.0904  105813843.55747  20135683.1404   82452349.30649
  23305009.640   122468684.756 7  23305000.739    95430120.190 8
  22546063.6174  118480398.54748  22546056.0044   92322372.18448
 13  6 30  1 13 30.0000000  0  9G04G01G11G23G32G17G20G31G13
  23974851.8214  125988704.05046  23974844.2014   98172977.44446
  21376318.732   112333400.622 8  21376313.138    87532493.442 9
  23567175.9814  123846373.80048  23567167.4064   96503661.99348
  20921242.0624  109941940.76948  20921231.1444   85669024.31149
  21717870.6764  114128265.14248  21717862.6594   88931107.13549
  22311948.012   117250103.616 8  22311939.936    91363680.897 8
  20137004.5404  105820740.46447  20136995.5804   82457723.52649
  23310768.533   122498947.880 7  23310759.562    95453701.857 7
  22527261.2744  118381591.44448  22527253.5534   92245379.66748
 13  6 30  1 14  0.0000000  0  9G04G01G11G23G32G17G20G31G13
  23955005.5134  125884411.12146  23954997.9224   98091710.24846
  21390228.929   112406499.201 8  21390223.360    87589453.349 9
  23588020.0084  123955909.58648  23588011.4414   96589014.52048
  20911326.3704  109889834.14548  20911315.5294   85628421.77949
  21729337.6694  114188524.84448  21729329.6674   88978062.74049
  22315164.359   117267005.442 8  22315156.285    91376851.123 8
  20138382.2294  105827980.45647  20138373.2814   82463365.10849
  23316635.548   122529779.501 7  23316626.609    95477726.499 8
  22508511.7194  118283061.99148  22508503.9724   92168603.51648
 13  6 30  1 14 30.0000000  0  9G04G01G11G23G32G17G20G31G13
  23935185.6544  125780256.93446  23935178.0944   98010551.17846
  21404213.250   112479987.117 9  21404207.654    87646716.632 9
  23608889.9444  124065581.71647  23608881.4484   96674473.27148
  20901493.0444  109838160.10548  20901482.2504   85588156.33049
  21740839.7594  114248968.67648  21740831.7474   89025161.83449
  22318489.907   117284481.130 8  22318481.776    91390468.513 8
  20139825.2024  105835563.33247  20139816.2344   82469273.82249
  23322610.651   122561178.879 7  23322601.722    95502193.526 8
  22489815.3844  118184812.39948  22489807.6704   92092045.47148
 13  6 30  1 15  0.0000000  0  9G04G01G11G23G32G17G20G31G13
  23915363.2874  125676090.06746  23915355.7634   97929382.23246
  21418242.177   112553709.500 9  21418236.596    87704162.620 9
  23629756.2244  124175234.69347  23629747.8044   96759917.07347
  20891712.9704  109786765.65448  20891702.1874   85548108.73449
  21752347.4454  114309442.16148  21752339.4504   89072284.01749
  22321895.195   117302375.974 8  22321887.079    91404412.537 8
  20141304.2614  105843335.58848  20141295.2294   82475330.11949
  23328664.447   122592991.416 7  23328655.484    95526982.479 8
  22471143.4234  118086690.64548  22471135.6644   92015587.04048
 13  6 30  1 15 30.0000000  0  9G04G01G11G23G32G17G20G31G13
  23895597.6944  125572221.23946  23895590.1714   97848445.49947
  21432374.137   112627973.391 8  21432368.556    87762030.569 9
  23650677.0754  124285174.76047  23650668.7724   96845584.62547
  20882044.9524  109735960.00548  20882034.1864   85508519.94949
  21763919.3434  114370252.89448  21763911.3464   89119668.99648
  22325438.789   117320997.437 8  22325430.654    91418922.759 8
  20142878.0554  105851605.68248  20142868.9444   82481774.34849
  23334855.298   122625524.435 7  23334846.371    95552332.879 8
  22452554.7704  117989006.86348  22452546.9904   91939469.84048
 13  6 30  1 16  0.0000000  0  9G04G01G11G23G32G17G20G31G13
  23875859.7114  125468497.43746  23875852.1894   97767621.76547
  21446579.337   112702622.221 8  21446573.781    87820198.467 9
  23671622.6984  124395244.37847  23671614.3684   96931353.08947
  20872459.5444  109685588.34548  20872448.7374   85469269.32649
  21775525.6894  114431244.84148  21775517.7284   89167195.19249
  22329090.870   117340189.438 8  22329082.771    91433877.565 8
  20144516.9954  105860218.24347  20144507.8644   82488485.45049
  23341153.450   122658621.820 7  23341144.573    95578123.026 7
  22434020.4304  117891608.12448  22434012.5664   91863574.78748
 13  6 30  1 16 30.0000000  0  9G04G01G11G23G32G17G20G31G13
  23856150.0404  125364922.29247  23856142.5034   97686913.89447
  21460857.853   112777656.142 9  21460852.258    87878666.442 9
  23692592.7794  124505442.64547  23692584.4334   97017221.81647
  20862957.2174  109635653.28148  20862946.3894   85430358.92249
  21787166.6814  114492418.72948  21787158.7264   89214863.13349
  22332851.566   117359952.095 8  22332843.470    91449277.001 8
  20146221.2904  105869174.49847  20146212.1894   82495464.37549
  23347559.191   122692283.965 7  23347550.251    95604353.267 7
  22415540.9374  117794497.42049  22415532.9594   91787904.13448
 13  6 30  1 17  0.0000000  0  9G04G01G11G23G32G17G20G31G13
  23836439.5684  125261343.43546  23836432.0914   97606203.11447
  21475179.983   112852919.379 9  21475174.355    87937313.098 9
  23713557.5704  124615613.11847  23713549.1864   97103068.84947
  20853508.6234  109586000.83548  20853497.8044   85391668.73449
  21798812.7164  114553619.36948  21798804.8184   89262551.93049
  22336691.308   117380129.762 8  22336683.168    91464999.860 8
  20147961.6134  105878320.08348  20147952.5364   82502590.80749
  23354042.908   122726355.253 7  23354033.748    95630902.353 7
  22397087.2084  117697522.48148  22397079.2054   91712339.28348
 13  6 30  1 17 30.0000000  0  9G04G01G11G23G32G17G20G31G13
  23816787.3324  125158070.61246  23816779.9574   97525730.84847
  21489603.993   112928717.939 8  21489598.334    87996376.883 9
  23734575.1514  124726061.18747  23734566.7444   97189132.23747
  20844172.4614  109536939.09648  20844161.6594   85353438.84349
  21810522.2044  114615153.20748  21810514.3004   89310500.36649
  22340668.300   117401028.870 8  22340660.144    91481284.850 8
  20149796.4424  105887962.04848  20149787.3414   82510104.02449
  23360662.723   122761142.303 7  23360653.463    95658009.167 8
  22378718.0704  117600992.20048  22378710.0184   91637120.91048
 13  6 30  1 18  0.0000000  0  9G04G01G11G23G32G17G20G31G13
  23797193.7774  125055106.53946  23797186.5574   97445499.08647
  21504129.657   113005050.693 9  21504123.983    88055856.922 9
  23755645.1894  124836784.67347  23755636.7784   97275410.25247
  20834948.9034  109488469.09548  20834938.0704   85315670.03849
  21822295.0704  114677019.78849  21822287.1214   89358708.10149
  22344782.384   117422648.651 8  22344774.284    91498131.437 8
  20151725.7804  105898100.66448  20151716.6254   82518004.24649
  23367418.416   122796643.961 7  23367409.178    95685672.752 7
  22360433.8844  117504908.71448  22360425.8704   91562250.69348
 13  6 30  1 18 30.0000000  0  9G04G01G11G23G32G17G20G31G13
  23777571.4604  124951991.19046  23777564.3584   97365149.46247
  21518668.794   113081454.376 9  21518663.129    88115392.234 9
  23776679.3324  124947319.71547  23776670.9254   97361541.37847
  20825750.1504  109440129.25849  20825739.2814   85278002.65849
  21834043.2154  114738756.45648  21834035.2324   89406814.58649
  22348945.480   117444526.184 8  22348937.449    91515178.840 8
  20153661.7174  105908273.83348  20153652.4954   82525931.37449
  23374221.951   122832397.341 7  23374212.830    95713532.508 7
  22342147.1894  117408811.73548  22342139.1644   91487370.00148
 13  6 30  1 19  0.0000000  0  9G04G01G11G23G32G17G20G31G13
  23758008.6424  124849187.82847  23758001.5484   97285042.96347
  21533308.798   113158388.301 8  21533303.194    88175340.726 9
  23797764.8594  125058124.65847  23797756.4894   97447882.86548
  20816663.9224  109392380.74948  20816652.9724   85240796.05649
  21845854.0914  114800823.02548  21845846.1044   89455178.13449
  22353245.009   117467120.547 8  22353237.038    91532784.813 8
  20155691.8594  105918942.30148  20155682.6274   82534244.48749
  23381160.897   122868861.873 7  23381151.808    95741946.465 7
  22323945.9904  117313164.22448  22323937.9364   91412839.51648
 13  6 30  1 19 30.0000000  0  9G04G01G11G23G32G17G20G31G13
  23738505.7654  124746699.33046  23738498.5634   97205181.81446
  21548049.641   113235852.015 8  21548044.023    88235702.021 9
  23818901.5524  125169198.22747  23818893.1574   97534433.61247
  20807690.6704  109345225.86748  20807679.6534   85204052.00049
  21857727.8454  114863219.83748  21857719.8244   89503799.03249
  22357681.031   117490431.750 8  22357673.043    91550949.388 8
  20157816.3344  105930106.68047  20157807.1284   82542944.02649
  23388235.219   122906037.559 7  23388226.074    95770914.525 8
  22305830.8044  117217968.40648  22305822.7284   91338661.01548
 13  6 30  1 20  0.0000000  0  9G04G01G11G23G32G17G20G31G13
  23719004.6544  124644220.35946  23718997.3764   97125328.15047
  21562832.485   113313536.200 9  21562826.814    88296235.139 9
  23840030.3854  125280230.43147  23840021.9604   97620952.15548
  20798771.8164  109298356.96948  20798760.7604   85167530.81349
  21869605.7164  114925638.09848  21869597.6254   89552436.64349
  22362194.580   117514150.421 8  22362186.586    91569431.466 8
  20159976.5874  105941458.94848  20159967.3764   82551789.94349
  23395385.920   122943614.810 7  23395376.821    95800195.514 8
  22287743.3974  117122918.81848  22287735.3604   91264596.45548
 13  6 30  1 20 30.0000000  0  9G04G01G11G23G32G17G20G31G13
  23699535.2474  124541907.50146  23699527.7414   97045603.81146
  21577686.455   113391593.899 8  21577680.694    88357059.294 9
  23861180.3334  125391373.66248  23861171.8774   97707557.21648
  20789936.8734  109251929.15748  20789925.7864   85131353.32249
  21881516.8344  114988231.57148  21881508.8044   89601210.80349
  22366814.852   117538430.055 8  22366806.828    91588350.649 8
  20162202.0904  105953153.98447  20162192.8304   82560902.93149
  23402642.384   122981747.789 7  23402633.382    95829909.544 8
  22269713.4864  117028171.49248  22269705.5304   91190767.44048
 13  6 30  1 21  0.0000000  0  9G04G01G11G23G32G17G20G31G13
  23680097.7294  124439762.52746  23680090.0844   96966010.35847
  21592611.121   113470023.235 9  21592605.324    88418173.034 9
  23882350.9124  125502625.30547  23882342.4714   97794246.76048
  20781185.8714  109205942.08149  20781174.7114   85095519.25649
  21893461.0994  115050999.04448  21893453.0364   89650120.49849
  22371541.487   117563268.626 8  22371533.433    91607705.367 8
  20164492.6384  105965190.95548  20164483.4084   82570282.39849
  23410004.260   123020434.453 7  23409995.318    95860054.941 8
  22251741.3674  116933727.55848  22251733.3934   91117174.79248
 13  6 30  1 21 30.0000000  0  9G04G01G11G23G32G17G20G31G13
  23660692.8164  124337788.89746  23660685.1064   96886550.40347
  21607606.396   113548823.566 8  21607600.552    88479575.863 9
  23903541.7664  125613983.80748  23903533.3514   97881019.55647
  20772519.0094  109160397.41449  20772507.8344   85060029.90849
  21905438.5154  115113940.66548  21905430.4114   89699165.91049
  22376374.439   117588665.962 8  22376366.404    91627495.453 8
  20166848.3664  105977570.39147  20166839.1174   82579928.69849
  23417471.425   123059673.983 7  23417462.442    95890631.192 8
  22233827.4404  116839589.61048  22233819.5004   91043820.58548
 13  6 30  1 22  0.0000000  0  9G04G01G11G23G32G17G20G31G13
  23641291.4934  124235834.25647  23641283.7804   96807105.21647
  21622642.590   113627839.172 9  21622636.745    88541146.434 9
  23924723.1454  125725292.70547  23924714.8074   97967753.70548
  20763907.0974  109115141.44848  20763895.8994   85024765.53749
  21917419.4714  115176901.26048  21917411.4304   89748226.11949
  22381284.010   117614466.307 8  22381276.035    91647599.632 8
  20169239.8444  105990137.88047  20169230.6264   82589721.52749
  23425014.141   123099310.976 7  23425005.145    95921517.174 7
  22215942.7494  116745605.11548  22215934.7784   90970585.94848
 13  6 30  1 22 30.0000000  0  9G04G01G11G23G32G17G20G31G13
  23621952.7024  124134208.41246  23621944.9844   96727916.26547
  21637777.956   113707376.059 9  21637772.156    88603123.224 9
  23945953.2134  125836857.52747  23945944.9514   98054687.28047
  20755408.6704  109070482.22748  20755397.5104   84989966.17849
  21929462.4814  115240187.64548  21929454.4264   89797540.17249
  22386328.598   117640975.917 8  22386320.642    91668256.456 8
  20171725.7004  106003201.20548  20171716.4954   82599900.74349
  23432690.694   123139651.908 7  23432681.702    95952951.641 7
  22198146.1624  116652083.73148  22198138.1824   90897712.17748
 13  6 30  1 23  0.0000000  0  9G04G01G11G23G32G17G20G31G13
  23602647.6894  124032760.44747  23602640.0754   96648865.89247
  21652983.086   113787279.369 9  21652977.258    88665385.513 9
  23967202.4214  125948522.67847  23967194.1144   98141699.05048
  20746994.7924  109026266.99649  20746983.5774   84955512.77849
  21941538.1664  115303645.61048  21941530.0894   89846987.93149
  22391478.655   117668039.649 8  22391470.678    91689345.052 8
  20174276.6554  106016606.37748  20174267.4114   82610346.32149
  23440471.683   123180541.967 7  23440462.761    95984814.025 7
  22180408.8334  116558873.56348  22180400.8084   90825080.90748
 13  6 30  1 23 30.0000000  0  9G04G01G11G23G32G17G20G31G13
  23583376.9524  123931492.10247  23583369.3354   96569955.49647
  21668257.586   113867547.096 9  21668251.755    88727931.777 9
  23988470.1984  126060285.41347  23988461.8514   98228786.81948
  20738665.3574  108982495.64949  20738654.0724   84921405.22449
  21953646.2664  115367273.98148  21953638.1814   89896568.48249
  22396733.885   117695655.758 8  22396725.807    91710864.054 8
  20176892.4664  106030352.74347  20176883.2624   82621057.79349
  23448356.885   123221979.110 7  23448348.019    96017102.713 8
  22162730.9194  116465975.93748  22162722.9114   90752693.18848
 13  6 30  1 24  0.0000000  0  9G04G01G11G23G32G17G20G31G13
  23564111.6654  123830252.27447  23564104.0354   96491067.31247
  21683571.884   113948024.336 8  21683566.105    88790641.293 9
  24009727.0244  126171990.10447  24009718.5854   98315829.40247
  20730391.2954  108939015.28548  20730379.9794   84887524.44849
  21965757.4604  115430918.54948  21965749.3694   89946161.64949
  22402064.744   117723669.548 8  22402056.682    91732692.970 8
  20179544.0254  106044287.03148  20179534.8704   82631915.68549
  23456316.806   123263808.653 7  23456307.970    96049697.134 8
  22145083.5704  116373238.74148  22145075.5464   90680430.49148
 13  6 30  1 24 30.0000000  0  9G04G01G11G23G32G17G20G31G13
  23544911.1804  123729353.16747  23544903.5784   96412444.64947
  21698984.741   114029019.384 8  21698979.002    88853754.277 9
  24031031.3774  126283944.54447  24031022.8774   98403066.60448
  20722231.6214  108896135.97149  20722220.3074   84854112.01749
  21977930.5044  115494888.45048  21977922.4814   89996008.31849
  22407529.994   117752389.258 8  22407521.889    91755071.953 8
  20182290.3214  106058718.91347  20182281.1514   82643161.30949
  23464410.142   123306338.982 7  23464401.270    96082837.658 7
  22127526.1434  116280973.77348  22127518.0854   90608535.74549
 13  6 30  1 25  0.0000000  0  9G04G01G11G23G32G17G20G31G13
  23525775.6634  123628794.66247  23525767.9214   96334087.39847
  21714495.404   114110528.406 8  21714489.695    88917267.784 9
  24052382.3464  126396144.01747  24052373.7984   98490494.68247
  20714186.0264  108853856.08348  20714174.7134   84821166.65449
  21990164.8554  115559180.64548  21990156.8944   90046106.13149
  22413128.805   117781811.017 8  22413120.703    91777997.976 8
  20185130.8304  106073645.69747  20185121.6544   82654792.56849
  23472635.926   123349566.393 7  23472627.168    96116521.332 7
  22110058.4934  116189180.65648  22110050.4314   90537008.68848
 13  6 30  1 25 30.0000000  0  9G04G01G11G23G32G17G20G31G13
  23506617.4304  123528117.09147  23506609.6144   96255637.39647
  21730015.626   114192087.909 8  21730010.037    88980820.617 9
  24073691.5434  126508124.41547  24073683.0014   98577752.12047
  20706166.6664  108811713.99649  20706155.3624   84788328.68849
  22002372.5414  115623332.40948  22002364.6124   90096094.50949
  22418773.059   117811471.713 8  22418764.945    91801110.203 8
  20187977.6344  106088605.38048  20187968.3824   82666449.44449
  23480906.298   123393027.619 7  23480897.527    96150387.197 7
  22092593.0054  116097399.08548  22092585.0074   90465490.63248
 13  6 30  1 26  0.0000000  0  9G04G01G11G23G32G17G20G31G13
  23487524.7434  123427784.34247  23487516.9464   96177456.04847
  21745633.011   114274157.761 8  21745627.444    89044771.100 9
  24095046.5024  126620345.35947  24095038.0124   98665196.94247
  20698261.4414  108770171.75948  20698250.1414   84755958.13249
  22014641.1614  115687804.44148  22014633.2454   90146332.44949
  22424550.211   117841831.101 8  22424542.216    91824766.850 8
  20190918.5194  106104059.58748  20190909.2084   82678491.69849
  23489308.818   123437182.723 7  23489299.982    96184793.781 7
  22075217.8584  116006092.25548  22075209.8964   90394342.51848
 13  6 30  1 26 30.0000000  0  9G04G01G11G23G32G17G20G31G13
  23468498.2354  123327799.05547  23468490.4354   96099545.47847
  21761347.266   114356736.667 9  21761341.715    89109118.288 9
  24116446.9424  126732804.80847  24116438.3834   98752827.63447
  20690470.3324  108729229.58048  20690459.0774   84724055.15149
  22026970.6744  115752596.34548  22026962.7894   90196819.61949
  22430460.015   117872887.270 8  22430452.006    91848966.450 8
  20193953.4654  106120008.08748  20193944.0784   82690919.10749
  23497843.035   123482030.274 7  23497834.192    96219739.945 7
  22057933.3854  115915261.86548  22057925.4734   90323565.63648
 13  6 30  1 27  0.0000000  0  9G04G01G11G23G32G17G20G31G13
  23449479.9394  123227856.73547  23449472.0474   96021668.36047
  21777099.737   114439516.269 8  21777094.173    89173621.845 9
  24137833.7834  126845193.54247  24137825.3394   98840403.20647
  20682735.2464  108688581.55748  20682724.0094   84692381.40249
  22039302.4934  115817400.55448  22039294.6534   90247316.41849
  22436443.812   117904332.645 8  22436435.868    91873469.303 8
  20197024.0794  106136144.01748  20197014.6544   82703492.54049
  23506450.337   123527262.201 7  23506441.532    96254985.565 8
  22040681.5294  115824602.80948  22040673.6014   90252922.22648
 13  6 30  1 27 30.0000000  0  9G04G01G11G23G32G17G20G31G13
  23430499.2574  123128111.95447  23430491.2144   95943945.20947
  21792919.017   114522647.274 8  21792913.486    89238399.222 9
  24159235.7984  126957661.64047  24159227.3464   98928040.65947
  20675085.0854  108648379.93948  20675073.8994   84661055.48149
  22051665.4604  115882368.57248  22051657.7004   90297940.84048
  22442530.446   117936317.623 8  22442522.397    91898392.621 8
  20200159.1814  106152619.27847  20200149.7614   82716330.40449
  23515159.548   123573029.036 7  23515150.691    96290648.053 7
  22023491.6374  115734269.19648  22023483.6584   90182532.41148
 13  6 30  1 28  0.0000000  0  9G04G01G11G23G32G17G20G31G13
  23411556.6664  123028567.84047  23411548.6084   95866378.40547
  21808805.091   114606128.966 8  21808799.531    89303449.859 9
  24180652.6394  127070207.70847  24180644.1544   99015738.84547
  20667520.1684  108608626.21749  20667508.9934   84630078.57949
  22064059.6794  115947500.63448  22064051.9324   90348693.08548
  22448719.594   117968841.313 8  22448711.483    91923735.707 8
  20203358.9834  106169434.85147  20203349.6614   82729433.45749
  23523970.210   123619329.877 7  23523961.492    96326726.560 7
  22006364.0764  115644263.44148  22006356.0804   90112398.09348
 13  6 30  1 28 30.0000000  0  9G04G01G11G23G32G17G20G31G13
  23392652.5874  122929226.48747  23392644.5984   95788969.57947
  21824757.509   114689959.242 9  21824751.930    89368772.142 9
  24202083.8884  127182829.49547  24202075.3844   99103496.02547
  20660040.5144  108569320.36949  20660029.3274   84599450.66349
  22076484.9064  116012795.57548  22076477.1674   90399572.22149
  22455010.872   118001901.828 8  22455002.734    91949497.138 8
  20206623.4474  106186590.28947  20206614.2164   82742801.32949
  23532882.249   123666163.398 7  23532873.643    96363220.203 8
  21989299.1744  115554586.65148  21989291.1214   90042520.12448
 13  6 30  1 29  0.0000000  0  9G04G01G11G23G32G17G20G31G13
  23373758.7534  122829939.15747  23373750.8634   95711602.89347
  21840747.191   114773985.335 8  21840741.549    89434246.960 9
  24223500.3854  127295373.56947  24223491.8284   99191192.66047
  20652617.3054  108530311.27148  20652606.1134   84569053.96549
  22088912.2354  116078101.50748  22088904.4904   90450459.96848
  22461375.193   118035346.311 8  22461367.064    91975557.758 8
  20209923.7744  106203934.00147  20209914.6104   82756315.89049
  23541866.616   123713376.315 7  23541857.962    96400009.487 8
  21972268.4214  115465089.50448  21972260.3314   89972782.13848
 13  6 30  1 29 30.0000000  0  9G04G01G11G23G32G17G20G31G13
  23354933.6004  122731012.05947  23354925.6414   95634516.88347
  21856831.679   114858509.891 8  21856826.048    89500110.231 9
  24244959.4764  127408141.91747  24244950.9524   99279064.05847
  20645308.5624  108491903.69248  20645297.3484   84539125.98449
  22101399.4714  116143721.99848  22101391.6514   90501592.80748
  22467870.091   118069477.234 8  22467862.028    92002153.235 8
  20213317.8294  106221770.06548  20213308.7124   82770214.10849
  23550980.783   123761271.522 7  23550972.175    96437330.416 8
  21955330.0834  115376077.87548  21955321.8994   89903422.46548
 13  6 30  1 30  0.0000000  0  9G04G01G11G23G32G17G20G31G13
  23336148.9524  122632297.75447  23336140.9494   95557596.70847
  21872982.170   114943381.171 9  21872976.516    89566243.699 9
  24266432.2334  127520981.95346  24266423.7014   99366991.31647
  20638085.7464  108453947.78849  20638074.5714   84509549.97949
  22113917.8624  116209506.15248  22113909.9214   90552853.15448
  22474466.815   118104142.815 8  22474458.679    92029165.359 8
  20216777.0224  106239948.12548  20216767.8724   82784378.85349
  23560195.965   123809697.317 7  23560187.343    96475064.802 8
  21938455.7994  115287403.10148  21938447.6164   89834325.28548
 13  6 30  1 30 30.0000000  0  9G04G01G11G23G32G17G20G31G13
  23317404.6754  122533795.97847  23317396.6774   95480842.17247
  21889197.864   115028595.028 8  21889192.199    89632644.085 9
  24287917.9214  127633889.63047  24287909.3064   99454971.27647
  20630948.4684  108416441.20248  20630937.2924   84480324.08049
  22126466.7814  116275450.85448  22126458.7834   90604238.64448
  22481164.440   118139338.947 8  22481156.326    92056590.916 8
  20220300.8004  106258465.82547  20220291.7044   82798808.22949
  23569511.289   123858649.365 7  23569502.695    96513209.234 8
  21921645.5294  115199064.59849  21921637.3414   89765490.14348
 13  6 30  1 31  0.0000000  0  9G04G01G11G23G32G17G20G31G13
  23298672.1674  122435356.79547  23298664.2414   95404136.41847
  21905449.460   115113997.616 9  21905443.810    89699191.527 9
  24309387.0584  127746710.14547  24309378.3044   99542883.29447
  20623867.8344  108379232.27948  20623856.6264   84451330.12449
  22139017.0964  116341403.20348  22139009.0694   90655630.09348
  22487933.693   118174911.607 8  22487925.591    92084309.859 8
  20223860.1734  106277170.52147  20223851.1044   82813383.31749
  23578897.556   123907973.968 7  23578888.851    96551643.975 7
  21904870.5354  115110911.34549  21904862.3004   89696799.34148
 13  6 30  1 31 30.0000000  0  9G04G01G11G23G32G17G20G31G13
  23280010.7154  122337290.45647  23280002.7514   95327721.17047
  21921795.237   115199894.941 9  21921789.551    89766124.479 9
  24330897.7124  127859749.20747  24330888.8404   99630965.65547
  20616902.3144  108342628.53648  20616891.1724   84422807.75349
  22151627.2974  116407670.19748  22151619.2694   90707266.69148
  22494832.859   118211166.596 8  22494824.722    92112560.460 8
  20227513.6984  106296369.92347  20227504.6074   82828343.86349
  23588412.901   123957977.193 7  23588404.062    96590607.549 7
  21888189.6924  115023252.92649  21888181.4324   89628494.09949
 13  6 30  1 32  0.0000000  0 10G04G01G11G23G32G17G20G31G13G10
  23261420.4514  122239598.01847  23261412.4224   95251597.25947
  21938234.606   115286283.973 9  21938228.880    89833440.595 9
  24352449.3054  127973003.09347  24352440.3474   99719215.41447
  20610051.8384  108306629.41648  20610040.7574   84394756.51149
  22164297.0114  116474249.80348  22164288.9584   90759146.88848
  22501861.163   118248100.832 8  22501853.075    92141340.392 8
  20231261.0714  106316062.43848  20231251.9684   82843688.67849
  23598056.667   124008656.088 6  23598047.894    96630097.616 7
  21871602.9534  114936089.33548  21871594.7164   89560574.46048
  25004264.6094  131398298.76344
 13  6 30  1 32 30.0000000  0  9G04G01G11G23G32G17G20G31G13
  23242843.2834  122141974.09247  23242835.1714   95175526.70747
  21954708.665   115372855.484 9  21954702.919    89900898.907 9
  24373982.8014  128086162.38147  24373973.8314   99807391.43247
  20603257.9054  108270927.43548  20603246.9024   84366936.81049
  22176967.5814  116540833.66048  22176959.4884   90811030.40148
  22508959.891   118285404.902 8  22508951.841    92170408.463 8
  20235043.6894  106335940.35847  20235034.5904   82859177.94849
  23607770.099   124059701.018 7  23607761.419    96669872.875 7
  21855052.1874  114849114.91248  21855043.9874   89492802.23948
 13  6 30  1 33  0.0000000  0 10G04G01G11G23G32G17G20G31G13G10
  23224279.8404  122044422.66647  23224271.7384   95099512.67947
  21971217.339   115459609.153 9  21971211.620    89968499.154 9
  24395498.1064  128199226.00647  24395489.0734   99895492.93647
  20596520.8974  108235524.09148  20596509.8764   84339349.81449
  22189639.0514  116607422.55948  22189630.9314   90862917.84248
  22516128.978   118323078.332 8  22516120.899    92199764.370 8
  20238861.7234  106356004.76247  20238852.7234   82874812.56149
  23617553.238   124111111.882 7  23617544.604    96709933.260 7
  21838537.9934  114762332.29848  21838529.7874   89425179.47648
  24966907.4924  131201984.91345
 13  6 30  1 33 30.0000000  0 10G04G01G11G23G32G17G20G31G13G10
  23205788.8994  121947252.61447  23205780.8644   95023795.82747
  21987818.736   115546849.835 8  21987812.961    90036478.869 9
  24417053.2014  128312498.54847  24417044.1134   99983757.22347
  20589899.1134  108200726.19648  20589888.0444   84312234.58449
  22202369.6814  116674322.34948  22202361.5214   90915047.54248
  22523426.251   118361425.759 8  22523418.180    92229645.455 8
  20242773.5514  106376561.86848  20242764.6294   82890831.10149
  23627464.078   124163193.388 7  23627455.460    96750516.244 8
  21822118.9704  114676049.81448  21822110.6844   89357946.37148
  24948250.8514  131103951.54145
 13  6 30  1 34  0.0000000  0 10G04G01G11G23G32G17G20G31G13G10
  23187371.0134  121850466.15747  23187363.0234   94948377.90947
  22004512.421   115634575.679 8  22004506.674    90104836.646 9
  24438647.6574  128425977.55447  24438638.5324  100072182.38447
  20583392.4884  108166533.58848  20583381.3774   84285590.99349
  22215159.3254  116741532.25648  22215151.1254   90967418.89848
  22530851.412   118400445.368 8  22530843.396    92260050.347 8
  20246779.1544  106397611.58147  20246770.2714   82907233.47549
  23637502.127   124215943.626 7  23637493.583    96791620.303 8
  21805795.3714  114590268.90749  21805787.0604   89291104.16848
  24929632.1274  131006108.17344
 13  6 30  1 34 30.0000000  0 10G04G01G11G23G32G17G20G31G13G10
  23168968.1704  121753758.87747  23168960.2544   94873021.64547
  22021239.732   115722478.042 8  22021233.965    90173331.982 9
  24460222.4574  128539353.95547  24460213.5004  100160527.58347
  20576942.6554  108132639.55248  20576931.5604   84259180.07149
  22227949.3944  116808744.70948  22227941.2124   91019792.22948
  22538345.619   118439828.070 8  22538337.698    92290738.136 8
  20250820.1604  106418847.08448  20250811.2494   82923780.60249
  23647608.764   124269053.988 7  23647600.195    96833005.003 8
  21789509.0344  114504683.69349  21789500.6704   89224414.44048
  24910990.7994  130908148.83245
 13  6 30  1 35  0.0000000  0 10G04G01G11G23G32G17G20G31G13G10
  23150610.2294  121657287.18647  23150602.3014   94797848.96147
  22038029.634   115810709.382 8  22038023.825    90242083.651 9
  24481806.6544  128652779.61547  24481797.8284  100248911.17347
  20570579.0374  108099198.57248  20570567.9564   84233122.17649
  22240769.1464  116876113.21248  22240761.0084   91072287.15048
  22545937.950   118479726.161 8  22545930.044    92321827.523 8
  20254925.7514  106440421.80048  20254916.7634   82940592.06149
  23657812.790   124322676.821 7  23657804.287    96874788.993 7
  21773289.6434  114419450.40648  21773281.2164   89157998.92348
  24892357.5784  130810228.46945  24892350.3694  101930024.07245
 13  6 30  1 35 30.0000000  0  9G04G01G11G23G32G17G20G31G13
  23132297.1094  121561051.02947  23132289.1334   94722859.78747
  22054881.215   115899265.415 8  22054875.501    90311088.320 9
  24503399.4134  128766250.07747  24503390.7234  100337329.65547
  20564301.1574  108066208.33948  20564290.1294   84207415.52749
  22253617.9794  116943634.46948  22253609.8894   91124901.10748
  22553627.549   118520135.217 8  22553619.644    92353315.089 8
  20259095.3724  106462333.05448  20259086.3264   82957665.78449
  23668113.522   124376807.660 7  23668105.053    96916968.845 7
  21757137.0194  114334568.04048  21757128.5614   89091856.87648
 13  6 30  1 36  0.0000000  0  9G04G01G11G23G32G17G20G31G13
  23114029.7904  121465055.86947  23114021.7924   94648058.45247
  22071794.917   115988147.517 8  22071789.201    90380347.097 9
  24525000.8014  128879766.26147  24524992.2724  100425783.76447
  20558109.6844  108033671.86748  20558098.6514   84182062.45849
  22266496.3644  117011310.96748  22266488.3264   91177636.02748
  22561414.632   118561056.363 8  22561406.675    92385201.679 8
  20263329.5724  106484583.86348  20263320.4944   82975004.05849
  23678511.218   124431447.796 7  23678502.756    96959545.574 7
  21741051.9844  114250040.73848  21741043.5334   89025991.49848
 13  6 30  1 36 30.0000000  0 10G04G01G11G23G32G17G20G31G13G10
  23095779.3474  121369149.70747  23095771.4294   94573326.45547
  22088740.918   116077199.478 8  22088735.252    90449738.215 9
  24546581.1254  128993171.62947  24546572.7374  100514151.53547
  20551975.2674  108001435.16248  20551964.1964   84156942.95449
  22279374.8074  117078987.63948  22279366.8074   91230371.06648
  22569269.427   118602333.215 8  22569261.416    92417365.467 8
  20267599.0774  106507020.13948  20267589.9964   82992486.89149
  23688976.159   124486441.116 7  23688967.632    97002397.492 7
  21725005.4634  114165715.82548  21724997.0004   88960283.81748
  24836470.3214  130516536.63845
 13  6 30  1 37  0.0000000  0 10G04G01G11G23G32G17G20G31G13G10
  23077604.6794  121273641.43247  23077596.7534   94498904.44447
  22105777.223   116166725.807 8  22105771.539    90519498.966 8
  24568198.2894  129106770.22247  24568189.9754  100602669.88847
  20545956.1254  107969804.48448  20545945.0814   84132295.68349
  22292311.3914  117146970.09748  22292303.4504   91283344.39448
  22577249.827   118644270.434 8  22577241.832    92450043.810 8
  20271961.9184  106529947.08248  20271952.8644   83010352.04349
  23699566.102   124542091.830 7  23699557.558    97045761.659 7
  21709056.0464  114081901.13548  21709047.5604   88894973.71448
  24817866.5534  130418774.11745  24817860.4254  101624988.64255
 13  6 30  1 37 30.0000000  0 10G04G01G11G23G32G17G20G31G13G10
  23059477.0614  121178380.40647  23059469.1474   94424675.11647
  22122874.288   116256571.862 8  22122868.704    90589508.809 8
  24589822.6264  129220406.87747  24589814.4324  100691217.85947
  20540023.1964  107938626.85648  20540012.1504   84108001.44949
  22305276.9634  117215104.82948  22305269.0544   91336436.37548
  22585326.274   118686712.451 7  22585318.287    92483115.484 8
  20276389.1374  106553212.02548  20276380.0344   83028480.56449
  23710251.637   124598245.132 7  23710243.120    97089517.436 7
  21693174.8574  113998445.17448  21693166.4094   88829943.18049
  24799270.4344  130321053.29045  24799264.5854  101548842.53445
 13  6 30  1 38  0.0000000  0 10G04G01G11G23G32G17G20G31G13G10
  23041397.0424  121083369.32747  23041389.0794   94350640.57247
  22140032.005   116346736.210 8  22140026.492    90659766.706 9
  24611453.9894  129334079.95647  24611445.7794  100779794.23647
  20534176.5704  107907902.81748  20534165.5704   84084060.68149
  22318271.4674  117283391.53348  22318263.5754   91389646.76948
  22593498.449   118729657.897 8  22593490.572    92516579.436 8
  20280880.6624  106576815.02748  20280871.5354   83046872.51149
  23721032.576   124654899.599 7  23721024.058    97133663.763 7
  21677362.3074  113915349.85148  21677353.7994   88765193.62249
  24780682.8704  130223374.85445  24780677.3244  101472729.55846
 13  6 30  1 38 30.0000000  0 10G04G01G11G23G32G17G20G31G13G10
  23023335.8714  120988457.16847  23023327.7754   94276682.99047
  22157220.777   116437063.380 8  22157215.263    90730151.477 9
  24633062.6004  129447633.72747  24633054.4474  100868277.67947
  20528386.9984  107877478.84848  20528376.0564   84060353.71249
  22331265.5434  117351675.86248  22331257.6364   91442855.33748
  22601736.877   118772951.065 8  22601728.973    92550314.375 8
  20285407.2884  106600602.41748  20285398.1114   83065408.14649
  23731879.397   124711899.594 7  23731870.729    97178079.380 7
  21661589.3864  113832462.96648  21661580.8984   88700606.48249
  24762074.4464  130125585.86546  24762069.0484  101396530.40645
 13  6 30  1 39  0.0000000  0 10G04G01G11G23G32G17G20G31G13G10
  23005352.1104  120893952.42847  23005344.0524   94203042.96247
  22174498.456   116527857.883 8  22174492.935    90800900.406 9
  24654706.3344  129561372.18747  24654698.2104  100956904.95947
  20522712.8524  107847661.13848  20522701.9204   84037119.13649
  22344317.3994  117420263.51348  22344309.3964   91496300.23848
  22610099.428   118816896.128 8  22610091.454    92584557.274 8
  20290027.2204  106624880.32448  20290018.0144   83084326.00349
  23742849.788   124769549.634 7  23742841.067    97223001.516 7
  21645914.7414  113750092.08749  21645906.2064   88636421.42649
  24743503.0674  130027993.23446  24743497.3614  101320484.20245
 13  6 30  1 39 30.0000000  0 10G04G01G11G23G32G17G20G31G13G10
  22987446.6194  120799859.31347  22987438.6754   94129723.68847
  22191864.954   116619119.507 8  22191859.499    90872013.330 9
  24676385.0954  129675294.78347  24676377.0214  101045675.75347
  20517154.3604  107818451.31548  20517143.4634   84014358.24649
  22357427.1074  117489155.43448  22357419.1024   91549982.22848
  22618585.868   118861492.487 8  22618577.844    92619307.685 8
  20294740.7034  106649649.78448  20294731.4734   83103626.89149
  23753943.889   124827849.404 7  23753935.206    97268429.912 7
  21630338.8864  113668240.29548  21630330.2564   88572640.82649
  24724969.7134  129930599.11546  24724963.8504  101244592.75846
 13  6 30  1 40  0.0000000  0 10G04G01G11G23G32G17G20G31G13G10
  22969561.3754  120705872.22347  22969553.5384   94056487.04347
  22209261.433   116710538.747 8  22209256.023    90943249.064 9
  24698039.9694  129789091.66647  24698031.8894  101134348.63247
  20511653.1274  107789541.95048  20511642.1884   83991831.50949
  22370536.0884  117558043.21748  22370527.9904   91603660.99948
  22627137.331   118906430.601 8  22627129.251    92654324.390 8
  20299489.2014  106674603.24548  20299479.9474   83123071.15849
  23765102.670   124886489.007 7  23765094.068    97314123.085 7
  21614803.5234  113586601.40848  21614794.8304   88509026.16549
  24706415.5034  129833096.33145  24706409.8084  101168616.68545
 13  6 30  1 40 30.0000000  0 10G04G01G11G23G32G17G20G31G13G10
  22951725.8874  120612146.28847  22951718.0764   93983453.86847
  22226716.617   116802266.111 8  22226711.218    91014724.920 9
  24719699.4324  129902913.03746  24719691.4564  101223040.56247
  20506237.9764  107761085.20449  20506227.0574   83969657.45249
  22383673.1894  117627078.77648  22383665.0434   91657454.90648
  22635782.325   118951860.228 8  22635774.230    92689724.073 8
  20304301.5884  106699892.44548  20304292.3064   83142777.03049
  23776354.767   124945618.803 7  23776346.163    97360198.222 7
  21599337.9034  113505329.03048  21599329.1724   88445697.07049
  24687869.7104  129735638.22046  24687864.1824  101092675.13446
 13  6 30  1 41  0.0000000  0 10G04G01G11G23G32G17G20G31G13G10
  22933911.5614  120518531.49847  22933903.7894   93910507.34048
  22244201.122   116894147.366 8  22244195.661    91086320.666 9
  24741334.1094  130016604.21947  24741326.2454  101311631.03347
  20500879.9334  107732928.56148  20500868.9694   83947717.22649
  22396809.2274  117696108.93648  22396801.0574   91711244.62648
  22644491.485   118997626.984 8  22644483.360    92725386.440 8
  20309148.8894  106725364.93648  20309139.5744   83162625.71749
  23787670.742   125005084.152 7  23787662.051    97406534.829 7
  21583913.2954  113424272.41548  21583904.5944   88382536.12449
  24669303.6144  129638072.85145  24669298.0914  101016650.21846
 13  6 30  1 41 30.0000000  0 10G04G01G11G23G32G17G20G31G13G10
  22916177.6064  120425339.30947  22916169.9154   93837890.03148
  22261773.294   116986489.752 8  22261767.848    91158275.710 9
  24763002.5084  130130472.30046  24762994.6734  101400359.37347
  20495637.8394  107705381.29748  20495626.8724   83926251.84249
  22410002.9064  117765442.06248  22409994.7204   91765270.41148
  22653323.141   119044037.712 8  22653315.039    92761550.629 8
  20314089.8724  106751329.66248  20314080.5154   83182857.98449
  23799109.123   125065192.501 7  23799100.292    97453372.452 7
  21568588.7664  113343742.09548  21568580.0954   88319785.23949
  24650776.0234  129540709.64046  24650770.4294  100940782.85346
 13  6 30  1 42  0.0000000  0 10G04G01G11G23G32G17G20G31G13G10
  22898524.1164  120332569.65947  22898516.4144   93765602.02048
  22279432.410   117079288.720 8  22279426.928    91230586.564 9
  24784703.7184  130244512.55646  24784695.8554  101489221.83647
  20490511.2304  107678440.59548  20490500.2174   83905259.10749
  22423253.5794  117835074.94048  22423245.4294   91819529.78548
  22662276.572   119091087.622 8  22662268.359    92798212.851 8
  20319123.8434  106777783.42148  20319114.5104   83203471.28749
  23810668.892   125125938.934 7  23810659.911    97500707.284 7
  21553364.1004  113263736.31148  21553355.4724   88257443.13949
  24632286.5934  129443546.90746  24632281.0344  100865071.68546
 13  6 30  1 42 30.0000000  0 10G04G01G11G23G32G17G20G31G13G10
  22880893.2854  120239918.64048  22880885.4364   93693406.42348
  22297119.830   117172236.365 9  22297114.301    91303013.278 9
  24806379.0464  130358416.85847  24806371.2184  101577978.38447
  20485441.7504  107651800.48348  20485430.7284   83884500.58649
  22436502.9704  117904700.96348  22436494.8494   91873783.82148
  22671292.958   119138468.675 8  22671284.711    92835133.119 8
  20324192.6034  106804420.06248  20324183.2924   83224227.10449
  23822291.407   125187015.724 7  23822282.445    97548299.616 7
  21538181.3824  113183950.77649  21538172.7774   88195272.60649
  24613777.0604  129346279.34346  24613771.6924  100789278.77246
 13  6 30  1 43  0.0000000  0 10G04G01G11G23G32G17G20G31G13G10
  22863314.7074  120147542.27947  22863306.7324   93621424.88148
  22314864.397   117265484.322 8  22314858.833    91375673.980 9
  24828057.3244  130472336.29346  24828049.4144  101666746.72547
  20480458.6934  107625614.40848  20480447.6594   83864095.87749
  22449780.1184  117974473.03348  22449772.0544   91928151.63148
  22680401.054   119186331.733 8  22680392.774    92872428.987 8
  20329325.3754  106831392.96148  20329316.0824   83245244.96049
  23834005.470   125248573.792 7  23833996.514    97596266.957 7
  21523070.0254  113104540.05948  21523061.3724   88133394.17949
  24595276.9784  129249060.88046  24595271.6814  100713524.13446
 13  6 30  1 43 30.0000000  0 10G04G01G11G23G32G17G20G31G13G10
  22845788.8324  120055443.05947  22845780.7434   93549659.26347
  22332665.767   117359030.776 8  22332660.154    91448567.291 9
  24849738.0414  130586268.79246  24849730.1384  101755525.22847
  20475561.9534  107599881.92748  20475550.9004   83844044.59249
  22463085.0064  118044390.50548  22463076.9254   91982632.72748
  22689600.420   119234674.848 8  22689592.166    92910098.962 8
  20334522.1524  106858702.02248  20334512.8254   83266524.75349
  23845810.779   125310611.296 6  23845801.854    97644607.914 7
  21508030.2854  113025505.75848  21508021.6044   88071809.02949
  24576786.3364  129151892.14846  24576781.1134  100637808.34646
 13  6 30  1 44  0.0000000  0 10G04G01G11G23G32G17G20G31G13G10
  22828316.4504  119963624.75547  22828308.1814   93478112.54247
  22350523.753   117452874.876 9  22350518.160    91521692.527 9
  24871421.0504  130700213.45947  24871413.1284  101844313.26047
  20470751.7844  107574604.32048  20470740.7054   83824347.77449
  22476417.6144  118114453.76648  22476409.5454   92037227.45348
  22698890.885   119283496.634 8  22698882.638    92948141.889 8
  20339782.9964  106886347.81548  20339773.6274   83288066.91949
  23857707.176   125373127.285 6  23857698.284    97693321.622 7
  21493062.5224  112946850.13448  21493053.9264   88010519.01649
  24558305.5384  129054775.08946  24558300.2984  100562132.68746
 13  6 30  1 44 30.0000000  0 10G04G01G11G23G32G17G20G31G13G10
  22810868.2814  119871934.13647  22810859.9464   93406665.30947
  22368408.429   117546859.297 8  22368402.869    91594927.107 9
  24893076.3274  130814012.64346  24893068.4164  101932987.91747
  20465998.5814  107549626.00548  20465987.4634   83804884.16549
  22489748.2534  118184506.74748  22489740.2214   92091814.15448
  22708242.434   119332639.418 8  22708234.195    92986434.953 8
  20345078.2764  106914174.45148  20345068.8744   83309750.01049
  23869664.668   125435963.953 6  23869655.820    97742285.230 7
  21478137.5034  112868419.06348  21478128.9784   87949403.90949
  24539805.0614  128957554.61546  24539799.8224  100486376.58147
 13  6 30  1 45  0.0000000  0 10G04G01G11G23G32G17G20G31G13G10
  22793503.3844  119780681.67447  22793495.1444   93335559.53547
  22386378.082   117641290.270 8  22386372.559    91668509.671 9
  24914762.0604  130927972.25346  24914754.2184  102021787.52747
  20461360.9624  107525255.09249  20461349.8024   83785893.84349
  22503135.3994  118254857.17748  22503127.4834   92146632.63148
  22717713.262   119382409.204 8  22717705.089    93025216.557 8
  20350466.6294  106942490.31348  20350457.2194   83331814.31849
  23881741.295   125499427.619 6  23881732.584    97791737.375 7
  21463314.1364  112790522.05648  21463305.6324   87888704.97249
  24521343.8314  128860539.63046  24521338.4964  100410780.53646
 13  6 30  1 45 30.0000000  0 10G04G01G11G23G32G17G20G31G13G10
  22776193.3214  119689717.36547  22776185.1594   93264678.23047
  22404403.264   117736013.242 8  22404397.774    91742319.725 9
  24936448.9814  131041937.67046  24936441.1334  102110591.69247
  20456809.8514  107501338.71548  20456798.6734   83767257.73449
  22516550.0274  118325351.58448  22516542.1594   92201563.29748
  22727273.886   119432650.877 7  22727265.818    93064365.893 8
  20355918.9654  106971142.40548  20355909.5494   83354140.63349
  23893907.737   125563363.140 7  23893899.148    97841557.230 7
  21448563.6234  112713007.83948  21448555.1474   87828304.32849
  24502892.7374  128763578.29146  24502887.2774  100335226.25246
 13  6 30  1 46  0.0000000  0 10G04G01G11G23G32G17G20G31G13G10
  22758938.2804  119599042.13847  22758930.2264   93194022.22547
  22422483.350   117831024.924 8  22422477.950    91816354.773 8
  24958136.3824  131155905.41846  24958128.4424  102199397.72346
  20452344.9154  107477875.32149  20452333.7274   83748974.58949
  22529991.7424  118395988.14848  22529983.8804   92256604.77348
  22736923.495   119483360.538 7  22736915.630    93103879.884 8
  20361434.9314  107000129.00548  20361425.5624   83376727.59749
  23906163.481   125627767.196 7  23906154.932    97891742.245 7
  21433885.9844  112635876.38549  21433877.4644   87768201.92149
  24484451.7424  128666669.89646  24484446.1724  100259713.26246
 13  6 30  1 46 30.0000000  0 10G04G01G11G23G32G17G20G31G13G10
  22741709.6804  119508506.04747  22741701.7824   93123474.69148
  22440589.037   117926170.889 8  22440583.647    91890494.451 8
  24979794.7374  131269720.71546  24979786.7364  102288084.94246
  20447937.1144  107454712.17148  20447925.9014   83730925.40149
  22543431.3984  118466613.64548  22543423.5054   92311637.60348
  22746632.759   119534383.191 8  22746624.960    93143637.781 8
  20366985.5014  107029297.38548  20366976.1194   83399456.20349
  23918478.822   125692485.062 6  23918470.362    97942171.745 7
  21419252.3464  112558976.35048  21419243.8024   87708279.83549
  24465991.8324  128569662.22545  24465986.1424  100184122.90146
 13  6 30  1 47  0.0000000  0 10G04G01G11G23G32G17G20G31G13G10
  22724566.5654  119418418.43447  22724558.6704   93053276.57648
  22458778.341   118021756.199 8  22458772.931    91964976.466 8
  25001481.9554  131383688.37846  25001474.0514  102376890.87346
  20443644.9234  107432156.30449  20443633.6774   83713349.40049
  22556927.2254  118537534.50348  22556919.3234   92366900.59748
  22756459.694   119586023.832 8  22756451.837    93183877.198 8
  20372628.9934  107058954.19648  20372619.6394   83422565.41249
  23930911.931   125757821.491 6  23930903.494    97993083.278 7
  21404721.3584  112482615.68049  21404712.8484   87648778.06949
  24447571.6134  128472863.26245  24447565.8504  100108695.13546
 13  6 30  1 47 30.0000000  0 10G04G01G11G23G32G17G20G31G13G10
  22707509.3294  119328782.23848  22707501.4014   92983430.22348
  22477050.994   118117779.328 8  22477045.536    92039799.668 8
  25023198.0004  131497807.09146  25023190.0724  102465814.47146
  20439468.2354  107410207.66149  20439456.9804   83696246.58749
  22570479.2244  118608750.61548  22570471.3224   92422393.64348
  22766403.844   119638280.256 8  22766395.890    93224596.496 8
  20378365.4244  107089099.65648  20378356.1114   83446055.36549
  23943462.446   125823774.831 7  23943454.002    98044475.450 7
  21390293.4484  112406796.62649  21390284.9284   87589698.33449
  24429191.2704  128376274.15446  24429185.4884  100033430.93646
 13  6 30  1 48  0.0000000  0 10G04G01G11G23G32G17G20G31G13G10
  22690480.0724  119239292.63848  22690472.0524   92913698.07348
  22495348.089   118213931.023 8  22495342.569    92114723.021 8
  25044883.9324  131611766.86847  25044875.9124  102554614.23746
  20435348.6294  107388558.86049  20435337.3374   83679377.39849
  22584028.7904  118679953.93848  22584020.9334   92477876.72348
  22776406.384   119690843.018 8  22776398.244    93265554.464 8
  20384136.2434  107119425.95348  20384126.9914   83469686.27849
  23956071.498   125890035.470 7  23956063.043    98096107.113 7
  21375910.3344  112331212.91749  21375901.7814   87530801.94249
  24410792.6874  128279588.38645  24410786.6884   99958091.42646
 13  6 30  1 48 30.0000000  0 10G04G01G11G23G32G17G20G31G13G10
  22673478.9224  119149951.05648  22673470.9384   92844081.29148
  22513669.075   118310208.455 8  22513663.575    92189744.353 8
  25066539.1194  131725565.08146  25066531.0134  102643288.19146
  20431285.8424  107367208.77049  20431274.5534   83662740.97649
  22597575.6874  118751143.11248  22597567.8214   92533348.77548
  22786466.469   119743708.558 7  22786458.284    93306748.396 8
  20389941.2974  107149932.03248  20389932.0684   83493457.22449
  23968738.474   125956600.256 6  23968729.971    98147975.754 7
  21361571.9914  112255864.72849  21361563.4444   87472089.09749
  24392375.4974  128182805.58746  24392369.4584   99882676.25946
 13  6 30  1 49  0.0000000  0 10G04G01G11G23G32G17G20G31G13G10
  22656565.0774  119061067.95148  22656556.9944   92774821.76547
  22532072.195   118406917.441 8  22532066.693    92265101.981 8
  25088221.6614  131839507.48747  25088213.5414  102732074.39446
  20427338.4614  107346465.14149  20427327.1814   83646577.15049
  22611178.3114  118822625.32448  22611170.4624   92589049.19248
  22796642.138   119797182.252 7  22796634.028    93348416.180 8
  20395839.1094  107180925.43048  20395829.8674   83517607.91449
  23981521.329   126023774.922 6  23981512.998    98200319.612 7
  21347337.3504  112181061.12148  21347328.7884   87413800.62249
  24373998.7734  128086233.94046  24373992.4934   99807425.66246
 13  6 30  1 49 30.0000000  0 10G04G01G11G23G32G17G20G31G13G10
  22639739.0254  118972645.94847  22639730.8354   92705921.52347
  22550557.101   118504056.212 8  22550551.637    92340794.486 8
  25109931.2534  131953591.85047  25109923.0884  102820971.29947
  20423506.4754  107326327.85849  20423495.1584   83630885.77949
  22624836.6284  118894400.20348  22624828.7864   92644977.62148
  22806933.073   119851261.791 7  22806925.084    93390556.081 8
  20401829.6974  107212406.11848  20401820.4154   83542138.33349
  23994419.789   126091557.291 6  23994411.598    98253137.039 7
  21333206.5914  112106803.73349  21333198.0694   87355937.75249
  24355662.1974  127989874.45645  24355655.9164   99732340.44546
 13  6 30  1 50  0.0000000  0 10G04G01G11G23G32G17G20G31G13G10
  22622942.5854  118884379.87747  22622934.3144   92637142.76247
  22569064.813   118601315.272 7  22569059.490    92416580.738 8
  25131608.9194  132067508.50147  25131600.7594  102909737.54946
  20419731.3184  107306489.02549  20419719.9334   83615426.92849
  22638491.9794  118966159.55648  22638484.1814   92700893.99248
  22817280.335   119905637.395 7  22817272.484    93432926.645 8
  20407854.3604  107244066.00148  20407845.0924   83566808.37749
  24007375.005   126159637.283 7  24007366.829    98306186.355 7
  21319121.3784  112032785.81448  21319112.8904   87298261.48849
  24337307.5424  127893420.52845  24337301.3084   99657181.57946
 13  6 30  1 50 30.0000000  0 10G04G01G11G23G32G17G20G31G13G10
  22606205.3684  118796425.45447  22606197.1374   92568606.88148
  22587624.279   118698845.987 7  22587618.999    92492578.637 8
  25153283.5034  132181409.08447  25153275.3434  102998491.22546
  20416042.0434  107287101.68749  20416030.6174   83600319.92149
  22652173.4354  119038056.21648  22652165.6834   92756917.33248
  22827712.705   119960459.683 7  22827704.909    93475645.304 8
  20413942.4584  107276058.92048  20413933.1584   83591737.92749
  24020415.768   126228166.392 7  24020407.447    98359585.694 7
  21305111.1974  111959162.06548  21305102.7534   87240892.37949
  24318964.1044  127797025.98945  24318957.9964   99582068.97246
 13  6 30  1 51  0.0000000  0 10G04G01G11G23G32G17G20G31G13G10
  22589528.1684  118708786.55247  22589520.0264   92500316.83848
  22606235.355   118796647.666 8  22606230.096    92568787.718 8
  25174954.7984  132295292.07247  25174946.6464  103087231.21247
  20412438.9374  107268166.98749  20412427.4364   83585565.62349
  22665881.1404  119110090.94348  22665873.4824   92813048.28948
  22838229.792   120015727.285 8  22838222.025    93518710.951 8
  20420094.0174  107308385.45548  20420084.7044   83616927.41649
  24033541.740   126297143.467 6  24033533.266    98413334.103 7
  21291176.5484  111885935.11749  21291168.0844   87183832.42949
  24300632.5574  127700692.93245  24300626.4574   99507004.32246
 13  6 30  1 51 30.0000000  0 10G04G01G11G23G32G17G20G31G13G10
  22572911.3804  118621464.99447  22572903.2684   92432274.11648
  22624897.471   118894717.621 8  22624892.195    92645205.834 8
  25196622.3144  132409155.51247  25196614.2094  103175955.94947
  20408921.7084  107249683.95249  20408910.2064   83571163.27849
  22679614.8974  119182262.38448  22679607.2704   92869285.73148
  22848831.082   120071437.377 8  22848823.312    93562121.385 8
  20426308.8604  107341044.55448  20426299.5754   83642376.08949
  24046752.326   126366565.378 6  24046743.791    98467429.056 7
  21277317.4554  111813105.40348  21277308.9964   87127082.03249
  24282312.5104  127604421.43546  24282306.6224   99431987.59546
 13  6 30  1 52  0.0000000  0 10G04G01G11G23G32G17G20G31G13G10
  22556325.9924  118534308.44148  22556317.9194   92364359.94948
  22643580.798   118992899.104 8  22643575.564    92721710.857 8
  25218256.1594  132522842.19447  25218248.1334  103264543.00147
  20405460.8434  107231497.42148  20405449.3944   83556991.95449
  22693345.1594  119254415.27148  22693337.5204   92925508.74848
  22859486.614   120127432.450 8  22859478.780    93605753.870 8
  20432557.4954  107373881.22248  20432548.2024   83667963.10649
  24060017.720   126436275.179 6  24060009.106    98521748.364 7
  21263504.6634  111740518.87948  21263496.1724   87070521.13849
  24263975.0904  127508057.26946  24263969.0904   99356898.65546
 13  6 30  1 52 30.0000000  0 10G04G01G11G23G32G17G20G31G13G10
  22539831.1134  118447627.20348  22539823.0184   92296816.14748
  22662343.615   119091497.998 8  22662338.363    92798541.131 8
  25239914.6064  132636658.04247  25239906.5804  103353230.72146
  20402114.9914  107213914.91048  20402103.5574   83543291.31249
  22707130.4274  119326856.84848  22707122.7324   92981956.69648
  22870254.490   120184017.772 8  22870246.541    93649846.303 8
  20438898.4654  107407202.99848  20438889.1204   83693928.10549
  24073395.903   126506578.318 6  24073387.337    98576529.985 7
  21249797.0714  111668485.18248  21249788.5584   87014390.99949
  24245678.8124  127411909.24346  24245672.7764   99281978.24546
 13  6 30  1 53  0.0000000  0 10G04G01G11G23G32G17G20G31G13G10
  22523398.3734  118361272.75848  22523390.2914   92229527.00348
  22681156.690   119190361.311 8  22681151.492    92875577.435 8
  25261568.5584  132750450.01647  25261560.4764  103441899.74147
  20398855.3274  107196785.26049  20398843.8644   83529943.53849
  22720941.7654  119399435.66748  22720934.0394   93038511.63048
  22881105.581   120241040.201 8  22881097.589    93694279.342 8
  20445302.9554  107440858.69548  20445293.5974   83720153.30849
  24086857.845   126577321.553 6  24086849.353    98631654.567 7
  21236166.1304  111596854.29248  21236157.5504   86958574.73949
  24227394.9964  127315827.39146  24227388.9534   99207109.29646
 13  6 30  1 53 30.0000000  0 10G04G01G11G23G32G17G20G31G13G10
  22507028.0884  118275246.39748  22507019.9814   92162493.50648
  22700019.459   119289485.707 8  22700014.276    92952817.197 8
  25283217.2884  132864214.73247  25283209.2264  103530547.50347
  20395681.5384  107180106.88849  20395670.0634   83516947.41749
  22734778.7674  119472149.91347  22734771.1394   93095172.05148
  22892039.063   120298495.471 8  22892030.984    93739049.705 8
  20451770.6604  107474846.71348  20451761.3024   83746637.47849
  24100402.987   126648501.564 6  24100394.525    98687119.469 7
  21222611.7844  111525625.78548  21222603.1464   86903072.03249
  24209123.6764  127219810.83046  24209117.5134   99132291.24446
 13  6 30  1 54  0.0000000  0 10G04G01G11G23G32G17G20G31G13G10
  22490691.4204  118189396.56048  22490683.2554   92095597.53248
  22718902.270   119388715.298 8  22718897.104    93030138.907 8
  25304830.9934  132977795.64347  25304823.0104  103619052.08647
  20392564.2214  107163725.27549  20392552.7474   83504182.53049
  22748612.1184  119544844.98048  22748604.6054   93151817.53348
  22903025.056   120356227.005 8  22903017.002    93784035.298 8
  20458272.2734  107509013.23348  20458262.9764   83773260.74549
  24114001.402   126719961.467 6  24113992.938    98742802.508 7
  21209105.0484  111454647.34948  21209096.3524   86847764.21649
  24190835.4354  127123705.97546  24190829.2814   99057404.36646
 13  6 30  1 54 30.0000000  0 10G04G01G11G23G32G17G20G31G13G10
  22474447.1994  118104032.91847  22474439.0634   92029080.40748
  22737863.242   119488355.377 8  22737858.016    93107780.485 8
  25326467.8974  133091498.40347  25326459.9384  103707651.62647
  20389561.8134  107147947.57848  20389550.3524   83491888.22549
  22762500.2894  119617827.62448  22762492.7914   93208687.08548
  22914121.564   120414539.673 7  22914113.590    93829473.722 8
  20464866.1634  107543664.48348  20464856.9044   83800261.71449
  24127711.171   126792006.602 6  24127702.672    98798941.577 7
  21195704.4014  111384226.66048  21195695.6674   86792890.96649
  24172589.1804  127027821.19846  24172582.8924   98982688.95046
 13  6 30  1 55  0.0000000  0 10G04G01G11G23G32G17G20G31G13G10
  22458296.0004  118019158.04447  22458287.8764   91962944.18548
  22756901.832   119588403.972 8  22756896.696    93185740.384 8
  25348127.7264  133205321.38847  25348119.7564  103796344.83647
  20386674.2634  107132773.52648  20386662.8264   83480064.29049
  22776443.1514  119691097.48248  22776435.6014   93265780.43548
  22925328.075   120473431.162 7  22925320.286    93875363.142 8
  20471552.3494  107578800.50448  20471543.0834   83827640.43749
  24141531.827   126864634.644 6  24141523.297    98855534.789 7
  21182410.2024  111314365.48248  21182401.5184   86738453.71049
  24154384.9954  126932157.30846  24154378.6364   98908145.75546
 13  6 30  1 55 30.0000000  0 10G04G01G11G23G32G17G20G31G13G10
  22442179.7724  117934466.69347  22442171.6244   91896950.95348
  22775959.277   119688551.330 8  22775954.125    93263777.246 8
  25369751.3404  133318954.31046  25369743.3974  103884889.90647
  20383842.9644  107117894.75947  20383831.4954   83468470.46149
  22790381.9584  119764346.28348  22790374.4224   93322857.38848
  22936585.725   120532590.885 7  22936578.060    93921461.596 8
  20478272.2204  107614113.53948  20478262.9284   83855157.08149
  24155404.456   126937535.299 6  24155395.826    98912340.412 7
  21169164.1184  111244756.96949  21169155.4474   86684213.32449
  24136164.3384  126836407.36146  24136157.9644   98833535.33546
 13  6 30  1 56  0.0000000  0 10G04G01G11G23G32G17G20G31G13G10
  22426098.9244  117849961.26847  22426090.7954   91831102.58148
  22795035.151   119788795.474 8  22795029.963    93341889.550 8
  25391338.3684  133432395.02846  25391330.5494  103973285.24846
  20381067.8094  107103311.16147  20381056.3014   83457106.63249
  22804316.7004  119837573.53248  22804309.1634   93379917.57448
  22947894.034   120592016.139 8  22947886.321    93967766.971 8
  20485025.6844  107649603.16848  20485016.3794   83882811.33349
  24169328.608   127010706.398 6  24169319.771    98969356.830 7
  21155966.3394  111175402.23148  21155957.7024   86630170.70349
  24117927.6374  126740572.15946  24117921.1854   98758858.58746
 13  6 30  1 56 30.0000000  0 10G04G01G11G23G32G17G20G31G13G10
  22410112.3424  117765951.83747  22410104.3194   91765640.69948
  22814187.505   119889441.652 8  22814182.342    93420315.091 8
  25412947.0084  133545949.01146  25412939.1834  104061768.80546
  20378407.1904  107089329.57848  20378395.6934   83446211.88649
  22818305.8134  119911086.00448  22818298.0894   93437200.01248
  22959310.855   120652011.628 7  22959303.080    94014516.690 8
  20491871.0754  107685576.25548  20491861.8444   83910842.30649
  24183362.063   127084452.703 6  24183353.110    99026821.504 7
  21142875.4754  111106609.40648  21142866.8694   86576565.93449
  24099733.1124  126644959.59846  24099726.7144   98684355.27046
 13  6 30  1 57  0.0000000  0 10G04G01G11G23G32G17G20G31G13G10
  22394191.6024  117682287.65948  22394183.5334   91700447.86848
  22833386.909   119990335.011 8  22833381.722    93498933.279 8
  25434547.8514  133659461.89746  25434540.0054  104150220.43346
  20375831.9834  107075796.83348  20375820.4854   83435666.90349
  22832319.8534  119984730.28547  22832312.1394   93494585.14148
  22970806.588   120712421.797 7  22970798.746    94061589.521 8
  20498779.4894  107721880.21748  20498770.2314   83939131.11949
  24197475.362   127158619.216 5  24197466.563    99084613.550 7
  21129862.7114  111038227.11548  21129854.1304   86523281.06549
  24081552.0624  126549417.53646  24081545.6084   98609906.92946
 13  6 30  1 57 30.0000000  0 10G04G01G11G23G32G17G20G31G13G10
  22378366.2074  117599124.46148  22378358.0474   91635645.39648
  22852661.948   120091626.337 8  22852656.809    93577861.540 8
  25456169.4874  133773083.86146  25456161.6224  104238757.02746
  20373371.1684  107062865.22748  20373359.6874   83425590.34549
  22846387.9294  120058658.83148  22846380.2194   93552191.76748
  22982409.823   120773397.212 7  22982401.987    94109102.793 8
  20505779.8034  107758667.11448  20505770.5574   83967796.22349
  24211697.087   127233355.883 6  24211688.588    99142849.865 7
  21116957.3664  110970409.00849  21116948.7474   86470435.80549
  24063413.7244  126454099.80446  24063407.1194   98535633.41346
 13  6 30  1 58  0.0000000  0 10G04G01G11G23G32G17G20G31G13G10
  22362578.1724  117516157.65148  22362569.9524   91570995.91048
  22871954.052   120193006.969 8  22871948.893    93656859.400 8
  25477753.1644  133886506.41046  25477745.2744  104327138.22546
  20370966.2644  107050227.55949  20370954.8214   83415742.82049
  22860451.6454  120132564.22247  22860443.9474   93609780.38048
  22994061.608   120834627.939 8  22994053.719    94156814.998 8
  20512813.5384  107795629.70448  20512804.2724   83996598.23449
  24225968.756   127308354.009 6  24225960.314    99201289.948 7
  21104101.2274  110902849.60649  21104092.5984   86417792.14949
  24045259.9374  126358700.69446  24045253.2834   98461296.55247
 13  6 30  1 58 30.0000000  0 10G04G01G11G23G32G17G20G31G13G10
  22346857.2154  117433543.77748  22346849.0154   91506621.49048
  22891292.018   120294628.601 8  22891286.811    93736045.064 8
  25499327.7214  133999881.28846  25499319.8694  104415482.27046
  20368646.5034  107038037.31949  20368635.0844   83406243.94749
  22874540.1564  120206599.90748  22874532.4854   93667470.52448
  23005790.904   120896265.495 7  23005782.906    94204844.249 8
  20519910.0244  107832921.98748  20519900.7574   84025657.15749
  24240318.981   127383764.890 6  24240310.509    99260051.656 7
  21091323.8174  110835703.80148  21091315.1204   86365470.76349
  24027120.0064  126263374.71446  24027113.3194   98387016.61846
 13  6 30  1 59  0.0000000  0 10G04G01G11G23G32G17G20G31G13G10
  22331204.0404  117351285.91148  22331195.8814   91442524.46048
  22910675.568   120396489.844 8  22910670.359    93815417.453 8
  25520892.8164  134113207.12645  25520885.0874  104503788.17245
  20366411.9664  107026294.81449  20366400.5774   83397093.95149
  22888653.4434  120280766.04548  22888645.8274   93725262.30248
  23017597.369   120958308.201 8  23017589.246    94253189.173 8
  20527069.3564  107870544.34648  20527060.0694   84054973.27949
  24254747.309   127459586.766 6  24254738.811    99319133.581 7
  21078625.3454  110768973.12749  21078616.6694   86313472.85449
  24008994.2924  126168123.00946  24008987.4884   98312794.61946
 13  6 30  1 59 30.0000000  0 10G04G01G11G23G32G17G20G31G13G10
  22315618.7674  117269384.87248  22315610.6694   91378705.49748
  22930104.057   120498587.305 7  22930098.894    93894973.868 8
  25542448.0474  134226480.81545  25542440.3304  104592053.35246
  20364262.1674  107014997.85249  20364250.8234   83388291.13449
  22902791.2634  120355060.79148  22902783.6814   93783154.26548
  23029479.993   121020751.310 8  23029471.786    94301846.126 8
  20534291.1294  107908495.14348  20534281.8424   84084545.29449
  24269253.230   127535815.580 6  24269244.693    99378532.619 7
  21066005.7304  110702656.66648  21065997.0264   86261797.71249
  23990882.7004  126072945.26146  23990875.6784   98238630.15946
 13  6 30  2  0  0.0000000  0 10G04G01G11G23G32G17G20G31G13G10
  22300072.4904  117187689.07248  22300064.4794   91315046.45048
  22949547.754   120600764.558 7  22949542.630    93974592.468 8
  25563963.5724  134339545.53846  25563955.8284  104680155.78146
  20362167.8194  107003992.10649  20362156.5364   83379715.25449
  22916924.0114  120429329.13148  22916916.5344   93841025.68548
  23041408.940   121083437.725 7  23041400.669    94350692.656 8
  20541545.8794  107946619.42248  20541536.6694   84114252.53649
  24283806.889   127612294.701 6  24283798.307    99438126.795 7
  21053435.9034  110636601.97048  21053427.2184   86210326.57449
  23972755.9114  125977687.78045  23972748.6824   98164403.64246
 13  6 30  2  0 30.0000000  0 10G04G01G11G23G32G17G20G31G13G10
  22284624.7124  117106510.70148  22284616.7544   91251790.59948
  22969065.124   120703329.283 7  22969060.102    94054513.004 8
  25585497.9394  134452709.34046  25585490.1614  104768335.40046
  20360187.7364  106993586.70049  20360176.4554   83371607.15149
  22931110.6354  120503880.53548  22931103.1894   93899117.66648
  23053442.513   121146674.767 7  23053434.399    94399968.207 8
  20548892.5994  107985226.69548  20548883.3744   84144336.12749
  24298466.610   127689331.554 5  24298457.948    99498155.512 7
  21040974.8614  110571118.93648  21040966.1714   86159300.85649
  23954672.9404  125882661.18946  23954665.6434   98090356.93346
 13  6 30  2  1  0.0000000  0 10G04G01G11G23G32G17G20G31G13G10
  22269246.5524  117025697.67648  22269238.5514   91188819.42648
  22988626.422   120806124.844 7  22988621.453    94134613.403 8
  25607021.3194  134565815.58846  25607013.5684  104856470.21846
  20358292.3624  106983626.37949  20358281.0534   83363845.85949
  22945321.6214  120578559.77148  22945314.1714   93957309.26248
  23065550.811   121210304.862 7  23065542.845    94449550.081 8
  20556301.7704  108024162.15348  20556292.5584   84174675.43649
  24313202.382   127766769.124 6  24313193.769    99558496.361 6
  21028593.5864  110506054.64949  21028584.8284   86108601.45249
  23936604.7014  125787711.63946  23936597.3544   98016370.43546
 13  6 30  2  1 30.0000000  0 10G04G01G11G23G32G17G20G31G13G10
  22253938.5004  116945252.82148  22253930.3784   91126135.14348
  23008231.374   120909149.750 7  23008226.458    94214892.496 8
  25628533.4124  134678862.71346  25628525.7144  104944558.92246
  20356481.7334  106974111.27549  20356470.3914   83356431.50349
  22959556.9644  120653367.00248  22959549.5174   94015600.62148
  23077733.510   121274326.069 7  23077725.727    94499436.697 8
  20563773.3724  108063426.00248  20563764.2204   84205270.64049
  24328014.136   127844605.104 6  24328005.369    99619147.764 6
  21016292.2474  110441410.54848  21016283.4714   86058229.45249
  23918551.3794  125692840.60446  23918543.9534   97942445.02746
 13  6 30  2  2  0.0000000  0 10G04G01G11G23G32G17G20G31G13G10
  22238671.4144  116865023.61748  22238663.2254   91063618.88948
  23027850.107   121012246.828 8  23027845.179    94295227.880 8
  25650004.3964  134791693.68146  25649996.7594  105032479.20046
  20354726.1764  106964885.69749  20354714.7884   83349242.72649
  22973787.0794  120728146.69847  22973779.6594   94073870.48948
  23089960.679   121338580.399 8  23089952.939    94549504.962 8
  20571277.9534  108102862.96448  20571268.8324   84236000.71249
  24342871.611   127922682.221 6  24342862.864    99679987.095 7
  21004041.4654  110377032.25548  21004032.7094   86008064.56749
  23900483.5004  125597894.01146  23900476.2004   97868460.72447
 13  6 30  2  2 30.0000000  0 10G04G01G11G23G32G17G20G31G13G10
  22223504.4034  116785320.68648  22223496.2424   91001512.69548
  23047540.863   121115722.135 7  23047535.861    94375857.929 8
  25671492.5154  134904614.82446  25671484.9314  105120469.79446
  20353084.2434  106956257.27749  20353072.8614   83342519.31049
  22988070.5044  120803206.48048  22988063.0854   94132358.60348
  23102290.407   121403373.182 7  23102282.589    94599992.817 8
  20578874.0324  108142780.87948  20578864.9524   84267105.55349
  24357833.250   128001306.103 6  24357824.498    99741252.362 7
  20991900.0284  110313228.82448  20991891.2994   85958347.64749
  23882460.0544  125503180.53746  23882452.7654   97794658.02047
 13  6 30  2  3  0.0000000  0 10G04G01G11G23G32G17G20G31G13G10
  22208438.1584  116706147.53748  22208430.0834   90939819.35148
  23067303.324   121219574.633 7  23067298.340    94456781.915 8
  25692997.6844  135017625.24646  25692990.1474  105208529.93746
  20351556.0814  106948226.73649  20351544.6874   83336261.75349
  23002407.3294  120878546.81248  23002399.9384   94191065.30648
  23114722.272   121468702.823 8  23114714.413    94650898.994 8
  20586561.7374  108183180.35648  20586552.7244   84298585.69249
  24372898.732   128080474.997 6  24372889.912    99802942.402 7
  20979868.4384  110250002.26949  20979859.6914   85909080.22449
  23864481.3874  125408702.06647  23864474.1304   97721038.51447
 13  6 30  2  3 30.0000000  0 10G04G01G11G23G32G17G20G31G13G10
  22193414.4344  116627197.14548  22193406.3094   90878299.57348
  23087078.312   121323492.960 7  23087073.380    94537757.212 8
  25714460.5564  135130413.52946  25714453.0494  105296416.99346
  20350082.7194  106940484.16249  20350071.2794   83330228.58249
  23016738.6244  120953858.03048  23016731.2354   94249749.38548
  23127196.910   121534257.177 7  23127188.975    94701980.242 8
  20594282.1794  108223751.73848  20594273.1964   84330199.73549
  24388008.573   128159877.432 6  24387999.747    99864814.401 7
  20967887.9554  110187044.28049  20967879.2084   85860022.08649
  23846488.7864  125314150.12147  23846481.4514   97647361.75147
 13  6 30  2  4  0.0000000  0 10G04G01G11G23G32G17G20G31G13G10
  22178433.7374  116548473.17348  22178425.6734   90816956.24748
  23106865.583   121427475.893 7  23106860.733    94618782.802 8
  25735880.9294  135242978.53445  25735873.4254  105384130.04146
  20348664.1844  106933029.90249  20348652.7644   83324420.06349
  23031064.4494  121029140.55748  23031057.0404   94308411.03848
  23139713.945   121600034.265 8  23139706.001    94753235.119 8
  20602035.3894  108264495.32148  20602026.4374   84361947.96149
  24403162.618   128239511.726 6  24403153.694    99926867.092 7
  20955958.8274  110124356.54149  20955950.1284   85811174.50049
  23828482.3874  125219526.54146  23828475.1904   97573629.18447
 13  6 30  2  4 30.0000000  0 10G04G01G11G23G32G17G20G31G13G10
  22163555.2424  116470286.15548  22163547.2224   90756031.29248
  23126723.418   121531829.396 7  23126718.607    94700097.163 8
  25757317.1464  135355626.49145  25757309.6114  105471907.82545
  20347359.0574  106926171.34949  20347347.6174   83319075.76749
  23045443.3824  121104701.92448  23045435.8754   94367290.02548
  23152331.431   121666339.223 8  23152323.494    94804901.270 8
  20609880.0894  108305719.55948  20609871.1694   84394070.76649
  24418418.876   128319683.779 6  24418410.030    99989338.860 7
  20944139.8904  110062248.04249  20944131.2394   85762778.31149
  23810521.1484  125125140.03146  23810514.0164   97500081.30747
 13  6 30  2  5  0.0000000  0  9G04G01G23G32G17G20G31G13G10
  22148779.1364  116392637.07248  22148771.1144   90695525.53448
  23146651.207   121636550.322 7  23146646.369    94781697.831 8
  20346166.9974  106919906.97049  20346155.5294   83314194.42749
  23059875.0724  121180540.65548  23059867.5174   94426385.12448
  23165048.613   121733168.408 7  23165040.745    94856975.913 8
  20617815.8884  108347422.58848  20617807.0044   84426566.62049
  24433776.740   128400389.587 6  24433767.898   100052226.390 7
  20932431.1344  110000718.55548  20932422.5444   85714833.28749
  23792605.1144  125030990.70246  23792597.9354   97426718.26347
 13  6 30  2  5 30.0000000  0  9G04G01G23G32G17G20G31G13G10
  22134047.4254  116315220.90648  22134039.3114   90635201.26548
  23166589.963   121741328.944 8  23166585.101    94863343.480 8
  20345029.2904  106913928.27749  20345017.7954   83309535.72349
  23074300.8704  121256348.61148  23074293.2884   94485456.24648
  23177806.398   121800211.328 7  23177798.625    94909217.111 8
  20625784.1904  108389296.61048  20625775.3614   84459195.70849
  24449177.176   128481318.673 6  24449168.284   100115287.959 7
  20920774.2554  109939461.49248  20920765.6574   85667100.53549
  23774675.6134  124936771.47746  23774668.6284   97353300.74647
 13  6 30  2  6  0.0000000  0  9G04G01G23G32G17G20G31G13G10
  22119389.8064  116238194.53848  22119381.6874   90575180.74448
  23186568.749   121846317.608 8  23186563.782    94945152.778 8
  20343975.2764  106908389.39649  20343963.7834   83305219.72049
  23088750.1264  121332279.77248  23088742.5524   94544623.38048
  23190633.689   121867619.326 7  23190625.904    94961742.738 8
  20633814.3814  108431495.48448  20633805.5854   84492077.94549
  24464648.964   128562623.157 6  24464640.094   100178642.119 7
  20909198.7354  109878631.91048  20909190.0854   85619700.87749
  23756762.4974  124842637.85447  23756755.5484   97279949.92847
 13  6 30  2  6 30.0000000  0  9G04G01G23G32G17G20G31G13G10
  22104806.6204  116161559.87748  22104798.6134   90515465.43248
  23206586.993   121951513.565 8  23206581.917    95027123.631 8
  20343004.7264  106903289.12149  20342993.2184   83301245.48049
  23103222.6244  121408333.07648  23103215.0354   94603885.65148
  23203529.824   121935388.974 7  23203522.006    95014550.242 8
  20641906.2384  108474018.60548  20641897.4794   84525212.83949
  24480191.574   128644300.125 6  24480182.726   100242286.475 7
  20897704.6304  109818230.10548  20897695.9184   85572634.55849
  23738865.8274  124748590.09146  23738858.8084   97206666.08147
 13  6 30  2  7  0.0000000  0 10G04G01G23G32G17G20G31G13G10G02
  22090298.6764  116085320.36748  22090290.6774   90456058.04548
  23226644.509   122056915.837 8  23226639.336    95109255.220 8
  20342117.7144  106898627.71649  20342106.1694   83297613.22749
  23117718.4874  121484509.16248  23117710.8524   94663243.60248
  23216494.648   122003518.644 7  23216486.624    95067638.249 8
  20650059.9604  108516866.64548  20650051.2044   84558600.91449
  24495804.691   128726348.043 6  24495795.949   100306219.888 7
  20886292.3394  109758258.04648  20886283.5274   85525903.10249
  23720985.8274  124654630.12047  23720978.7334   97133450.60147
  25506299.3634  134036509.69946
 13  6 30  2  7 30.0000000  0 10G04G01G23G32G17G20G31G13G10G02
  22075837.0344  116009323.79848  22075828.9824   90396839.94848
  23246711.442   122162367.591 7  23246706.187    95191425.372 8
  20341284.6124  106894249.73648  20341273.0714   83294201.82949
  23132208.2084  121560652.91347  23132200.5454   94722576.34448
  23229498.046   122071850.772 7  23229489.764    95120884.059 8
  20658245.9404  108559884.32048  20658237.2064   84592121.16349
  24511458.476   128808609.493 6  24511449.775   100370319.751 7
  20874932.5274  109698561.77348  20874923.6664   85479386.55849
  23703093.4224  124560604.27447  23703086.1024   97060183.76646
  25485895.0894  133929280.95246  25485884.4474  104360437.90446
 13  6 30  2  8  0.0000000  0 11G04G01G07G23G32G17G20G31G13G10G02
  22061480.8134  115933881.03648  22061472.6824   90338053.42448
  23266846.045   122268175.335 8  23266840.781    95273872.916 8
  25291489.422   132907668.776 4
  20340564.0454  106890463.38448  20340552.5524   83291251.42549
  23146750.3394  121637072.38847  23146742.6764   94782123.94348
  23242597.932   122140690.887 7  23242589.639    95174525.669 8
  20666522.9074  108603379.82848  20666514.1384   84626013.75549
  24527211.078   128891390.660 6  24527202.601   100434824.503 7
  20863684.0364  109639450.30048  20863675.0534   85433325.67849
  23685247.0884  124466821.77846  23685239.7174   96987106.49146
  25465529.7814  133822259.72346  25465518.3854  104277044.72246
 13  6 30  2  8 30.0000000  0 11G04G01G07G23G32G17G20G31G13G10G02
  22047201.1254  115858840.64448  22047192.9424   90279580.40248
  23287018.683   122374182.949 8  23287013.404    95356476.186 8
  25270500.644   132797362.882 5
  20339926.6734  106887113.96849  20339915.2164   83288641.51749
  23161315.5514  121713613.22047  23161307.9404   94841766.13548
  23255764.504   122209882.254 7  23255756.398    95228440.970 8
  20674861.5644  108647199.38848  20674852.7394   84660158.86949
  24543032.910   128974534.887 6  24543024.508   100499612.195 7
  20852517.7634  109580771.26848  20852508.7794   85387601.78049
  23667417.8644  124373129.38646  23667410.4464   96914099.48547
  25445174.3784  133715294.42446  25445163.1904  104193695.16546
 13  6 30  2  9  0.0000000  0 11G04G01G07G23G32G17G20G31G13G10G02
  22032998.4684  115784205.36748  22032990.3024   90221423.02948
  23307228.970   122480388.663 8  23307223.713    95439233.836 8
  25249497.713   132686983.545 4
  20339372.4134  106884201.25449  20339360.9474   83286371.87749
  23175903.8434  121790275.33447  23175896.2774   94901502.81548
  23268997.528   122279422.768 7  23268989.550    95282628.331 8
  20683261.7794  108691342.81948  20683252.9494   84694556.32249
  24558923.417   129058039.877 6  24558915.011   100564680.960 7
  20841433.8384  109522525.28548  20841424.9024   85342215.34549
  23649606.1694  124279528.86346  23649598.7164   96841164.11447
  25424830.4414  133608387.06446  25424819.2494  104110390.68946
 13  6 30  2  9 30.0000000  0 11G04G01G07G23G32G17G20G31G13G10G02
  22018873.1664  115709976.65348  22018864.9964   90163582.51148
  23327476.377   122586789.441 8  23327471.126    95522143.483 8
  25228480.077   132576532.312 4
  20338900.9104  106881723.80148  20338889.5054   83284441.40249
  23190514.9504  121867057.34447  23190507.4404   94961332.89648
  23282296.307   122349307.882 8  23282288.249    95337084.218 8
  20691723.3954  108735808.78348  20691714.5714   84729205.12549
  24574881.894   129141902.304 6  24574873.466   100630028.225 7
  20830432.3464  109464712.17948  20830423.4084   85297166.18949
  23631811.8914  124186019.67247  23631804.4624   96768299.87047
  25404498.1364  133501539.01346  25404486.5224  104027132.44646
 13  6 30  2 10  0.0000000  0 11G04G01G07G23G32G17G20G31G13G10G02
  22004796.4024  115636003.13448  22004788.2574   90105940.80648
  23347731.232   122693229.299 8  23347725.994    95605083.594 8
  25207419.531   132465857.581 5
  20338482.8124  106879526.98949  20338471.4654   83282729.59649
  23205119.4644  121943804.90047  23205112.0374   95021136.15548
  23295630.856   122419380.847 8  23295622.700    95391686.501 8
  20700217.0624  108780443.11748  20700208.2234   84763985.08649
  24590878.596   129225965.849 6  24590870.229   100695532.233 7
  20819484.1354  109407179.00548  20819475.1714   85252335.17749
  23614005.9194  124092449.03246  23613998.4974   96695387.73247
  25384147.7394  133394598.51946  25384136.3474  103943802.13046
 13  6 30  2 10 30.0000000  0 11G04G01G07G23G32G17G20G31G13G10G02
  21990827.3544  115562595.72848  21990819.2384   90048740.25648
  23368051.802   122800014.736 8  23368046.638    95688292.981 8
  25186375.425   132355270.497 5  25186368.160   103133970.153 6
  20338176.7094  106877918.34949  20338165.3444   83281476.14549
  23219776.1254  122020826.35747  23219768.7534   95081152.83248
  23309059.355   122489947.900 7  23309051.149    95446673.818 8
  20708801.4064  108825553.96248  20708792.5734   84799136.37949
  24606971.829   129310536.300 6  24606963.442   100761431.314 7
  20808647.9584  109350234.69948  20808639.0364   85207963.01349
  23596247.1214  123999126.60746  23596239.7774   96622669.05547
  25363838.7374  133287876.24646  25363827.6204  103860641.91446
 13  6 30  2 11  0.0000000  0 11G04G01G07G23G32G17G20G31G13G10G02
  21976966.4634  115489756.50348  21976958.3674   89991982.43448
  23388437.706   122907143.137 7  23388432.548    95771769.629 8
  25165348.054   132244772.475 6  25165340.731   103047867.781 6
  20337982.4234  106876897.18249  20337971.0194   83280680.41749
  23234484.7034  122098120.64547  23234477.4174   95141382.10048
  23322581.078   122561005.160 7  23322572.971    95502043.045 8
  20717476.2474  108871140.49748  20717467.4144   84834658.33849
  24623160.933   129395610.613 6  24623152.549   100827723.001 7
  20797923.9614  109293880.02548  20797915.0864   85164050.29449
  23578535.7864  123906052.72746  23578528.3474   96550144.02147
  25343572.0984  133181374.15046  25343560.9154  103777653.27046
 13  6 30  2 11 30.0000000  0 11G04G01G07G23G32G17G20G31G13G10G02
  21963155.4884  115417179.21848  21963147.3244   89935428.70848
  23408829.820   123014304.045 7  23408824.642    95855271.593 8
  25144279.645   132134058.056 6  25144272.135   102961596.905 6
  20337841.0864  106876154.13449  20337829.6214   83280101.41449
  23249186.4274  122175378.91347  23249179.2104   95201583.29848
  23336136.833   122632241.507 7  23336128.933    95557551.817 8
  20726182.9024  108916894.09248  20726174.0614   84870310.47949
  24639386.719   129480877.696 6  24639378.300   100894164.865 6
  20787253.5864  109237807.07648  20787244.7514   85120357.11849
  23560813.1764  123812920.03347  23560805.7164   96477573.18447
  25323288.9914  133074785.64046  25323277.7714  103694597.24846
 13  6 30  2 12  0.0000000  0 11G04G01G07G23G32G17G20G31G13G10G02
  21949424.1324  115345020.39048  21949415.8804   89879201.05548
  23429256.916   123121649.098 7  23429251.817    95938917.022 8
  25123199.726   132023283.457 6  25123192.285   102875279.128 6
  20337781.8044  106875842.54749  20337770.3314   83279858.63049
  23263910.5814  122252754.80147  23263903.3974   95261876.13248
  23349755.471   122703807.934 7  23349747.699    95613317.826 8
  20734950.5744  108962968.26748  20734941.7044   84906212.44849
  24655677.998   129566489.256 5  24655669.662   100960875.019 6
  20776666.2534  109182170.51448  20776657.4084   85077003.96949
  23543108.7634  123719883.46447  23543101.3784   96405077.19447
  25303018.9424  132968266.87746  25303007.8464  103611595.60346
 13  6 30  2 12 30.0000000  0 11G04G01G07G23G32G17G20G31G13G10G02
  21935743.8574  115273129.99948  21935735.5004   89823182.56148
  23449689.681   123229024.002 7  23449684.635    96022585.745 8
  25102079.631   131912298.670 6  25102072.510   102788797.555 6
  20337775.5184  106875809.44749  20337764.0054   83279832.85449
  23278628.0574  122330095.53647  23278620.8584   95322141.61248
  23363407.419   122775549.091 7  23363399.697    95669219.975 8
  20743750.1834  109009210.46348  20743741.2944   84942245.29949
  24672005.443   129652290.119 6  24671997.111   101027732.817 7
  20766133.1424  109126819.01848  20766124.3634   85033872.97449
  23525393.9564  123626791.46547  23525386.4804   96332538.02347
  25282733.9254  132861668.02146  25282722.7534  103528531.53946
 13  6 30  2 13  0.0000000  0 11G04G01G07G23G32G17G20G31G13G10G02
  21922173.5404  115201817.69048  21922165.1834   89767614.56548
  23470186.220   123336733.790 7  23470181.157    96106515.389 8
  25080978.557   131801413.529 6  25080971.696   102702393.628 6
  20337880.5074  106876361.23249  20337868.9964   83280262.83749
  23293397.2264  122407707.92147  23293390.0384   95382618.74848
  23377150.585   122847769.729 7  23377142.861    95725495.746 8
  20752640.1144  109055927.24048  20752631.2134   84978647.96949
  24688426.867   129738584.914 6  24688418.473   101094975.548 7
  20755712.8614  109072060.25949  20755704.0744   84991203.82049
  23507727.2084  123533952.38747  23507719.7584   96260195.93647
  25262492.2554  132755298.26046  25262481.2544  103445646.04746
 13  6 30  2 13 30.0000000  0 11G04G01G07G23G32G17G20G31G13G10G02
  21908713.4534  115131084.32748  21908705.0584   89712497.66648
  23490745.765   123444774.993 7  23490740.779    96190703.292 8
  25059896.792   131690628.981 6  25059889.958   102616068.056 6
  20338096.3894  106877495.82349  20338084.9044   83281146.94549
  23308217.6804  122485590.18247  23308210.5674   95443306.15247
  23390983.985   122920464.738 7  23390976.282    95782141.168 8
  20761620.0754  109103117.19148  20761611.1874   85015419.33549
  24704941.443   129825369.717 6  24704933.104   101162600.015 7
  20745405.1984  109017893.25048  20745396.3924   84948995.77349
  23490108.5584  123441365.69847  23490101.1024   96188050.54647
  25242294.2364  132649158.39146  25242283.4644  103362939.66246
 13  6 30  2 14  0.0000000  0 11G04G01G07G23G32G17G20G31G13G10G02
  21895305.5154  115060625.07448  21895297.1464   89657594.38348
  23511309.408   123552837.854 7  23511304.486    96274908.049 8
  25038776.109   131579639.607 6  25038769.209   102529582.932 7
  20338364.5224  106878904.87349  20338353.0214   83282244.89849
  23323030.9094  122563434.28547  23323023.8474   95503963.86848
  23404848.644   122993323.947 7  23404840.904    95838914.538 8
  20770631.4544  109150472.18348  20770622.5504   85052319.29949
  24721490.297   129912334.286 6  24721481.898   101230364.623 7
  20735151.8024  108964011.48048  20735142.9784   84907010.00549
  23472479.5184  123348724.71547  23472472.0504   96115862.84147
  25222082.1154  132542942.91946  25222071.2354  103280174.33946
 13  6 30  2 14 30.0000000  0 11G04G01G07G23G32G17G20G31G13G10G02
  21881979.3534  114990595.43548  21881970.9474   89603025.82948
  23531906.037   123661073.995 7  23531901.156    96359247.842 8
  25017646.234   131468602.112 6  25017639.329   102443060.232 6
  20338714.0224  106880741.38349  20338702.4974   83283675.94749
  23337866.0204  122641393.57147  23337858.9914   95564711.30147
  23418773.254   123066498.082 7  23418765.521    95895933.269 8
  20779703.4344  109198145.88448  20779694.6134   85089467.62749
  24738102.064   129999629.709 6  24738093.726   101298386.969 7
  20724982.0964  108910569.37348  20724973.2554   84865366.81749
  23454869.5554  123256184.17247  23454862.1444   96043753.40547
  25201885.1024  132436808.27346  25201874.4314  103197471.98946
 13  6 30  2 15  0.0000000  0 11G04G01G07G23G32G17G20G31G13G10G02
  21868735.6934  114920999.65948  21868727.3404   89548795.34448
  23552535.607   123769482.741 7  23552530.676    96443722.152 8
  24996507.959   131357520.287 6  24996501.066   102356503.015 7
  20339144.9634  106883005.99249  20339133.4324   83285440.61449
  23352723.2814  122719469.19347  23352716.2814   95625549.36047
  23432757.595   123139985.790 7  23432749.819    95953196.381 8
  20788836.2964  109246139.39948  20788827.4984   85126865.14349
  24754776.790   130087255.113 6  24754768.357   101366666.419 7
  20714896.4774  108857569.02748  20714887.5844   84824067.86849
  23437279.1344  123163746.45147  23437271.7664   95971724.06047
  25181704.2394  132330757.99746  25181693.7464  103114835.45646
 13  6 30  2 15 30.0000000  0 11G04G01G07G23G32G17G20G31G13G10G02
  21855575.0104  114851840.05148  21855566.7264   89494904.76748
  23573197.549   123878061.853 7  23573192.601    96528329.221 8
  24975361.661   131246396.307 6  24975354.809   102269912.943 7
  20339657.1874  106885697.81049  20339645.6374   83287538.13449
  23367602.6914  122797660.51947  23367595.6344   95686477.63548
  23446800.964   123213784.065 7  23446793.219    96010701.507 8
  20798029.8774  109294451.93148  20798021.1124   85164511.26649
  24771513.694   130175207.446 6  24771505.190   101435200.702 7
  20704894.9404  108805010.40948  20704885.9974   84783113.10349
  23419708.5904  123071412.43047  23419701.1364   95899775.51947
  25161539.7104  132224794.05945  25161529.4814  103032266.09946
 13  6 30  2 16  0.0000000  0 11G04G01G07G23G32G17G20G31G13G10G02
  21842497.5064  114783117.68148  21842489.2884   89441354.84548
  23593891.378   123986808.158 7  23593886.362    96613066.524 8
  24954207.675   131135231.610 6  24954200.842   102183291.169 7
  20340250.3844  106888815.20649  20340238.8434   83289967.27649
  23382503.8954  122875966.18948  23382496.7154   95747495.00747
  23460902.449   123287888.493 7  23460894.901    96068445.163 8
  20807283.8724  109343081.93948  20807275.1114   85202404.78249
  24788312.033   130263482.999 6  24788303.521   101503986.811 6
  20694977.4244  108752893.63248  20694968.5164   84742502.67749
  23402157.7534  122979182.22247  23402150.2444   95827907.92447
  25141391.8754  132118917.59546  25141381.8874  102949764.94846
 13  6 30  2 16 30.0000000  0 11G04G01G07G23G32G17G20G31G13G10G02
  21829474.5234  114714681.68948  21829466.3364   89388028.09848
  23614587.397   124095566.222 7  23614582.376    96697813.056 8
  24933017.293   131023875.336 7  24933010.386   102096520.046 7
  20340895.3084  106892204.18448  20340883.6994   83292608.04149
  23397397.5874  122954232.50548  23397390.3714   95808481.72548
  23475032.501   123362143.045 7  23475025.173    96126305.765 8
  20816569.1794  109391876.24648  20816560.3864   85240426.30549
  24805142.319   130351926.188 6  24805133.636   101572903.505 6
  20685114.9094  108701065.89348  20685106.0614   84702117.44649
  23384597.6424  122886903.40047  23384590.1104   95756002.36047
  25121232.2844  132012977.97946  25121222.2124  102867214.63746
 13  6 30  2 17  0.0000000  0 11G04G01G07G23G32G17G20G31G13G10G02
  21816565.2524  114646843.07748  21816557.0924   89335166.83748
  23635343.950   124204642.644 7  23635338.962    96782807.618 7
  24911849.611   130912638.729 7  24911842.741   102009842.204 7
  20341650.3504  106896172.39349  20341638.8164   83295700.18349
  23412342.4024  123032767.78547  23412335.1874   95869678.00047
  23489249.392   123436853.498 7  23489242.121    96184521.665 8
  20825944.3924  109441143.19548  20825935.5904   85278816.13649
  24822062.822   130440842.906 6  24822053.964   101642189.235 7
  20675366.2724  108649836.52548  20675357.4004   84662198.49549
  23367087.1924  122794885.68146  23367079.6274   95684300.29747
  25101119.7944  131907285.88046  25101109.6504  102784857.12046
 13  6 30  2 17 30.0000000  0 11G04G01G07G23G32G17G20G31G13G10G02
  21803740.6534  114579449.16748  21803732.4464   89282652.12048
  23656131.195   124313880.040 7  23656126.228    96867927.624 8
  24890675.658   130801369.297 6  24890668.820   101923138.785 7
  20342485.9774  106900564.01348  20342474.5014   83299122.23549
  23427308.8004  123111416.42548  23427301.5744   95930962.60447
  23503523.064   123511861.586 8  23503515.707    96242969.487 8
  20835379.8974  109490727.11048  20835371.0884   85317452.92349
  24839043.255   130530075.562 6  24839034.419   101711721.107 6
  20665702.0914  108599050.90748  20665693.2114   84622625.32149
  23349597.0664  122702975.13447  23349589.5284   95612681.76647
  25081025.2414  131801688.22846  25081015.0684  102702573.28846
 13  6 30  2 18  0.0000000  0 11G04G01G07G23G32G17G20G31G13G10G02
  21791001.3474  114512503.28748  21790993.0484   89230486.47748
  23676948.900   124423277.572 7  23676944.036    96953172.377 8
  24869496.089   130690070.847 6  24869489.309   101836412.728 7
  20343402.3184  106905379.67249  20343390.8594   83302874.69249
  23442296.9484  123190179.30347  23442289.7064   95992336.24947
  23517853.158   123587165.488 7  23517845.584    96301647.812 8
  20844875.8734  109540628.73748  20844867.0634   85356337.29149
  24856083.448   130619622.441 6  24856074.694   101781497.873 6
  20656122.6144  108548710.54448  20656113.7214   84583399.09849
  23332127.8954  122611173.77147  23332120.1624   95541148.25947
  25060949.3204  131696188.92646  25060939.2174  102620366.09847
 13  6 30  2 18 30.0000000  0 11G04G01G07G23G32G17G20G31G13G10G02
  21778318.0454  114445851.95848  21778309.7174   89178550.35648
  23697767.026   124532677.185 7  23697762.200    97038418.781 8
  24848281.728   130578589.499 6  24848275.014   101749544.175 7
  20344369.5444  106910462.41349  20344358.0474   83306835.29149
  23457277.1114  123268900.21448  23457269.7944   96053677.20447
  23532209.162   123662606.423 7  23532201.541    96360432.932 7
  20854402.5734  109590691.76248  20854393.7534   85395347.43149
  24873153.349   130709325.066 6  24873144.543   101851395.989 7
  20646598.4694  108498660.88548  20646589.5724   84544399.36049
  23314649.9324  122519326.45747  23314642.0684   95469579.01047
  25040862.9344  131590634.00846  25040852.7474  102538115.54846
 13  6 30  2 19  0.0000000  0 11G04G01G07G23G32G17G20G31G13G10G02
  21765750.0954  114379807.00148  21765741.7784   89127086.74748
  23718643.998   124642386.164 7  23718639.196    97123906.213 8
  24827092.074   130467237.368 6  24827085.313   101662776.329 7
  20345446.3174  106916120.64649  20345434.7724   83311244.29949
  23472308.0784  123347888.16447  23472300.7344   96115226.20347
  23546649.438   123738490.651 7  23546641.867    96419563.465 8
  20864018.8374  109641225.50448  20864010.0114   85434724.33749
  24890311.196   130799490.598 5  24890302.519   101921654.843 7
  20637188.4944  108449211.19648  20637179.5974   84505867.15149
  23297222.1224  122427743.88446  23297214.3274   95398216.01047
  25020825.3994  131485335.17446  25020815.0574  102456064.62146
 13  6 30  2 19 30.0000000  0 11G04G01G07G23G32G17G20G31G13G10G02
  21753297.9734  114314370.59648  21753289.6444   89076097.34148
  23739579.461   124752402.515 7  23739574.670    97209633.230 8
  24805927.546   130356017.460 7  24805920.760   101576111.522 7
  20346632.4974  106922354.06449  20346620.9414   83316101.52449
  23487389.7434  123427142.84948  23487382.4274   96176983.09047
  23561173.584   123814815.492 7  23561166.026    96479037.281 7
  20873724.6114  109692229.81748  20873715.8234   85474467.95549
  24907556.610   130890116.232 5  24907548.148   101992272.124 6
  20627892.8404  108400362.33048  20627883.9264   84467803.11949
  23279845.0354  122336427.23447  23279837.2174   95327060.21447
  25000837.2374  131380295.30147  25000826.6594  102374215.40946
 13  6 30  2 20  0.0000000  0 11G04G01G07G23G32G17G20G31G13G10G02
  21740903.3754  114249236.54448  21740895.1144   89025343.56248
  23760514.250   124862415.199 7  23760509.426    97295357.305 8
  24784729.855   130244623.155 6  24784723.048   101489310.810 7
  20347869.1394  106928852.66249  20347857.6014   83321165.38049
  23502463.3794  123506355.15548  23502456.1094   96238706.92347
  23575722.196   123891269.026 7  23575714.696    96538611.404 7
  20883461.0304  109743395.10948  20883452.2794   85514336.99049
  24924830.363   130980890.541 5  24924821.980   102063005.265 7
  20618652.8834  108351806.15448  20618643.9614   84429967.19349
  23262460.0674  122245068.80347  23262452.1394   95255871.84947
  24980839.9944  131275207.51847  24980829.1334  102292328.94647
 13  6 30  2 20 30.0000000  0 11G04G01G07G23G32G17G20G31G13G10G02
  21728566.6534  114184406.63148  21728558.4274   88974826.76448
  23781447.833   124972421.792 7  23781442.971    97381076.674 8
  24763499.392   130133056.695 6  24763492.583   101402375.980 7
  20349156.1004  106935615.56349  20349144.5384   83326435.17049
  23517528.8884  123585524.37948  23517521.5654   96300397.19947
  23590294.764   123967848.011 7  23590287.280    96598283.323 7
  20893228.0264  109794720.89348  20893219.2484   85554331.09349
  24942131.884   131071810.649 6  24942123.567   102133852.061 7
  20609468.6194  108303542.70448  20609459.7324   84392359.31049
  23245067.1534  122153669.23147  23245059.2804   95184651.43847
  24960833.7494  131170073.79946  24960822.8864  102210406.58447
 13  6 30  2 21  0.0000000  0 11G04G01G07G23G32G17G20G31G13G10G02
  21716346.7554  114120190.69548  21716338.5754   88924788.39048
  23802438.363   125082727.588 7  23802433.449    97467029.172 8
  24742295.186   130021628.027 7  24742288.362   101315548.550 7
  20350551.6914  106942949.44248  20350540.1494   83332149.90349
  23532644.5534  123664957.48548  23532637.2204   96362293.09047
  23604949.151   124044856.712 7  23604941.618    96658290.073 7
  20903084.0034  109846514.21348  20903075.2454   85594689.50649
  24959519.139   131163181.355 6  24959510.906   102205049.995 7
  20600398.5684  108255879.76748  20600389.7354   84355219.37549
  23227725.2914  122062537.13247  23227717.4014   95113639.52947
  24940877.6484  131065204.28146  24940866.9244  102128690.13147
 13  6 30  2 21 30.0000000  0 11G04G01G07G23G32G17G20G31G13G10G02
  21704244.3304  114056592.14948  21704236.1634   88875231.09648
  23823485.646   125193331.678 7  23823480.720    97553214.103 8
  24721117.911   129910340.883 7  24721111.055   101228831.394 7
  20352055.9814  106950854.41249  20352044.3844   83338309.61749
  23547810.6184  123744655.37747  23547803.3244   96424395.31247
  23619684.827   124122293.146 7  23619677.310    96718630.083 7
  20913029.1104  109898775.79048  20913020.3044   85635412.79649
  24976992.008   131255001.275 5  24976983.699   102276597.974 6
  20591443.1894  108208819.30948  20591434.4394   84318548.93849
  23210434.6604  121971674.50647  23210426.8114   95042837.51747
  24920972.3404  130960602.24346  24920961.8454  102047182.09847
 13  6 30  2 22  0.0000000  0 11G04G01G07G23G32G17G20G31G13G10G02
  21692201.2214  113993305.30748  21692193.0444   88825916.66348
  23844530.716   125303924.021 7  23844525.727    97639389.889 8
  24699909.489   129798889.871 6  24699902.539   101141986.506 7
  20353610.2254  106959021.96149  20353598.6184   83344673.94649
  23562968.4094  123824309.98248  23562961.1414   96486463.79148
  23634442.738   124199846.804 7  23634435.292    96779061.426 7
  20923004.6824  109951197.46248  20922995.8134   85676260.83749
  24994491.226   131346959.785 6  24994482.715   102348253.894 5
  20582543.9594  108162053.53648  20582535.1824   84282108.09349
  23193136.9884  121880774.68947  23193129.0864   94972006.53747
  24901059.8354  130855962.14046  24901049.4834  101965644.36547
 13  6 30  2 22 30.0000000  0 11G04G01G07G23G32G17G20G31G13G10G02
  21680247.0714  113930485.51248  21680238.7734   88776966.17248
  23865602.255   125414655.394 7  23865597.209    97725674.023 7
  24678699.469   129687430.527 6  24678692.505   101055135.151 7
  20355243.3644  106967604.03649  20355231.6994   83351361.26449
  23578146.9774  123904073.64747  23578139.7294   96548617.25948
  23649251.579   124277667.666 7  23649244.091    96839700.985 7
  20933039.6824  110003931.74348  20933030.7844   85717352.48949
  25012045.530   131439207.092 6  25012036.742   102420134.888 6
  20573730.1124  108115736.39548  20573721.2864   84246016.85049
  23175861.4754  121789991.62947  23175853.6274   94901266.54447
  24881169.6594  130751439.24346  24881159.3624  101884197.95746
 13  6 30  2 23  0.0000000  0 11G04G01G07G23G32G17G20G31G13G10G02
  21668382.2154  113868135.15048  21668373.8164   88728381.47048
  23886699.872   125525523.930 7  23886694.805    97812065.026 7
  24657488.375   129575965.915 7  24657481.443   100968279.710 7
  20356955.2504  106976600.18449  20356943.5984   83358371.26849
  23593346.2714  123983946.29147  23593339.0554   96610855.64647
  23664110.625   124355752.354 7  23664103.204    96900546.129 7
  20943134.1894  110056978.61248  20943125.2604   85758687.68349
  25029654.272   131531741.155 6  25029645.426   102492239.318 7
  20565001.7984  108069868.48448  20564992.8704   84210275.63149
  23158608.3774  121699326.73647  23158600.6664   94830618.61447
  24861302.2864  130647036.37146  24861292.0814  101802845.13647
 13  6 30  2 23 30.0000000  0 11G04G01G07G23G32G17G20G31G13G10G02
  21656577.8574  113806102.45548  21656569.3554   88680044.29948
  23907793.872   125636373.522 7  23907788.828    97898441.274 7
  24636247.428   129464344.359 7  24636240.485   100881301.911 7
  20358716.3434  106985855.04249  20358704.7414   83365582.85349
  23608536.9484  124063773.77247  23608529.7334   96673058.86747
  23678990.121   124433944.009 7  23678982.663    96961474.652 8
  20953258.7374  110110183.59348  20953249.8304   85800146.10649
  25047287.777   131624405.095 6  25047278.929   102564444.939 7
  20556329.6224  108024296.14448  20556320.7204   84174764.75349
  23141348.7044  121608627.23347  23141341.1174   94759943.71247
  24841428.8174  130542601.96346  24841418.8564  101721467.72847
 13  6 30  2 24  0.0000000  0 11G04G01G07G23G32G17G20G31G13G10G02
  21644892.7184  113744696.57348  21644884.2074   88632195.57348
  23928942.263   125747508.882 7  23928937.198    97985040.188 7
  24615035.494   129352875.394 7  24615028.585   100794443.038 7
  20360585.0134  106995675.15348  20360573.4494   83373234.89949
  23623777.3824  124143862.48348  23623770.1874   96735465.60547
  23693947.877   124512546.797 7  23693940.386    97022723.527 8
  20963471.7804  110163853.24948  20963462.8394   85841966.60849
  25065003.846   131717503.233 6  25064994.992   102636988.817 7
  20547772.1814  107979326.42548  20547763.2374   84139723.41649
  23124141.1804  121518201.02047  23124133.5914   94689481.76847
  24821608.3824  130438445.18646  24821598.4694  101640306.55947
 13  6 30  2 24 30.0000000  0 11G04G01G07G23G32G17G20G31G13G10G02
  21633298.4044  113683768.04048  21633289.8924   88584718.79048
  23950115.798   125858776.183 7  23950110.735    98071741.908 8
  24593824.145   129241409.812 7  24593817.376   100707586.811 8
  20362532.1624  107005907.61549  20362520.6104   83381208.26149
  23639038.6724  124224060.41447  23639031.3574   96797957.42047
  23708954.326   124591405.843 7  23708946.826    97084172.015 7
  20973744.2894  110217835.46348  20973735.3424   85884030.66549
  25082773.224   131810881.442 5  25082764.394   102709750.986 7
  20539300.7054  107934808.45248  20539291.7264   84105034.12149
  23106956.9914  121427897.37347  23106949.3414   94619115.32447
  24801812.3764  130334416.84346  24801802.4994  101559245.55647
 13  6 30  2 25  0.0000000  0 11G04G01G07G23G32G17G20G31G13G10G02
  21621794.9934  113623317.14348  21621786.4604   88537614.22048
  23971313.583   125970171.421 7  23971308.589    98158543.326 7
  24572613.718   129129948.391 7  24572606.939   100620733.803 8
  20364557.2844  107016549.89449  20364545.7694   83389500.94849
  23654320.2254  124304365.32847  23654312.8984   96860532.65147
  23724008.584   124670516.189 7  23724001.042    97145816.388 8
  20984075.8394  110272127.99849  20984066.8764   85926336.50749
  25100594.936   131904534.985 6  25100586.107   102782727.672 6
  20530914.8524  107890740.56348  20530905.9094   84070695.53849
  23089795.9114  121337715.72647  23089788.3004   94548843.91647
  24782040.7784  130230517.21046  24782031.0654  101478284.84046
 13  6 30  2 25 30.0000000  0 11G04G01G07G23G32G17G20G31G13G10G02
  21610383.0574  113563347.01448  21610374.5614   88490884.27848
  23992535.534   126081693.275 7  23992530.501    98245443.384 7
  24551404.719   129018494.415 7  24551397.921   100533886.607 8
  20366660.3704  107027601.81049  20366648.8674   83398112.84849
  23669622.2734  124384777.69947  23669614.8674   96923191.59547
  23739110.231   124749875.818 7  23739102.679    97207655.007 8
  20994466.5224  110326731.40348  20994457.5694   85968884.59649
  25118468.665   131998462.001 6  25118459.902   102855917.500 7
  20522614.9244  107847124.14748  20522605.9764   84036708.76149
  23072658.4444  121247658.04047  23072650.8914   94478669.15447
  24762294.3974  130126749.59146  24762284.7754  101397427.02047
 13  6 30  2 26  0.0000000  0 11G04G01G07G23G32G17G20G31G13G10G02
  21599033.7064  113503706.14748  21599025.3124   88444410.87748
  24013751.929   126193185.996 7  24013746.919    98332320.756 7
  24530168.364   128906896.991 7  24530161.605   100446927.631 8
  20368812.0314  107038908.98849  20368800.5544   83406923.64649
  23684915.4824  124465143.67847  23684908.0384   96985814.38447
  23754229.568   124829328.098 7  23754222.011    97269565.829 8
  21004886.9734  110381491.49448  21004878.0654   86011554.78449
  25136364.783   132092506.547 6  25136356.126   102929198.919 6
  20514371.7374  107803805.84548  20514362.7764   84002954.23749
  23055515.5104  121157571.68647  23055508.0424   94408472.05547
  24742544.4774  130022963.05746  24742534.8814  101316554.31747
 13  6 30  2 26 30.0000000  0 11G04G01G07G23G32G17G20G31G13G10G02
  21587806.0034  113444704.17448  21587797.6554   88398435.37448
  24035020.896   126304954.733 7  24035015.836    98419413.228 7
  24508963.704   128795466.124 7  24508957.000   100360098.443 8
  20371070.5944  107050777.62749  20371059.0834   83416171.94449
  23700258.1124  124545769.99347  23700250.7364   97048640.04547
  23769424.383   124909177.136 7  23769416.860    97331785.820 8
  21015395.6724  110436715.14448  21015386.7744   86054586.18949
  25154341.190   132186973.142 5  25154332.544   103002809.284 6
  20506243.8474  107761093.24148  20506234.8274   83969671.70849
  23038425.8874  121067765.17647  23038418.4154   94338492.95047
  24722849.8784  129919467.05746  24722840.2694  101235908.11146
 13  6 30  2 27  0.0000000  0 11G04G01G07G23G32G17G20G31G13G10G02
  21576700.1144  113386342.39348  21576691.7734   88352958.64248
  24056341.848   126416996.528 7  24056336.714    98506718.471 7
  24487791.075   128684203.394 7  24487784.372   100273400.257 8
  20373435.6814  107063206.05949  20373424.1334   83425856.42849
  23715650.1614  124626655.63447  23715642.7994   97111667.78047
  23784693.884   124989418.905 7  23784686.435    97394311.803 7
  21025992.4144  110492401.08448  21025983.4634   86097977.79849
  25172397.121   132281858.260 4  25172388.585   103076745.693 6
  20498231.1554  107718986.13848  20498222.1024   83936860.99949
  23021389.4984  120978238.53347  23021382.0494   94268732.00547
  24703210.8884  129816263.46546  24703201.2504  101155489.73947
 13  6 30  2 27 30.0000000  0 11G04G01G07G23G32G17G20G31G13G10G02
  21565658.0444  113328316.17648  21565649.7534   88307743.41448
  24077655.844   126529002.647 6  24077650.776    98593995.867 7
  24466592.632   128572804.891 7  24466585.943   100186596.296 8
  20375848.7904  107075886.84349  20375837.1784   83435737.56949
  23731033.2084  124707493.77847  23731025.8064   97174658.49647
  23799979.180   125069743.867 7  23799971.804    97456902.585 7
  21036618.7444  110548242.51248  21036609.7334   86141490.59949
  25190473.883   132376852.853 5  25190465.543   103150767.312 6
  20490275.4404  107677178.44648  20490266.3344   83904283.58549
  23004348.3324  120888686.66747  23004340.7924   94198951.34347
  24683569.5014  129713047.65446  24683559.9234  101075061.85047
 13  6 30  2 28  0.0000000  0 11G04G01G07G23G32G17G20G31G13G10G02
  21554680.1474  113270626.99948  21554671.8324   88262790.78848
  24098962.606   126640970.312 6  24098957.536    98681243.362 7
  24445368.541   128461272.102 7  24445361.961   100099687.700 8
  20378309.5604  107088818.34148  20378297.9464   83445814.06449
  23746406.9164  124788283.28447  23746399.5654   97237611.34547
  23815279.737   125150148.275 7  23815272.267    97519555.299 7
  21047274.4304  110604238.46148  21047265.4034   86185123.78549
  25208570.923   132471953.498 5  25208562.704   103224871.725 6
  20482376.5384  107635669.43848  20482367.4204   83871938.91649
  22987302.4874  120799110.02047  22987294.8654   94129151.37347
  24663926.1064  129609821.72946  24663916.7044  100994626.15347
 13  6 30  2 28 30.0000000  0 11G04G01G07G23G32G17G20G31G13G10G02
  21543825.1884  113213583.80648  21543816.8404   88218341.53648
  24120319.892   126753203.794 6  24120314.917    98768697.956 7
  24424177.867   128349914.795 7  24424171.351   100012915.822 7
  20380876.0784  107102305.79748  20380864.5114   83456323.78449
  23761829.7184  124869330.34247  23761822.3204   97300764.82447
  23830653.113   125230935.596 7  23830645.572    97582506.413 7
  21058017.6684  110660694.68348  21058008.6494   86229115.64449
  25226746.035   132567463.922 5  25226737.703   103299295.369 6
  20474592.8024  107594765.75348  20474583.7094   83840065.91949
  22970310.3004  120709816.10347  22970302.7814   94059571.75447
  24644339.6704  129506894.50446  24644330.3134  100914423.15347
 13  6 30  2 29  0.0000000  0 11G04G01G07G23G32G17G20G31G13G10G02
  21533064.3654  113157035.23648  21533056.0284   88174277.74748
  24141698.236   126865547.689 7  24141693.375    98856238.607 7
  24402991.890   128238582.294 6  24402985.499    99926163.362 7
  20383519.0874  107116195.33648  20383507.6314   83467146.79349
  23777272.2984  124950481.33747  23777264.8624   97363999.32647
  23846069.608   125311949.578 7  23846061.994    97645634.144 7
  21068819.2464  110717457.54348  21068810.2614   86273346.44149
  25244969.465   132663228.443 5  25244961.100   103373917.007 6
  20466895.1464  107554314.79848  20466886.1654   83808545.70049
  22953343.0824  120620652.76747  22953335.5434   93990093.87547
  24624781.4394  129404115.30546  24624772.0134  100834335.43747
 13  6 30  2 29 30.0000000  0 11G04G01G07G23G32G17G20G31G13G10G02
  21522427.3774  113101137.61248  21522419.0324   88130721.15348
  24163126.550   126978154.176 7  24163121.751    98943983.847 7
  24381840.481   128127431.332 7  24381834.090    99839552.254 7
  20386267.8404  107130640.32149  20386256.3894   83478402.62249
  23792763.9054  125031890.15247  23792756.4814   97427434.73147
  23861558.055   125393341.415 7  23861550.397    97709056.316 7
  21079708.4744  110774681.07448  21079699.5354   86317936.19849
  25263270.171   132759398.741 5  25263261.756   103448854.824 6
  20459313.0844  107514470.98248  20459304.1294   83777498.59549
  22936430.3064  120531775.34447  22936422.7114   93920838.77947
  24605281.3264  129301641.02246  24605271.7764  100754485.34947
 13  6 30  2 30  0.0000000  0 11G04G01G07G23G32G17G20G31G13G10G02
  21511856.2744  113045586.27948  21511847.9374   88087434.41248
  24184546.061   127090714.217 7  24184541.363    99031692.952 7
  24360665.684   128016157.330 7  24360659.268    99752845.333 7
  20389063.6924  107145332.80948  20389052.2934   83489851.32049
  23808246.0734  125113249.68347  23808238.6694   97490831.70247
  23877059.369   125474801.243 6  23877051.821    97772531.431 7
  21090626.9304  110832057.82148  21090617.9744   86362645.31549
  25281589.082   132855665.264 5  25281580.674   103523867.604 6
  20451788.3214  107474928.15048  20451779.3534   83746686.01949
  22919513.7764  120442878.31547  22919506.1654   93851568.41547
  24585781.2014  129199166.98246  24585771.5644  100674635.49047
 13  6 30  2 30 30.0000000  0 11G04G01G07G23G32G17G20G31G13G10G02
  21501380.6104  112990536.60448  21501372.3504   88044538.56948
  24205985.510   127203378.780 7  24205980.862    99119483.430 8
  24339497.213   127904916.327 7  24339490.764    99666164.160 7
  20391935.5994  107160424.91048  20391924.1944   83501611.39649
  23823747.9694  125194712.69647  23823740.5534   97554309.32747
  23892602.101   125556478.977 7  23892594.769    97836176.331 7
  21101603.5634  110889740.23148  21101594.5574   86407592.65149
  25299954.977   132952178.447 5  25299946.579   103599072.667 6
  20444349.8934  107435839.26048  20444340.9434   83716227.16149
  22902622.8344  120354116.06847  22902615.2314   93782403.05147
  24566310.7204  129096848.66647  24566301.0094  100594906.95047
 13  6 30  2 31  0.0000000  0 11G04G01G07G23G32G17G20G31G13G10G02
  21491000.7164  112935990.26748  21490992.5454   88002034.94348
  24227444.409   127316145.684 7  24227439.816    99207353.698 8
  24318335.495   127793710.875 7  24318328.994    99579510.625 7
  20394883.4314  107175915.87248  20394872.0244   83513682.27049
  23839269.4774  125276278.89847  23839262.0564   97617867.40947
  23908185.761   125638371.476 7  23908178.485    97899988.604 7
  21112638.4214  110947728.67348  21112629.3834   86452778.41849
  25318367.303   133048935.745 5  25318358.954   103674467.889 6
  20436997.9194  107397204.56048  20436988.9894   83686122.20149
  22885757.7824  120265489.62147  22885750.1034   93713343.54547
  24546870.5164  128994688.89447  24546860.5934  100515301.88347
 13  6 30  2 31 30.0000000  0 11G04G01G07G23G32G17G20G31G13G10G02
  21480717.0414  112881949.31648  21480708.9244   87959925.10749
  24248922.258   127429012.480 7  24248917.763    99295301.799 8
  24297180.879   127682543.182 7  24297174.423    99492886.567 8
  20397906.8224  107191804.02349  20397895.4544   83526062.64649
  23854810.4874  125357947.51847  23854803.0754   97681505.22447
  23923809.549   125720475.038 6  23923802.261    97963965.293 7
  21123731.2554  111006021.84848  21123722.2324   86498201.65649
  25336825.407   133145934.298 5  25336817.197   103750051.121 6
  20429732.3424  107359023.69648  20429723.4014   83656370.89349
  22868918.7444  120176999.87647  22868910.9374   93644390.47547
  24527460.7394  128892689.76346  24527450.7894  100435822.10347
 13  6 30  2 32  0.0000000  0 11G04G01G07G23G32G17G20G31G13G10G02
  21470530.0784  112828416.46448  21470521.9624   87918211.20048
  24270418.820   127541977.800 7  24270414.469    99383326.654 8
  24276034.205   127571417.035 7  24276027.747    99406294.839 8
  20401005.8084  107208089.36749  20400994.4234   83538752.53149
  23870371.0494  125439719.13547  23870363.6824   97745223.30647
  23939473.183   125802788.048 7  23939465.901    98028105.282 7
  21134882.1174  111064620.02648  21134873.1354   86543862.55049
  25355329.085   133243172.221 5  25355321.000   103825820.914 6
  20422553.3734  107321297.95948  20422544.4334   83626974.22049
  22852106.0834  120088648.93647  22852098.2044   93575545.64447
  24508082.2314  128790854.26647  24508072.1214  100356469.76247
 13  6 30  2 32 30.0000000  0 11G04G01G07G23G32G17G20G31G13G10G02
  21460410.7394  112775239.03948  21460402.6504   87876774.24648
  24291904.342   127654884.918 7  24291900.067    99471306.211 8
  24254866.562   127460180.068 8  24254859.982    99319616.756 8
  20404150.8534  107224616.31648  20404139.4104   83551630.66849
  23885921.6674  125521438.62347  23885914.4034   97808900.78647
  23955146.704   125885152.710 6  23955139.426    98092285.493 7
  21146061.5504  111123368.34248  21146052.6114   86589640.44849
  25373848.525   133340492.036 5  25373840.324   103901654.512 6
  20415431.7094  107283873.42248  20415422.7524   83597812.25149
  22835290.6154  120000283.17947  22835282.6864   93506689.22247
  24488705.9064  128689030.55246  24488695.7154  100277126.62047
 13  6 30  2 33  0.0000000  0 11G04G01G07G23G32G17G20G31G13G10G02
  21450418.0184  112722726.62448  21450409.8774   87835855.51448
  24313436.881   127768038.860 7  24313432.610    99559478.063 7
  24233736.816   127349142.194 7  24233730.080    99233093.837 8
  20407400.1004  107241691.16248  20407388.6194   83564935.75749
  23901520.8744  125603413.01047  23901513.5664   97872776.87547
  23970887.868   125967873.145 6  23970880.636    98156742.868 7
  21157327.8894  111182573.41548  21157319.0034   86635774.25449
  25392441.351   133438198.496 4  25392433.202   103977789.239 6
  20408425.8404  107247057.21148  20408416.8634   83569124.30849
  22818531.0324  119912211.16147  22818523.1014   93438061.71247
  24469390.5264  128587528.23246  24469380.4874  100198033.92547
 13  6 30  2 33 30.0000000  0 11G04G01G07G23G32G17G20G31G13G10G02
  21440522.9354  112670727.49148  21440514.7204   87795336.68848
  24334986.790   127881284.147 7  24334982.500    99647721.137 7
  24212616.127   127238152.845 7  24212609.423    99146608.718 8
  20410724.2894  107259159.82748  20410712.7984   83578547.71449
  23917139.4714  125685488.60447  23917132.0184   97936731.82747
  23986667.030   126050792.828 7  23986659.832    98221355.475 7
  21168651.9464  111242081.86148  21168643.1334   86682144.48649
  25411078.199   133536135.670 4  25411070.140   104054104.009 5
  20401506.5474  107210696.07748  20401497.5584   83540790.97249
  22801798.4814  119824280.70548  22801790.4924   93369544.53748
  24450107.6834  128486196.46047  24450097.6904  100119074.15747
 13  6 30  2 34  0.0000000  0 10G04G01G07G23G32G17G20G13G10G02
  21430725.9564  112619243.82948  21430717.7124   87755219.57748
  24356553.668   127994618.732 6  24356549.369    99736033.734 7
  24191505.237   127127214.746 7  24191498.517    99060163.525 8
  20414123.0524  107277020.57148  20414111.5944   83592465.15649
  23932777.2104  125767665.10147  23932769.6924   98000765.42247
  24002483.484   126133908.543 7  24002476.431    98286120.931 7
  21180033.5714  111301892.89148  21180024.8024   86728750.45749
  20394673.8704  107174790.05548  20394664.8474   83512812.28949
  22785092.9604  119736493.09947  22785085.0824   93301138.61448
  24430858.0204  128385038.10947  24430847.8974  100040249.47347
 13  6 30  2 34 30.0000000  0 10G04G01G07G23G32G17G20G13G10G02
  21421027.4114  112568277.63048  21421019.1544   87715505.66748
  24378137.122   128108040.356 7  24378132.840    99824414.190 7
  24170404.619   127016330.498 7  24170397.867    98973760.325 8
  20417596.2914  107295272.69448  20417584.8924   83606687.60349
  23948434.1534  125849942.26547  23948426.5184   98064877.44647
  24018336.673   126217217.298 7  24018329.681    98351036.776 7
  21191472.7614  111362006.17648  21191464.0064   86775591.95849
  20387927.8884  107139339.49548  20387918.8194   83485188.49449
  22768414.8894  119648849.36847  22768407.0294   93232844.83747
  24411641.7264  128284055.24047  24411631.4964   99961561.58647
 13  6 30  2 35  0.0000000  0 10G04G01G07G23G32G17G20G13G10G02
  21411398.3874  112517676.76848  21411390.1024   87676076.43248
  24399707.411   128221392.806 6  24399703.091    99912740.762 7
  24149285.415   126905348.583 7  24149278.635    98887280.978 8
  20421114.4754  107313761.25148  20421103.1624   83621094.26849
  23964080.7224  125932165.54247  23964073.1014   98128947.52647
  24034196.743   126300562.031 7  24034189.738    98415980.685 7
  21202940.1204  111422267.05848  21202931.3104   86822548.46549
  20381239.2454  107104190.56148  20381230.1384   83457799.71449
  22751735.1624  119561196.81047  22751727.2544   93164544.13548
  24392430.0344  128183096.61947  24392419.7144   99882892.48947
 13  6 30  2 35 30.0000000  0 10G04G01G07G23G32G17G20G13G10G02
  21401897.9114  112467751.36548  21401889.6084   87637173.56048
  24421322.763   128334982.058 7  24421318.471   100001251.818 7
  24128206.787   126794579.770 8  24128199.898    98800967.697 8
  20424736.1214  107332793.31648  20424724.8464   83635924.46049
  23979775.6144  126014642.75647  23979768.0364   98193215.40947
  24050121.747   126384247.865 7  24050114.718    98481190.375 7
  21214494.1384  111482983.39448  21214485.2524   86869859.86349
  20374666.6024  107069651.40348  20374657.5334   83430886.12149
  22735112.6174  119473844.87347  22735104.7434   93096477.72948
  24373281.8954  128082472.65947  24373271.6374   99804484.25147
 13  6 30  2 36  0.0000000  0 10G04G01G07G23G32G17G20G13G10G02
  21392526.2744  112418503.27148  21392518.0214   87598798.41548
  24442982.761   128448805.928 7  24442978.454   100089945.702 7
  24107169.137   126684026.422 7  24107162.217    98714822.286 8
  20428461.0404  107352367.70948  20428449.7124   83651177.22549
  23995518.7724  126097373.48547  23995511.2634   98257680.85547
  24066110.959   126468271.494 7  24066103.956    98546663.259 7
  21226134.6794  111544154.47448  21226125.7564   86917525.59249
  20368210.0344  107035722.22248  20368200.9814   83404447.80649
  22718547.3924  119386794.46647  22718539.6174   93028646.24447
  24354197.8894  127982185.71847  24354187.6994   99726338.65347
 13  6 30  2 36 30.0000000  0 10G04G01G07G23G32G17G20G13G10G02
  21383225.1714  112369626.26848  21383217.0254   87560712.45248
  24464628.382   128562554.246 7  24464624.092   100178580.719 7
  24086114.426   126573383.423 7  24086107.451    98628607.038 8
  20432230.3884  107372175.39148  20432218.9734   83666611.78349
  24011251.4884  126180049.52947  24011244.0454   98322103.71847
  24082105.191   126552321.873 7  24082098.307    98612157.015 7
  21237803.0684  111605471.83448  21237794.1014   86965305.32749
  20361810.9214  107002095.09548  20361801.9124   83378244.87749
  22701981.2534  119299738.93947  22701973.3954   92960810.77547
  24335119.9854  127881930.59247  24335109.8324   99648217.85147
 13  6 30  2 37  0.0000000  0 10G04G01G07G23G32G17G20G13G10G02
  21374024.2924  112321275.69648  21374016.1744   87523036.69548
  24486288.442   128676378.255 7  24486284.107   100267274.734 7
  24065072.359   126462806.675 7  24065065.278    98542443.421 8
  20436073.0084  107392368.87148  20436061.6214   83682346.97049
  24027002.8744  126262823.80647  24026995.5564   98386603.08347
  24098133.180   126636549.337 7  24098126.352    98677788.741 7
  21249528.2994  111667088.33948  21249519.3114   87013318.16749
  20355498.4634  106968923.02948  20355489.4644   83352396.52149
  22685443.5594  119212833.08347  22685435.7124   92893091.97747
  24316077.7864  127781863.22446  24316067.7214   99570243.34047
 13  6 30  2 37 30.0000000  0 10G04G01G07G23G32G17G20G13G10G02
  21364894.5854  112273298.88648  21364886.5054   87485652.16349
  24507933.020   128790121.094 7  24507928.711   100355905.458 7
  24044014.122   126352144.517 7  24044006.841    98456213.267 8
  20439959.3974  107412792.35548  20439948.0624   83698261.35849
  24042743.4764  126345541.41447  24042736.2234   98451058.29947
  24114164.896   126720796.385 6  24114158.103    98743435.706 7
  21261280.8994  111728848.91948  21261271.9524   87061443.26649
  20349243.3204  106936052.15348  20349234.3024   83326782.86549
  22668905.1574  119125923.32347  22668897.2754   92825370.09048
  24297042.3314  127681831.35447  24297032.3264   99492296.45347
 13  6 30  2 38  0.0000000  0 10G04G01G07G23G32G17G20G13G10G02
  21355895.0724  112226006.00449  21355886.9454   87448800.59648
  24529620.495   128904089.109 7  24529616.156   100444711.669 7
  24022998.742   126241708.014 7  24022991.408    98370158.957 8
  20443948.0654  107433753.13848  20443936.7664   83714594.43649
  24058531.9434  126428510.36947  24058524.6974   98515709.39947
  24130258.340   126805368.195 6  24130251.636    98809335.784 7
  21273119.6094  111791061.57348  21273110.6434   87109920.66449
  20343104.1514  106903790.85748  20343095.1384   83301644.20249
  22652425.0604  119039319.20347  22652416.9904   92757886.39448
  24278072.8234  127582146.04247  24278062.8444   99414619.59547
 13  6 30  2 38 30.0000000  0 10G04G01G07G23G32G17G20G13G10G02
  21347026.4134  112179400.51349  21347018.1814   87412484.61649
  24551350.688   129018281.481 6  24551346.286   100533692.734 7
  24002026.924   126131500.991 7  24002019.637    98284283.435 7
  20448039.1004  107455251.54848  20448027.7734   83731346.42549
  24074368.4064  126511731.85546  24074361.2084   98580557.19947
  24146413.447   126890262.915 7  24146406.616    98875487.477 7
  21285044.5294  111853727.38848  21285035.5454   87158751.14449
  20337081.2874  106872140.42948  20337072.2674   83276981.55249
  22636003.5954  118953023.44647  22635995.4114   92690642.95848
  24259170.0334  127482811.08947  24259159.9744   99337215.81647
 13  6 30  2 39  0.0000000  0 10G04G01G07G23G32G17G20G13G10G02
  21338229.9544  112133174.99548  21338221.7814   87376464.76348
  24573064.241   129132387.033 6  24573059.886   100622606.109 7
  23981040.458   126021217.118 7  23981033.216    98198348.049 7
  20452173.3554  107476977.57748  20452162.0694   83748275.80149
  24090194.1254  126594896.32347  24090186.8654   98645360.55847
  24162570.626   126975168.402 7  24162563.625    98941647.541 7
  21296996.6904  111916536.41548  21296987.7334   87207693.23249
  20331115.8154  106840791.72248  20331106.7644   83252554.00249
  22619582.1934  118866728.45847  22619574.0324   92623400.15848
  24240275.7164  127383520.34547  24240265.4624   99259846.38747
 13  6 30  2 39 30.0000000  0 10G04G01G07G23G32G17G20G13G10G02
  21329535.4444  112087485.15948  21329527.2794   87340862.29548
  24594790.197   129246557.455 6  24594785.803   100711570.045 7
  23960069.182   125911012.693 7  23960061.935    98112474.598 7
  20456380.0754  107499083.97648  20456368.7604   83765501.56049
  24106038.2734  126678157.38347  24106030.9764   98710239.23047
  24178758.513   127060235.446 7  24178751.401    99007933.526 7
  21309005.2864  111979642.01348  21308996.3544   87256866.40349
  20325237.0474  106809898.34148  20325227.9234   83228481.25549
  22603190.4574  118780589.11447  22603182.2344   92556278.60848
  24221419.3054  127284429.85846  24221409.0894   99182633.06547
 13  6 30  2 40  0.0000000  0 10G04G01G07G23G32G17G20G13G10G02
  21320943.2174  112042332.51749  21320934.9844   87305678.40848
  24616528.035   129360790.376 6  24616523.545   100800582.711 6
  23939113.490   125800890.415 7  23939106.231    98026665.115 7
  20460658.8434  107521569.11748  20460647.5394   83783022.44649
  24121900.5844  126761514.44946  24121893.3424   98775192.71747
  24194976.384   127145460.870 6  24194969.375    99074342.921 7
  21321070.2464  112043043.93248  21321061.3304   87306270.46149
  20319445.0264  106779460.81348  20319435.8574   83204763.71249
  22586828.5794  118694606.61848  22586820.3234   92489279.32048
  24202601.4164  127185541.80947  24202591.3074   99105577.45647
 13  6 30  2 40 30.0000000  0 10G04G01G07G23G32G17G20G13G10G02
  21312453.5404  111997719.02749  21312445.3254   87270914.67249
  24638277.393   129475083.584 6  24638272.785   100889642.339 7
  23918173.866   125690852.573 7  23918166.640    97940921.429 8
  20465009.6034  107544432.32948  20464998.2454   83800837.92049
  24137781.1454  126844967.23847  24137773.9354   98840220.78047
  24211223.787   127230841.550 6  24211216.874    99140873.276 7
  21333191.4084  112106741.19648  21333182.5334   87355904.69849
  20313739.5974  106749478.83148  20313730.4784   83181401.14249
  22570496.7284  118608782.03747  22570488.4314   92422403.01548
  24183822.7204  127086859.28347  24183812.6324   99028682.04547
 13  6 30  2 41  0.0000000  0 10G04G01G07G23G32G17G20G13G10G02
  21304037.4894  111953492.56549  21304029.3124   87236452.50748
  24660008.557   129589281.185 6  24660003.886   100978627.442 7
  23897221.741   125580748.599 7  23897214.440    97855126.233 8
  20469402.7994  107567518.60648  20469391.4034   83818827.23149
  24153650.5814  126928361.55947  24153643.4554   98905203.31147
  24227470.788   127316220.432 6  24227463.989    99207402.183 7
  21345339.5104  112170579.71549  21345330.5964   87405648.98749
  20308091.5934  106719798.30648  20308082.4504   83158273.47249
  22554165.7584  118522962.95947  22554157.5634   92355531.02947
  24165054.1414  126988230.67246  24165044.2624   98951828.64847
 13  6 30  2 41 30.0000000  0 10G04G01G07G23G32G17G20G13G10G02
  21295754.0984  111909963.24248  21295745.9574   87202533.55448
  24681779.758   129703689.367 6  24681775.017   101067776.645 6
  23876316.146   125470889.145 7  23876308.746    97769521.539 8
  20473896.8584  107591134.98048  20473885.4494   83837229.59949
  24169567.5164  127012005.36847  24169560.4664   98970380.24747
  24243775.634   127401902.975 6  24243768.843    99274167.771 7
  21357572.9924  112234867.15948  21357564.0834   87455743.06949
  20302559.6784  106690728.02148  20302550.5204   83135621.33149
  22537894.8494  118437459.06747  22537886.6354   92288904.61047
  24146355.1014  126889967.24347  24146345.3284   98875259.69947
 13  6 30  2 42  0.0000000  0 10G04G01G07G23G32G17G20G13G10G02
  21287574.1424  111866977.34449  21287566.0274   87169038.04548
  24703561.005   129818150.529 6  24703556.323   101156967.202 7
  23855427.981   125361121.285 8  23855420.531    97683988.229 8
  20478462.0034  107615125.22948  20478450.6254   83855923.29449
  24185502.2894  127095742.97847  24185495.2734   99035630.24247
  24260108.206   127487730.654 6  24260101.347    99341046.457 7
  21369862.3244  112299447.72349  21369853.3674   87506065.57149
  20297114.2864  106662112.29548  20297105.1114   83113323.35549
  22521654.5524  118352116.04247  22521646.3354   92222403.60848
  24127696.4794  126791915.70947  24127686.6554   98798855.92847
 13  6 30  2 42 30.0000000  0 10G04G01G07G23G32G17G20G13G10G02
  21279498.1174  111824537.48248  21279489.9744   87135968.01949
  24725352.076   129932663.322 6  24725347.410   101246197.937 7
  23834558.061   125251449.053 8  23834550.516    97598529.441 8
  20483098.2064  107639489.08048  20483086.8814   83874908.11349
  24201455.0554  127179574.83247  24201448.0064   99100953.70547
  24276467.846   127573701.270 6  24276461.050    99408036.519 7
  21382207.4504  112364321.41948  21382198.4584   87556616.46649
  20291755.5084  106633951.91248  20291746.2964   83091380.21649
  22505445.3884  118266936.24947  22505437.1054   92156029.77048
  24109078.9884  126694079.57247  24109069.0134   98722619.98547
 13  6 30  2 43  0.0000000  0 10G04G01G07G23G32G17G20G13G10G02
  21271497.0724  111782491.70849  21271488.9324   87103205.09149
  24747123.271   130047071.971 6  24747118.653   101335347.474 7
  23813677.538   125141721.349 8  23813669.969    97513027.403 8
  20487776.0684  107664071.66148  20487764.7924   83894063.37549
  24217396.4164  127263347.06246  24217389.4384   99166230.70547
  24292824.830   127659658.111 6  24292818.126    99475015.821 7
  21394579.0074  112429334.45348  21394570.0424   87607275.97549
  20286454.1974  106606093.39948  20286444.9864   83069672.29849
  22489238.2704  118181767.27047  22489229.9534   92089664.31847
  24090473.7084  126596307.97947  24090463.6474   98646434.30947
 13  6 30  2 43 30.0000000  0 10G04G01G07G23G32G17G20G13G10G02
  21263629.8564  111741149.14748  21263621.7244   87070990.12749
  24768932.768   130161681.838 6  24768928.241   101424653.842 6
  23792845.445   125032248.151 8  23792837.829    97427723.711 8
  20492553.8464  107689179.30448  20492542.6164   83913627.76549
  24233384.8294  127347366.80046  24233377.9584   99231700.52247
  24309237.203   127745905.403 6  24309230.467    99542221.429 7
  21407035.5264  112494793.90449  21407026.6184   87658283.32049
  20281268.7514  106578843.82148  20281259.5164   83048438.85549
  22473091.9294  118096917.86347  22473083.6024   92023547.96048
  24071939.7184  126498910.95547  24071929.5524   98570540.53947
 13  6 30  2 44  0.0000000  0 10G04G01G07G23G32G17G20G13G10G02
  21255896.8304  111700511.81948  21255888.6814   87039324.66948
  24790780.200   130276491.058 6  24790775.715   101514115.534 7
  23772062.350   124923032.435 8  23772054.737    97342620.610 8
  20497431.4024  107714811.22048  20497420.2024   83933600.66349
  24249420.4264  127431633.80747  24249413.5514   99297363.09347
  24325704.326   127832440.342 7  24325697.542    99609651.221 7
  21419576.9574  112560699.31948  21419568.0494   87709638.19649
  20276199.3064  106552203.83148  20276190.0744   83027680.46249
  22457006.7964  118012389.67048  22456998.3944   91957681.84648
  24053477.4314  126401891.23047  24053467.2814   98494940.81147
 13  6 30  2 44 30.0000000  0 10G04G01G07G23G32G17G20G13G10G02
  21248239.4794  111660272.29348  21248231.3414   87007969.20648
  24812606.401   130391188.330 6  24812601.947   101603489.991 7
  23751269.966   124813767.781 8  23751262.327    97257479.417 8
  20502349.7414  107740657.26748  20502338.5094   83953740.43649
  24265444.2434  127515838.90647  24265437.3174   99362977.36347
  24342166.930   127918950.975 7  24342159.947    99677062.082 7
  21432144.2974  112626741.00949  21432135.3754   87761099.23149
  20271186.9864  106525864.10348  20271177.7814   83007156.02349
  22440924.2754  117927875.01147  22440915.7704   91891826.31748
  24035028.7504  126304942.57147  24035018.5074   98419396.35547
 13  6 30  2 45  0.0000000  0 10G04G01G07G23G32G17G20G13G10G02
  21240687.5664  111620586.65949  21240679.3814   86977045.31749
  24834440.305   130505926.143 7  24834435.883   101692895.995 7
  23730498.091   124704611.470 8  23730490.531    97172422.638 8
  20507337.9864  107766870.85648  20507326.7884   83974166.60649
  24281485.6414  127600136.14947  24281478.5854   99428663.42447
  24358653.587   128005588.627 7  24358646.540    99744571.987 7
  21444766.9144  112693073.00048  21444757.9614   87812786.48949
  20266261.1014  106499978.71448  20266251.9454   82986985.61049
  22424873.7514  117843529.50447  22424865.3724   91826102.55848
  24016623.4444  126208221.59347  24016613.0824   98344029.40447
 13  6 30  2 45 30.0000000  0 10G04G01G07G23G32G17G20G13G10G02
  21233211.8914  111581301.47348  21233203.6594   86946433.48449
  24856252.059   130620547.248 6  24856247.580   101782211.061 7
  23709717.818   124595411.207 8  23709710.335    97087331.584 8
  20512366.5344  107793295.99248  20512355.3094   83994757.62149
  24297514.9694  127684370.15047  24297507.8514   99494300.21447
  24375134.232   128092195.066 6  24375127.287    99812057.450 7
  21457415.1614  112759539.67048  21457406.2044   87864578.67849
  20261392.2764  106474392.67748  20261383.0854   82967048.44049
  22408826.1884  117759199.61447  22408817.9354   91760390.98348
  23998232.5284  126111576.30847  23998222.0304   98268721.36947
 13  6 30  2 46  0.0000000  0 10G04G01G07G23G32G17G20G13G10G02
  21225871.6474  111542728.10449  21225863.3254   86916376.29449
  24878100.226   130735359.389 7  24878095.702   101871675.033 7
  23688988.678   124486479.345 8  23688981.218    97002449.687 8
  20517494.0864  107820241.27448  20517482.8224   84015753.92949
  24313591.1324  127768850.51546  24313584.0244   99560129.01647
  24391667.301   128179077.616 6  24391660.542    99879758.056 7
  21470147.8854  112826450.34048  21470138.8884   87916716.82849
  20256639.3364  106449415.80948  20256630.1314   82947585.95149
  22392840.8114  117675196.39147  22392832.6814   91694933.97648
  23979915.4204  126015319.06547  23979904.8154   98193715.74847
 13  6 30  2 46 30.0000000  0 10G04G01G07G23G32G17G20G13G10G02
  21218667.0584  111504867.36049  21218658.6814   86886874.42049
  24899984.122   130850359.413 7  24899979.564   101961285.412 7
  23668310.925   124377817.643 7  23668303.484    96917778.323 8
  20522720.1764  107847704.31049  20522708.8804   84037153.70149
  24329713.8764  127853575.85846  24329706.7984   99626148.64447
  24408252.228   128266231.745 7  24408245.497    99947670.359 7
  21482964.7374  112893803.41348  21482955.7894   87969199.70749
  20252002.0714  106425046.88148  20251992.8804   82928597.18549
  22376917.7494  117591520.26047  22376909.6144   91629731.80748
  23961672.3094  125919451.49347  23961661.7204   98119013.69747
 13  6 30  2 47  0.0000000  0 10G04G01G07G23G32G17G20G13G10G02
  21211539.6964  111467412.81948  21211531.3014   86857689.05149
  24921844.835   130965237.424 7  24921840.184   102050800.750 7
  23647626.507   124269120.854 7  23647619.113    96833079.596 8
  20527985.9874  107875376.27249  20527974.6454   84058716.25249
  24345824.5964  127938238.01547  24345817.6184   99692119.06947
  24424829.790   128353346.795 6  24424823.037   100015552.179 7
  21495807.0374  112961290.59248  21495798.1724   88021787.11849
  20247421.9134  106400978.04848  20247412.7224   82909842.26449
  22360998.5424  117507864.57348  22360990.4564   91564545.57648
  23943445.2964  125823668.51847  23943434.8274   98044377.61747
 13  6 30  2 47 30.0000000  0 10G04G01G07G23G32G17G20G13G10G02
  21204519.4404  111430521.12449  21204511.0614   86828942.28049
  24943711.407   131080146.224 7  24943706.577   102140340.035 7
  23626965.479   124160546.731 7  23626958.074    96748476.470 8
  20533320.8644  107903410.99348  20533309.4764   84080561.49249
  24361952.7314  128022991.62246  24361945.8084   99758160.68647
  24441428.788   128440574.372 6  24441421.897   100083521.674 7
  21508704.2304  113029066.17548  21508695.4354   88074599.25448
  20242928.3534  106377364.29748  20242919.1574   82891441.93049
  22345113.0904  117424385.89848  22345104.9674   91499497.28148
  23925264.5044  125728127.56547  23925253.9824   97969930.09747
 13  6 30  2 48  0.0000000  0 10G04G01G07G23G32G17G20G13G10G02
  21197606.2594  111394192.11548  21197597.8984   86800633.97049
  24965582.982   131195081.877 7  24965578.089   102229900.282 7
  23606327.852   124052096.207 7  23606320.541    96663969.661 8
  20538724.2214  107931805.57549  20538712.7824   84102687.12749
  24378097.8154  128107834.54847  24378090.9914   99824272.01447
  24458048.317   128527909.897 6  24458041.252   100151575.214 7
  21521655.8824  113097127.87748  21521647.1874   88127634.32749
  20238520.9954  106354203.40848  20238511.7594   82873394.49749
  22329261.2234  117341083.71447  22329253.0634   91434586.51048
  23907129.8024  125632829.37447  23907119.3544   97895671.82847
 13  6 30  2 48 30.0000000  0 10G04G01G07G23G32G17G20G13G10G02
  21190799.9744  111358425.16048  21190791.6854   86772763.60549
  24987458.843   131310040.367 6  24987453.965   102319478.336 7
  23585713.852   123943769.967 7  23585706.669    96579559.673 8
  20544195.5104  107960557.14148  20544184.0524   84125090.93949
  24394259.5194  128192764.62846  24394252.7614   99890451.19847
  24474687.298   128615348.398 6  24474680.266   100219709.070 7
  21534661.5734  113165473.43448  21534652.9184   88180890.55948
  20234199.3644  106331493.14847  20234190.1444   82855698.20649
  22313442.7734  117257957.44848  22313434.6044   91369812.81548
  23889041.3504  125537774.85747  23889031.1274   97821603.37547
 13  6 30  2 49  0.0000000  0 10G04G01G07G23G32G17G20G13G10G02
  21184101.2554  111323223.21449  21184092.9944   86745333.52349
  25009338.897   131425020.888 6  25009334.058   102409073.536 7
  23565124.258   123835572.112 7  23565117.214    96495249.737 8
  20549734.7884  107989665.80349  20549723.2584   84147772.99849
  24410438.0394  128277782.69847  24410431.2404   99956698.92647
  24491345.600   128702888.049 6  24491338.537   100287921.719 7
  21547721.3984  113234103.46348  21547712.8304   88234368.46348
  20229963.7284  106309234.98348  20229954.5294   82838354.19649
  22297658.3714  117175009.85548  22297650.1554   91305178.32048
  23871000.1744  125442967.64947  23870989.8904   97747727.64847
 13  6 30  2 49 30.0000000  0 10G04G01G07G23G32G17G20G13G10G02
  21177510.4684  111288588.52048  21177502.2474   86718345.45249
  25031222.915   131540022.116 6  25031218.125   102498684.819 7
  23544559.823   123727506.273 7  23544552.870    96411042.684 8
  20555341.9024  108019131.07548  20555330.3114   84170732.94449
  24426633.4204  128362889.31546  24426626.5694  100023015.65247
  24508022.772   128790526.869 6  24508015.727   100356211.648 7
  21560835.4374  113303018.20548  21560826.9154   88288068.26448
  20225814.2584  106287429.43348  20225805.0804   82821362.89649
  22281908.3384  117092242.99848  22281900.1294   91240684.72148
  23853006.9024  125348411.36547  23852996.3994   97674047.43547
 13  6 30  2 50  0.0000000  0 10G04G01G07G23G32G17G20G13G10G02
  21170998.9264  111254370.20148  21170990.7494   86691681.83249
  25053081.511   131654889.690 6  25053076.748   102588192.039 7
  23523992.192   123619422.896 7  23523985.212    96326821.940 8
  20560987.6204  108048799.52649  20560976.0464   84193851.22149
  24442816.5854  128447932.04446  24442809.7514  100089282.63947
  24524689.224   128878109.352 6  24524682.200   100424457.697 7
  21573974.5764  113372064.78248  21573966.0634   88341870.75448
  20221721.7394  106265923.34948  20221712.6274   82804604.92149
  22266164.1024  117009506.35448  22266155.8844   91176214.61048
  23835032.7844  125253956.54847  23835022.2514   97600446.30447
 13  6 30  2 50 30.0000000  0 10G04G01G07G23G32G17G20G13G10G02
  21164625.1704  111220876.07448  21164617.0124   86665582.50548
  25074972.549   131769927.805 6  25074967.814   102677832.106 7
  23503479.946   123511630.689 7  23503472.927    96242828.062 8
  20566730.1394  108078976.41549  20566718.5144   84217365.66849
  24459045.7344  128533216.60846  24459038.9554  100155738.08147
  24541402.645   128965938.847 6  24541395.655   100492896.186 7
  21587196.9944  113441548.93248  21587188.4644   88396014.21248
  20217744.6494  106245023.79048  20217735.5714   82788319.54549
  22250484.0184  116927107.01848  22250475.8004   91112007.34948
  23817136.6744  125159911.91947  23817126.1624   97527164.81447
 13  6 30  2 51  0.0000000  0 10G04G01G07G23G32G17G20G13G10G02
  21158360.1874  111187953.42549  21158352.0424   86639928.50149
  25096866.250   131884980.046 6  25096861.590   102767483.212 7
  23482994.370   123403978.262 8  23482987.248    96158943.131 8
  20572539.8734  108109506.83649  20572528.2734   84241155.60049
  24475291.5674  128618588.53847  24475284.7624  100222261.50747
  24558133.063   129053857.913 6  24558126.101   100561404.440 7
  21600473.1794  113511315.81748  21600464.6454   88450378.01848
  20213853.5304  106224575.94648  20213844.4774   82772386.16349
  22234839.0744  116844892.59948  22234830.9174   91047944.16948
  23799289.9094  125066126.09747  23799279.3314   97454084.96247
 13  6 30  2 51 30.0000000  0 10G04G01G07G23G32G17G20G13G10G02
  21152204.7234  111155606.11948  21152196.5034   86614722.78449
  25118762.733   132000046.966 6  25118758.200   102857145.792 7
  23462536.454   123296471.000 8  23462529.188    96075171.295 8
  20578417.0324  108140391.57948  20578405.4604   84265221.63449
  24491554.5284  128704050.16147  24491547.6794  100288854.87347
  24574880.591   129141866.390 6  24574873.597   100629982.324 7
  21613803.5364  113581367.69248  21613795.0904   88504963.89648
  20210048.9234  106204582.41148  20210039.8234   82756806.80549
  22219230.1134  116762867.20148  22219221.9604   90984028.28448
  23781493.3734  124972604.04347  23781482.6924   97381210.63447
 13  6 30  2 52  0.0000000  0 10G04G01G07G23G32G17G20G13G10G02
  21146158.7494  111123834.18949  21146150.4784   86589965.44948
  25140661.379   132115125.002 6  25140656.856   102946816.941 7
  23442106.339   123189110.210 8  23442098.982    95991513.579 8
  20584361.1254  108171627.99749  20584349.5654   84289561.68949
  24507834.1434  128789599.61847  24507827.2964  100355516.68347
  24591644.105   129229959.751 6  24591637.237   100698626.440 7
  21627187.6604  113651702.17548  21627179.3534   88559769.96648
  20206330.4104  106185041.24448  20206321.2494   82741579.92749
  22203656.9924  116681030.27548  22203648.9124   90920259.25848
  23763747.2734  124879347.22347  23763736.5314   97308543.01147
 13  6 30  2 52 30.0000000  0 10G04G01G07G23G32G17G20G13G10G02
  21140192.8674  111092483.20548  21140184.5574   86565536.12749
  25162532.174   132230056.430 5  25162527.609   103036373.894 7
  23421675.037   123081742.803 8  23421667.516    95907850.638 8
  20590342.3614  108203059.66848  20590330.8274   84314053.89549
  24524100.7404  128875081.03446  24524093.9894  100422125.44347
  24608393.627   129317979.337 6  24608386.910   100767213.051 7
  21640595.9284  113722163.16148  21640587.6394   88614674.59348
  20202668.2274  106165796.40648  20202659.0864   82726583.98149
  22188090.5924  116599227.91448  22188082.4004   90856517.18148
  23746022.4534  124786202.48047  23746011.6424   97235962.67747
 13  6 30  2 53  0.0000000  0 10G04G01G07G23G32G17G20G13G10G02
  21134365.9414  111061862.37548  21134357.5774   86541675.74249
  25184433.110   132345146.750 5  25184428.573   103126054.618 6
  23401301.576   122974679.230 8  23401293.859    95824424.545 8
  20596419.0364  108234993.06048  20596407.5774   84338937.04449
  24540412.8294  128960801.57946  24540406.2044  100488920.54947
  24625187.076   129406229.628 6  24625180.485   100835979.373 7
  21654086.7184  113793057.61548  21654078.4414   88669916.98549
  20199120.9544  106147155.54648  20199111.8194   82712058.64349
  22172589.5884  116517769.27648  22172581.3244   90793042.92648
  23728377.9274  124693479.99347  23728367.1754   97163711.41248
 13  6 30  2 53 30.0000000  0 10G04G01G07G23G32G17G20G13G10G02
  21128678.5184  111031974.70149  21128670.1094   86518386.63549
  25206364.232   132460395.700 6  25206359.704   103215858.932 7
  23380986.782   122867923.889 8  23380978.887    95741238.631 8
  20602591.3314  108267428.56648  20602579.8634   84364211.45949
  24556770.6934  129046762.73747  24556764.2454  100555903.18147
  24642024.266   129494709.534 6  24642017.719   100904924.655 7
  21667660.2654  113864387.14948  21667652.0154   88725498.37948
  20195688.9344  106129120.16148  20195679.7684   82698005.09349
  22157154.6304  116436657.58848  22157146.2624   90729839.05348
  23710814.5754  124601184.20647  23710803.9184   97091792.68547
 13  6 30  2 54  0.0000000  0 10G04G01G07G23G32G17G20G13G10G02
  21123072.0624  111002512.64249  21123063.6524   86495429.19349
  25228266.450   132575492.506 6  25228261.884   103305544.697 7
  23360672.333   122761170.742 8  23360664.359    95658054.411 8
  20608800.2984  108300056.71849  20608788.8334   84389635.96549
  24573115.6674  129132655.59046  24573109.1274  100622832.49347
  24658845.910   129583107.433 6  24658839.341   100973806.009 7
  21681257.7234  113935842.21048  21681249.4834   88781177.61148
  20192313.2714  106111381.05848  20192304.1324   82684182.42849
  22141727.1054  116355585.45748  22141718.7604   90666665.95148
  23693274.3854  124509009.44847  23693263.6554   97019968.17548
 13  6 30  2 54 30.0000000  0 10G04G01G07G23G32G17G20G13G10G02
  21117546.7134  110973476.61348  21117538.2634   86472803.71049
  25250139.020   132690433.762 6  25250134.451   103395109.268 7
  23340358.552   122654421.414 8  23340350.542    95574873.161 8
  20615045.4144  108332874.83548  20615033.9124   84415208.52249
  24589447.4494  129218478.56247  24589440.8104  100689707.43947
  24675651.067   129671418.690 6  24675644.519   101042619.844 7
  21694878.7704  114007420.79748  21694870.4514   88836953.13449
  20188993.7334  106093936.64248  20188984.5554   82670589.37649
  22126307.1564  116274553.01748  22126298.7994   90603523.78948
  23675757.3334  124416956.84547  23675746.6404   96948238.86748
 13  6 30  2 55  0.0000000  0 10G04G01G07G23G32G17G20G13G10G02
  21112161.3694  110945176.68648  21112152.9484   86450751.81049
  25272040.494   132805526.845 6  25272035.933   103484792.175 6
  23320104.799   122547987.914 8  23320096.860    95491938.031 8
  20621385.3094  108366191.08548  20621373.8144   84441169.23649
  24605824.6674  129304540.73246  24605818.0014  100756768.67647
  24692498.183   129759949.945 6  24692491.584   101111605.194 7
  21708582.0544  114079431.66448  21708573.6724   88893065.47148
  20185789.1314  106077096.09548  20185779.8864   82657466.85549
  22110953.8534  116193871.05648  22110945.5144   90540654.71448
  23658322.9094  124325338.32847  23658312.2614   96876847.87348
 13  6 30  2 55 30.0000000  0 10G04G01G07G23G32G17G20G13G10G02
  21106915.9784  110917612.22249  21106907.6064   86429273.01049
  25293969.916   132920767.174 6  25293965.453   103574589.830 6
  23299911.257   122441870.380 8  23299903.315    95409249.091 8
  20627819.3184  108400001.96849  20627807.8424   84467515.37849
  24622246.7474  129390839.03646  24622240.1234  100824013.95747
  24709386.128   129848696.135 6  24709379.493   101180757.921 7
  21722366.9934  114151871.88548  21722358.5674   88949512.37448
  20182698.8134  106060856.42648  20182689.5694   82644812.58549
  22095667.1394  116113538.64048  22095658.7234   90478058.04748
  23640971.0344  124234154.29547  23640960.4974   96805795.36348
 13  6 30  2 56  0.0000000  0 10G04G01G07G23G32G17G20G13G10G02
  21101752.4204  110890477.66448  21101744.0704   86408129.19549
  25315868.660   133035846.227 5  25315864.387   103664261.866 6
  23279719.976   122335765.110 8  23279712.086    95326569.760 8
  20634288.9444  108433999.76848  20634277.4344   84494007.15249
  24638655.3794  129477066.72647  24638648.7934  100891204.28147
  24726255.916   129937347.342 6  24726249.375   101249836.707 7
  21736175.2214  114224434.23948  21736166.7184   89006054.44748
  20179664.5554  106044910.91848  20179655.2564   82632387.51949
  22080388.7894  116033250.74748  22080380.4594   90415496.04948
  23623643.9114  124143100.52247  23623633.5344   96734844.40847
 13  6 30  2 56 30.0000000  0 10G04G01G07G23G32G17G20G13G10G02
  21096700.5484  110863929.64748  21096692.1514   86387442.43049
  25337765.900   133150917.437 5  25337761.760   103753927.699 6
  23259561.152   122229830.462 8  23259553.361    95244023.336 8
  20640823.4694  108468338.86548  20640811.9864   84520764.86349
  24655080.1444  129563379.07247  24655073.5804  100958460.53647
  24743136.754   130026056.123 6  24743130.144   101318960.322 6
  21750036.2344  114297273.78748  21750027.6314   89062812.50448
  20176715.7454  106029414.75748  20176706.4054   82620312.59249
  22065148.8944  115953164.49448  22065140.5624   90353091.21648
  23606371.8344  124052335.58447  23606361.5184   96664118.51647
 13  6 30  2 57  0.0000000  0 10G04G01G07G23G32G17G20G13G10G02
  21091760.3474  110837968.52948  21091751.8974   86367212.98049
  25359661.153   133265977.578 5  25359657.041   103843584.966 6
  23239435.060   122124067.948 8  23239427.403    95161611.031 8
  20647422.4594  108503016.91748  20647411.0164   84547786.72549
  24671520.7644  129649774.67847  24671514.1674  101025781.61647
  24760027.751   130114818.782 6  24760021.173   101388125.887 6
  21763949.5524  114370388.76948  21763940.9534   89119785.17049
  20173852.1804  106014366.61747  20173842.8424   82608586.78149
  22049947.3684  115873280.12648  22049939.0504   90290843.63048
  23589155.0024  123961861.02247  23589144.7654   96593618.85447
 13  6 30  2 57 30.0000000  0  9G04G07G23G32G17G20G13G10G02
  21086931.8344  110812594.33748  21086923.3204   86347440.88949
  23219342.162   122018479.494 8  23219334.562    95079334.394 8
  20654085.5794  108538031.97848  20654074.1884   84575071.17549
  24687976.9684  129736252.36646  24687970.4254  101093166.68047
  24776928.255   130203631.096 6  24776921.594   101457330.287 6
  21777915.0384  114443777.83048  21777906.4724   89176971.44748
  20171073.6444  105999765.31247  20171064.2804   82597209.15749
  22034784.3054  115793598.06448  22034776.0354   90228753.74548
  23571993.8034  123871678.62447  23571983.6074   96523346.84447
 13  6 30  2 58  0.0000000  0  9G04G07G23G32G17G20G13G10G02
  21082185.8354  110787653.94348  21082177.3714   86328006.83349
  23199253.495   121912912.897 8  23199245.910    94997074.782 8
  20660783.1994  108573228.33348  20660771.8574   84602496.88749
  24704419.3464  129822657.26846  24704412.8374  101160494.98447
  24793808.284   130292335.808 6  24793801.621   101526450.799 6
  21791903.1814  114517285.64548  21791894.5524   89234250.23548
  20168350.6094  105985455.48347  20168341.1764   82586058.62749
  22019630.7284  115713965.41848  22019622.4484   90166702.33748
  23554859.3584  123781636.63247  23554849.1404   96453184.25447
 13  6 30  2 58 30.0000000  0  9G04G07G23G32G17G20G13G10G02
  21077581.1654  110763456.23748  21077572.7154   86309151.47348
  23179228.122   121807678.854 8  23179220.515    94915074.326 8
  20667573.7134  108608912.78848  20667562.3924   84630302.92849
  24720906.3664  129909296.76747  24720899.8804  101228006.10847
  24810725.868   130381237.560 5  24810719.198   101595724.759 6
  21805972.3584  114591219.35648  21805963.6634   89291860.89448
  20165741.5744  105971745.15947  20165732.2064   82575375.27049
  22004545.4664  115634691.39248  22004537.0874   90104930.36748
  23537810.6434  123692045.03047  23537800.3534   96383372.63347
 13  6 30  2 59  0.0000000  0  9G04G07G23G32G17G20G13G10G02
  21073088.7404  110739848.44748  21073080.2544   86290755.78448
  23159237.335   121702626.556 8  23159229.663    94833215.441 8
  20674427.5884  108644930.33048  20674416.3344   84658368.55249
  24737408.7354  129996016.98846  24737402.2714  101295580.13947
  24827651.130   130470179.912 5  24827644.529   101665030.350 6
  21820093.2124  114665424.75748  21820084.4864   89349683.24048
  20163217.3504  105958480.21048  20163207.9574   82565038.95449
  21989499.4454  115555623.96048  21989491.0744   90043319.39748
  23520818.9654  123602753.10147  23520808.6174   96313794.49947
 13  6 30  2 59 30.0000000  0  9G04G07G23G32G17G20G13G10G02
  21068708.9174  110716832.82548  21068700.5124   86272821.53749
  23139281.741   121597759.514 7  23139274.065    94751500.916 8
  20681344.7714  108681280.68248  20681333.6174   84686693.48149
  24753926.6044  130082818.35546  24753920.1274  101363217.43747
  24844583.773   130559160.803 5  24844577.169   101734365.931 6
  21834265.8124  114739902.27148  21834257.1214   89407717.62448
  20160777.8964  105945660.85448  20160768.4994   82555049.84449
  21974493.1954  115476765.39248  21974484.7854   89981871.15348
  23503885.0484  123513764.45347  23503874.6084   96244452.69047
 13  6 30  3  0  0.0000000  0  9G04G07G23G32G17G20G13G10G02
  21064442.0384  110694410.28448  21064433.6624   86255349.43449
  23119361.932   121493080.588 8  23119354.318    94669933.006 8
  20688325.1624  108717962.69948  20688313.9984   84715276.84949
  24770459.9564  130169700.76446  24770453.4274  101430917.84847
  24861523.311   130648177.427 5  24861516.636   101803729.467 6
  21848490.0044  114814651.03148  21848481.3564   89465963.36248
  20158423.2074  105933286.88148  20158413.8094   82545407.78249
  21959526.9314  115398117.20748  21959518.5354   89920586.86048
  23487009.4054  123425081.72547  23486998.8674   96175349.28848
 13  6 30  3  0 30.0000000  0  9G04G07G23G32G17G20G13G10G02
  21060258.8374  110672427.35448  21060250.4534   86238219.89248
  23099448.948   121388437.840 8  23099441.434    94588393.260 8
  20695338.9064  108754820.60948  20695327.8224   84743997.28749
  24786979.0854  130256508.87346  24786972.5774  101498560.38047
  24878439.440   130737072.097 5  24878432.844   101872998.008 6
  21862736.3424  114889515.85649  21862727.6564   89524299.58248
  20156123.7734  105921203.08448  20156114.3554   82535991.83949
  21944571.5684  115319526.36848  21944563.1534   89859347.25848
  23470163.0294  123336552.98247  23470152.3784   96106365.85848
 13  6 30  3  1  0.0000000  0  9G04G07G23G32G17G20G13G10G02
  21056217.7204  110651191.45448  21056209.4404   86221672.43549
  23079601.604   121284140.280 8  23079594.250    94507122.488 8
  20702444.3584  108792159.95048  20702433.2594   84773092.86249
  24803542.3204  130343549.32347  24803535.9344  101566383.93547
  24895390.310   130826148.332 5  24895383.556   101942407.967 6
  21877063.0334  114964802.81248  21877054.2914   89582964.69348
  20153937.8284  105909715.86848  20153928.4094   82527040.75749
  21929685.6464  115241301.01248  21929677.3214   89798392.45248
  23453404.8614  123248487.59248  23453394.0484   96037743.48648
 13  6 30  3  1 30.0000000  0  9G04G07G23G32G17G20G13G10G02
  21052319.2414  110630705.05948  21052311.0194   86205708.98849
  23059820.845   121180192.375 8  23059813.562    94426124.189 8
  20709641.4844  108829980.85448  20709630.3624   84802563.67049
  24820150.0794  130430822.99947  24820143.6044  101634389.25347
  24912375.376   130915405.022 5  24912368.631   102011958.572 6
  21891470.2004  115040512.67148  21891461.4354   89641959.35048
  20151865.5534  105898825.92848  20151856.1424   82518555.10849
  21914869.8804  115163444.07248  21914861.5824   89737724.73148
  23436735.5934  123160889.37247  23436724.6744   95969485.18548
 13  6 30  3  2  0.0000000  0  9G04G07G23G32G17G20G13G10G02
  21048505.0584  110610661.63848  21048496.9144   86190090.74249
  23040048.692   121076289.324 8  23040041.406    94345160.826 8
  20716871.5144  108867974.66848  20716860.3524   84832169.21049
  24836743.6014  130518022.11246  24836737.1904  101702336.46347
  24929335.594   131004531.755 5  24929329.013   102081408.001 5
  21905899.1594  115116337.11748  21905890.3884   89701043.31348
  20149848.3134  105888225.13348  20149838.8794   82510294.75349
  21900066.0584  115085649.46248  21900057.7154   89677105.55748
  23420097.1264  123073453.38947  23420086.1424   95901353.24248
 13  6 30  3  2 30.0000000  0  9G04G07G23G32G17G20G13G10G02
  21044775.3314  110591061.72848  21044767.2214   86174818.08549
  23020285.432   120972433.069 8  23020278.140    94264233.931 8
  20724134.0784  108906139.82148  20724122.9544   84861908.28749
  24853322.8124  130605145.88946  24853316.4304  101770224.93147
  24946270.377   131093524.827 5
  21920349.6944  115192275.06248  21920340.9054   89760215.70448
  20147885.9534  105877912.86348  20147876.5394   82502259.23649
  21885274.2894  115007918.37648  21885265.9984   89616535.88348
  23403489.9594  122986182.13347  23403479.0114   95833349.69248
 13  6 30  3  3  0.0000000  0  9G04G07G23G32G17G20G13G10G02
  21041188.6354  110572213.51749  21041180.5124   86160131.17149
  23000590.097   120868933.510 8  23000582.762    94183584.964 8
  20731487.4524  108944782.06448  20731476.3124   84892019.12049
  24869946.0614  130692501.02547  24869939.7524  101838293.77947
  24963237.691   131182688.228 4
  21934880.0994  115268632.91748  21934871.3524   89819715.32948
  20146036.9124  105868195.71248  20146027.4364   82494687.40749
  21870553.3484  114930559.49648  21870545.1234   89556256.23948
  23386972.9884  122899385.36647  23386962.1174   95765715.83448
 13  6 30  3  3 30.0000000  0  8G04G07G23G32G20G13G10G02
  21037715.8944  110553963.95148  21037707.7544   86145910.74749
  22980933.895   120765639.656 8  22980926.480    94103096.273 8
  20738902.1624  108983746.69048  20738891.0444   84922381.14749
  24886584.2174  130779933.56547  24886577.7904  101906422.82547
  21949461.0434  115345256.48348  21949452.3434   89879421.98748
  20144271.7114  105858919.51748  20144262.2514   82487459.20749
  21855874.3984  114853420.72048  21855866.1294   89496148.14748
  23370517.5534  122812912.16147  23370506.8644   95698334.13348
 13  6 30  3  4  0.0000000  0  8G04G07G23G32G20G13G10G02
  21034386.4964  110536467.66048  21034378.3304   86132277.25149
  22961346.666   120662708.197 8  22961339.187    94022890.020 8
  20746407.2654  109023186.52548  20746396.2054   84953113.46549
  24903266.1784  130867596.92347  24903259.7504  101974731.79147
  21964121.6274  115422298.74748  21964112.9874   89939454.87648
  20142619.5864  105850237.79348  20142610.1744   82480694.22549
  21841266.7184  114776657.03348  21841258.4754   89436332.31248
  23354153.4964  122726918.71047  23354142.9124   95631326.30148
 13  6 30  3  4 30.0000000  0  8G04G07G23G32G20G13G10G02
  21031142.0234  110519417.77848  21031133.8774   86118991.63249
  22941770.260   120559833.677 8  22941762.715    93942728.080 8
  20753943.9384  109062792.25648  20753932.9514   84983975.05649
  24919933.3704  130955182.79447  24919926.9454  102042980.35647
  21978803.2614  115499451.25748  21978794.6644   89999573.70048
  20141021.8824  105841841.86148  20141012.4644   82474151.93149
  21826672.1714  114699962.10948  21826663.8834   89376570.02248
  23337822.4384  122641099.66947  23337812.1844   95564454.32248
 13  6 30  3  5  0.0000000  0  8G04G07G23G32G20G13G10G02
  21028011.8164  110502968.55148  21028003.6874   86106174.02649
  22922234.442   120457172.261 8  22922226.811    93862732.254 8
  20761541.2084  109102715.99348  20761530.1864   85015084.46349
  24936615.0124  131042844.41747  24936608.5104  102111287.94947
  21993534.9644  115576866.75248  21993526.3824   90059897.43448
  20139507.6644  105833884.77948  20139498.2514   82467951.61049
  21812120.2064  114623490.95248  21812111.8464   89316982.11148
  23321554.4424  122555611.39947  23321544.3274   95497840.10548
 13  6 30  3  5 30.0000000  0  8G04G07G23G32G20G13G10G02
  21024996.0514  110487120.34748  21024987.9264   86093824.80349
  22902739.588   120354726.112 8  22902731.890    93782904.125 8
  20769198.6214  109142956.03248  20769187.6184   85046440.30149
  24953310.8624  131130580.70147  24953304.3154  102179653.72947
  22008316.4324  115654543.70548  22008307.7914   90120424.89548
  20138076.7334  105826365.43848  20138067.3814   82462092.37449
  21797611.0034  114547244.63748  21797602.5924   89257569.39248
  23305349.8894  122470455.96147  23305339.8214   95431485.23648
 13  6 30  3  6  0.0000000  0  9G04G07G23G32G17G20G13G10G02
  21022065.7254  110471721.38548  21022057.5964   86081825.59149
  22883257.039   120252345.125 8  22883249.320    93703126.760 8
  20776887.0244  109183359.05248  20776876.0854   85077923.16449
  24969991.8494  131218239.00646  24969985.2744  102247958.78147
  25065081.722   131717889.472 4
  22023118.5514  115732329.30348  22023109.9044   90181037.01248
  20136700.0754  105819130.86448  20136690.6714   82456455.03849
  21783115.9064  114471072.51348  21783107.4854   89198214.47748
  23289180.0934  122385483.54747  23289170.0764   95365272.96048
 13  6 30  3  6 30.0000000  0  8G04G07G23G32G20G13G10G02
  21019279.3334  110457078.35447  21019271.1014   86070415.42249
  22863845.836   120150338.628 8  22863838.031    93623641.212 8
  20784664.3674  109224229.57548  20784653.4804   85109770.29649
  24986716.0444  131306124.74446  24986709.5254  102316441.04347
  22037999.4244  115810528.69348  22037990.8254   90241971.58448
  20135435.6814  105812486.30348  20135426.2404   82451277.46649
  21768693.4544  114395282.07948  21768685.0504   89139157.01548
  23273103.8654  122301002.58547  23273093.9014   95299443.64748
 13  6 30  3  7  0.0000000  0  8G04G07G23G32G20G13G10G02
  21016607.7804  110443039.31148  21016599.5684   86059475.88049
  22844477.354   120048556.381 8  22844469.390    93544330.427 8
  20792501.4244  109265413.58848  20792490.5194   85141861.72349
  25003454.3474  131394084.92846  25003447.9264  102384981.24647
  22052929.8454  115888988.45948  22052921.2694   90303109.00748
  20134254.4194  105806278.60348  20134244.9394   82446440.30149
  21754314.7664  114319721.81448  21754306.4114   89080278.89548
  23257092.4984  122216862.72047  23257082.6324   95233880.11548
 13  6 30  3  7 30.0000000  0  8G04G07G23G32G20G13G10G02
  21014051.2864  110429604.97148  21014043.1164   86049007.57449
  22825151.942   119947001.033 8  22825143.937    93465196.430 8
  20800398.0594  109306910.31049  20800387.0754   85174196.80049
  25020206.8104  131482119.34346  25020200.5044  102453579.38047
  22067909.7464  115967708.12048  22067901.1584   90364448.95948
  20133156.1364  105800507.08848  20133146.6694   82441943.00649
  21739980.1594  114244393.44648  21739971.9334   89021581.47848
  23241146.6164  122133067.04647  23241136.8274   95168584.77448
 13  6 30  3  8  0.0000000  0  8G04G07G23G32G20G13G10G02
  21011609.8804  110416775.17248  21011601.7104   86039010.30049
  22805870.060   119845674.306 8  22805862.043    93386240.607 8
  20808353.8274  109348717.78048  20808342.7644   85206774.01849
  25036973.2194  131570226.85146  25036966.9754  102522234.46447
  22082938.7084  116046686.03748  22082930.1924   90425990.15348
  20132140.6334  105795170.58548  20132131.1544   82437784.70349
  21725689.9634  114169297.83748  21725681.7444   88963065.41648
  23225266.6734  122049617.63648  23225256.9034   95103559.26448
 13  6 30  3  8 30.0000000  0  8G04G07G23G32G20G13G10G02
  21009254.4774  110404396.94748  21009246.1884   86029364.95349
  22786602.836   119744424.735 8  22786594.856    93307344.885 8
  20816339.1404  109390680.75748  20816328.0494   85239472.42449
  25053724.2164  131658253.12346  25053718.0064  102590826.25746
  22097987.4144  116125767.58248  22097978.9574   90487612.08048
  20131178.5084  105790114.64748  20131169.0534   82433844.99949
  21711415.0944  114094282.64148  21711406.8344   88904612.04748
  23209423.8514  121966362.79448  23209413.9444   95038685.36948
 13  6 30  3  9  0.0000000  0  9G04G07G23G32G20G16G13G10G02
  21007043.5074  110392778.09648  21007035.2204   86020311.28449
  22767409.328   119643562.795 8  22767401.472    93228751.250 8
  20824412.2214  109433105.27048  20824401.1914   85272530.46849
  25070518.0034  131746505.13446  25070511.9654  102659593.83646
  22113114.2214  116205259.42548  22113105.7914   90549553.75148
  24762169.1744  130126071.78945
  20130328.1354  105785646.03248  20130318.7174   82430362.95349
  21697214.2984  114019656.82848  21697206.0394   88846462.04148
  23193676.9774  121883612.66148  23193667.0554   94974204.74148
 13  6 30  3  9 30.0000000  0  9G04G07G23G32G20G16G13G10G02
  21004977.3314  110381919.95349  21004968.9694   86011850.39749
  22748290.335   119543091.995 8  22748282.486    93150462.385 8
  20832573.1184  109475991.07249  20832562.0834   85305947.95449
  25087354.9504  131834983.26446  25087348.9714  102728537.75146
  22128319.1504  116285161.62048  22128310.7294   90611815.17848
  24751180.8864  130068325.63445
  20129589.5364  105781764.66648  20129580.1334   82427338.51349
  21683088.0914  113945422.55048  21683079.7144   88788617.16348
  23178026.8354  121801370.41947  23178016.8624   94910119.88248
 13  6 30  3 10  0.0000000  0  9G04G07G23G32G20G16G13G10G02
  21002997.4834  110371515.78049  21002989.1034   86003743.23649
  22729187.704   119442707.434 8  22729179.914    93072240.732 8
  20840763.1134  109519029.66148  20840752.0834   85339484.51149
  25104176.3984  131923379.75346  25104170.3924  102797418.03146
  22143543.5664  116365166.09248  22143535.1234   90674156.27748
  24740235.0274  130010808.38245
  20128904.1374  105778162.74448  20128894.7214   82424531.79949
  21668978.1914  113871274.27548  21668969.7504   88730839.28448
  23162415.4984  121719331.60647  23162405.3924   94846193.58147
 13  6 30  3 10 30.0000000  0  9G04G07G23G32G20G16G13G10G02
  21001103.9204  110361564.85448  21001095.4594   85995989.26849
  22710101.776   119342410.329 8  22710094.007    92994087.199 8
  20848981.7054  109562218.53348  20848970.7054   85373138.14349
  25120981.9344  132011693.06746  25120975.9674  102866233.48846
  22158787.0724  116445270.69048  22158778.5674   90736575.38348
  24729333.8314  129953521.89545
  20128271.6024  105774838.44248  20128262.1394   82421941.42049
  21654884.6684  113797212.49948  21654876.2964   88673128.82048
  23146843.1084  121637497.70648  23146832.8424   94782426.84548
 13  6 30  3 11  0.0000000  0  9G04G07G23G32G20G16G13G10G02
  20999354.9854  110352374.20249  20999346.4724   85988827.70949
  22691091.374   119242509.864 8  22691083.550    92916242.740 8
  20857286.9154  109605862.82748  20857275.9674   85407146.67849
  25137829.9084  132100229.08146  25137824.0074  102935222.46246
  22174107.7604  116525781.26548  22174099.2514   90799310.83548
  24718535.2144  129896775.21745
  20127750.0264  105772097.47548  20127740.5634   82419805.59149
  21640866.1354  113723544.85948  21640857.7914   88615725.44548
  23131368.3554  121556177.01648  23131358.0224   94719060.10748
 13  6 30  3 11 30.0000000  0  9G04G07G23G32G20G16G13G10G02
  20997751.2454  110343946.42949  20997742.6884   85982260.60749
  22672157.233   119143010.597 8  22672149.436    92838710.898 9
  20865678.9804  109649963.49248  20865668.0844   85441510.80749
  25154720.5484  132188989.49446  25154714.6854  103004386.27746
  22189505.9554  116606698.94748  22189497.4094   90862363.52848
  24707840.3474  129840573.44045
  20127339.7134  105769941.08148  20127330.2014   82418125.28949
  21626923.2554  113650274.78248  21626915.0084   88558631.89548
  23115992.1934  121475374.55148  23115981.8104   94656097.15148
 13  6 30  3 12  0.0000000  0  9G04G07G23G32G20G16G13G10G02
  20996234.0804  110335973.54448  20996225.4984   85976047.97049
  22653241.290   119043606.959 8  22653233.521    92761253.573 8
  20874099.0254  109694211.12548  20874088.1384   85475989.45749
  25171595.1194  132277665.65245  25171589.2924  103073484.47046
  22204922.7634  116687714.57348  22204914.2184   90925492.53548
  24697191.1454  129784611.00545
  20126981.7884  105768060.48548  20126972.3524   82416659.89749
  21612997.7324  113577095.91248  21612989.5654   88501609.40948
  23100656.5324  121394784.98348  23100646.1104   94593300.08648
 13  6 30  3 12 30.0000000  0  9G04G07G23G32G20G16G13G10G02
  20994833.0354  110328610.75749  20994824.3894   85970310.72349
  22634373.514   118944456.065 8  22634365.693    92683993.224 9
  20882576.2544  109738759.01648  20882565.3294   85510702.07549
  25188483.0574  132366411.80346  25188477.1894  103142637.21246
  22220387.5314  116768982.22748  22220378.9454   90988817.94548
  24686617.4724  129729045.47645
  20126705.6944  105766609.60248  20126696.2874   82415529.33049
  21599119.3654  113504164.41448  21599111.1584   88444779.65148
  23085391.2894  121314565.21948  23085380.7824   94530791.18248
 13  6 30  3 13  0.0000000  0  9G04G07G23G32G20G16G13G10G02
  20993547.7604  110321856.65148  20993539.1224   85965047.76949
  22615553.987   118845558.907 8  22615546.105    92606930.533 8
  20891110.0574  109783604.20148  20891099.0884   85545646.33249
  25205383.9884  132455225.85446  25205378.0834  103211842.92246
  22235899.8664  116850499.59548  22235891.1894   91052337.93148
  24676119.2864  129673877.88945  24676112.1254  101044550.92545
  20126510.9614  105765586.27248  20126501.5694   82414731.93049
  21585287.9994  113431480.03548  21585279.7984   88388142.48248
  23070196.6344  121234716.01648  23070185.9834   94468571.02148
 13  6 30  3 13 30.0000000  0  9G04G07G23G32G20G16G13G10G02
  20992378.5614  110315712.72048  20992369.9694   85960260.28349
  22596783.421   118746919.230 8  22596775.574    92530068.534 9
  20899700.2974  109828746.28348  20899689.3244   85580821.97349
  25222297.8954  132544108.03946  25222291.9384  103281101.70446
  22251459.6454  116932266.28848  22251450.8514   91116052.20648
  24665697.4974  129619111.95645  24665690.5294  101001876.29246
  20126397.4924  105764990.30248  20126388.1704   82414267.51749
  21571504.2084  113359045.41348  21571495.9624   88331699.91348
  23055073.0094  121155240.76548  23055062.3334   94406642.26348
 13  6 30  3 14  0.0000000  0  9G04G07G23G32G20G16G13G10G02
  20991296.1784  110310025.13348  20991287.6264   85955828.39749
  22578033.081   118648385.652 8  22578025.172    92453289.148 9
  20908317.6204  109874030.49248  20908306.6444   85616108.33249
  25239195.4124  132632904.46246  25239189.4114  103350293.59346
  22267037.4934  117014128.24248  22267028.6824   91179840.69548
  24655323.5134  129564596.67646  24655316.6304  100959396.91346
  20126335.9534  105764667.15848  20126326.6624   82414015.71849
  21557738.8374  113286708.08448  21557730.6464   88275333.18548
  23039991.8294  121075988.50848  23039981.0994   94344887.25648
 13  6 30  3 14 30.0000000  0  9G04G07G23G32G20G16G13G10G02
  20990359.3984  110305102.57148  20990350.8884   85951992.61049
  22559362.000   118550268.395 8  22559354.012    92376834.179 9
  20917020.2714  109919763.35648  20917009.3574   85651744.29949
  25256135.1594  132721922.30745  25256129.0094  103419658.04246
  22282691.8624  117096392.25848  22282683.0284   91243942.49848
  24645056.3364  129510642.42346  24645049.6064  100917354.72746
  20126384.8404  105764924.12648  20126375.5744   82414215.93949
  21544050.9404  113214777.63848  21544042.7194   88219283.47448
  23025012.0834  120997269.34848  23025001.3014   94283547.67648
 13  6 30  3 15  0.0000000  0  9G04G07G23G32G20G16G13G10G02
  20989538.8304  110300790.70848  20989530.3514   85948632.71249
  22540741.242   118452415.714 8  22540733.212    92300585.366 9
  20925778.7324  109965789.37948  20925767.8094   85687608.69949
  25273087.5044  132811007.04545  25273081.2704  103489074.59145
  22298393.1444  117178903.05248  22298384.3444   91308236.57648
  24634867.1574  129457097.61046  24634860.4834  100875631.66146
  20126514.6494  105765606.15248  20126505.3254   82414747.37549
  21530411.3864  113143101.29948  21530403.1304   88163431.76348
  23010104.8844  120918931.49148  23010094.0784   94222505.21148
 13  6 30  3 15 30.0000000  0  9G04G07G23G32G20G16G13G10G02
  20988834.5574  110297089.79148  20988826.0764   85945748.88449
  22522171.303   118354830.212 8  22522163.229    92224544.766 9
  20934592.7834  110012107.40548  20934581.8654   85723700.65749
  25290052.3954  132900158.02645  25290046.1874  103558542.84045
  22314141.2444  117261659.87848  22314132.4834   91372722.38448
  24624756.4294  129403965.19046  24624749.7694  100834229.78846
  20126725.1714  105766712.39048  20126715.8354   82415609.37949
  21516820.4874  113071680.70748  21516812.1834   88107779.35848
  22995270.8764  120840977.74948  22995259.9394   94161762.02048
 13  6 30  3 16  0.0000000  0  9G04G07G23G32G20G16G13G10G02
  20988246.7094  110294000.62748  20988238.2544   85943341.72749
  22503652.807   118257514.925 8  22503644.697    92148714.723 9
  20943462.1964  110058716.23749  20943451.2824   85760019.19049
  25307029.9044  132989375.19045  25307023.7964  103628062.62545
  22329936.0904  117344662.35048  22329927.3454   91437399.58348
  24614724.7354  129351248.03046  24614718.0354  100793151.57646
  20127016.3344  105768242.33748  20127006.9694   82416801.52449
  21503278.5364  113000517.58748  21503270.2764   88052327.57548
  22980510.3624  120763410.72748  22980499.3814   94101320.18948
 13  6 30  3 16 30.0000000  0  9G04G07G23G32G20G16G13G10G02
  20987745.8844  110291368.71349  20987737.3904   85941290.89649
  22485156.846   118160318.179 8  22485148.753    92072977.048 9
  20952357.3524  110105460.40848  20952346.4084   85796443.18149
  25323990.5074  133078503.69345  25323984.4364  103697513.29745
  22345748.1334  117427755.07248  22345739.3724   91502147.12748
  24604743.0854  129298794.54446  24604736.4024  100752278.77046
  20127358.6194  105770040.99248  20127349.2064   82418203.05049
  21489756.5274  112929459.32148  21489748.3084   87996957.50048
  22965794.4964  120686078.51448  22965783.5374   94041061.33148
 13  6 30  3 17  0.0000000  0  9G04G07G23G32G20G16G13G10G02
  20987390.7844  110289502.46248  20987382.2644   85939836.65549
  22466742.447   118063549.982 8  22466734.343    91997573.307 9
  20961336.6984  110152646.75349  20961325.7124   85833211.74249
  25340992.7634  133167850.96545
  22361635.9044  117511245.50148  22361627.1304   91567204.58848
  24594870.6404  129246914.93346  24594863.9544  100711853.18546
  20127810.4524  105772415.39348  20127801.0394   82420053.23249
  21476313.4244  112858815.40348  21476305.1984   87941910.27348
  22951182.2914  120609291.29648  22951171.3724   93981227.14248
 13  6 30  3 17 30.0000000  0  9G04G07G23G32G20G16G13G10G02
  20987181.4604  110288402.45848  20987172.9584   85938979.51949
  22448410.264   117967213.775 8  22448402.122    91922506.175 9
  20970400.0844  110200274.73148  20970389.0394   85870324.42649
  25358036.6424  133257417.27845
  22377599.2274  117595133.14048  22377590.4544   91632571.54548
  24585108.1134  129195612.88346  24585101.3964  100671877.57846
  20128371.8564  105775365.52848  20128362.4414   82422352.01649
  21462949.5084  112788587.67348  21462941.3224   87887187.37348
  22936674.4904  120533052.53747  22936663.5904   93921820.32748
 13  6 30  3 18  0.0000000  0  9G04G07G23G32G20G16G13G10G02
  20987059.3034  110287760.51848  20987050.7544   85938479.29949
  22430102.080   117871003.681 8  22430093.862    91847537.287 9
  20979488.4894  110248034.49549  20979477.4784   85907539.81249
  25375063.3804  133346893.76545
  22393579.2284  117679108.61248  22393570.4864   91698006.91748
  24575397.3924  129144582.94846  24575390.7044  100632114.04146
  20128984.0064  105778582.14648  20128974.5744   82424858.47549
  21449606.5694  112718469.80548  21449598.3494   87832550.06848
  22922212.8514  120457056.42547  22922201.9494   93862602.57648
 13  6 30  3 18 30.0000000  0  9G04G07G23G32G20G16G13G10G02
  20987024.0904  110287575.84548  20987015.6054   85938335.37049
  22411818.149   117774921.039 9  22411809.829    91772667.727 9
  20988601.5424  110295923.78748  20988590.4964   85944856.09749
  25392072.8564  133436278.85344
  22409575.6194  117763170.27547  22409566.9174   91763509.43948
  24565738.5974  129093826.20345  24565732.0254  100592563.43046
  20129646.4904  105782063.52648  20129637.0564   82427571.22549
  21436284.5484  112648462.11248  21436276.3274   87777998.61648
  22907797.6344  120381304.01148  22907786.7024   93803574.73848
 13  6 30  3 19  0.0000000  0  9G04G07G23G32G20G16G13G10G02
  20987134.7424  110288156.95449  20987126.2014   85938788.18049
  22393617.651   117679276.774 8  22393609.260    91698139.751 9
  20997797.7374  110344249.99648  20997786.6914   85982512.85649
  25409123.4574  133525880.61545
  22425647.0314  117847625.74148  22425638.2994   91829318.87448
  24556190.9054  129043653.42745  24556184.3664  100553467.79846
  20130417.8964  105786117.10148  20130408.4334   82430729.82249
  21423042.4874  112578874.61148  21423034.2704   87723774.60248
  22893487.9604  120306106.41947  22893477.1054   93744979.20248
 13  6 30  3 19 30.0000000  0  9G04G07G23G32G20G16G13G10G02
  20987391.1184  110289503.78248  20987382.5114   85939837.66449
  22375501.144   117584073.888 8  22375492.696    91623955.701 9
  21007076.8964  110393012.11549  21007065.8534   86020509.28349
  25426215.3304  133615698.82745
  22441793.2554  117932474.28248  22441784.4754   91895434.57848
  24546754.9844  128994067.70745  24546748.4564  100514829.63946
  20131298.0174  105790742.23248  20131288.5704   82434333.83849
  21409880.7494  112509709.33748  21409872.5364   87669879.56748
  22879284.3594  120231466.42948  22879273.6184   93686818.23648
 13  6 30  3 20  0.0000000  0  9G04G07G23G32G20G16G13G10G02
  20987734.6594  110291308.78948  20987726.0074   85941244.16249
  22357410.424   117489006.703 8  22357401.940    91549877.393 9
  21016380.1564  110441900.83048  21016369.1024   86058604.34649
  25443289.7594  133705424.74744
  22457955.4074  118017406.77847  22457946.5874   91961615.66448
  24537372.7094  128944763.82745  24537366.1844  100476411.17646
  20132228.1284  105795629.87248  20132218.6534   82438142.37449
  21396740.9444  112440659.38348  21396732.7414   87616074.42848
  22865128.7184  120157078.21748  22865118.0434   93628853.39948
 13  6 30  3 20 30.0000000  0  8G04G07G23G20G16G13G10G02
  20988194.5144  110293725.59548  20988185.9364   85943127.36749
  22339375.279   117394231.500 8  22339366.746    91476026.600 9
  21025736.4954  110491068.59549  21025725.4534   86096916.85549
  22474162.5374  118102575.88248  22474153.7664   92027981.16448
  24528073.8204  128895897.96345  24528067.2364  100438333.78946
  20133237.3554  105800933.52048  20133227.9484   82442275.08049
  21383652.6984  112371880.50048  21383644.5364   87562480.47848
  22851050.8294  120083098.16548  22851040.1254   93571206.61648
 13  6 30  3 21  0.0000000  0  8G04G07G23G20G16G13G10G02
  20988770.8324  110296754.41148  20988762.3234   85945487.45149
  22321396.144   117299750.695 8  22321387.597    91402405.239 9
  21035145.7674  110540514.40248  21035134.6914   86135446.04749
  22490414.7874  118187981.78548  22490406.0254   92094531.20048
  24518858.7044  128847473.07545  24518852.2694  100400600.10246
  20134325.6224  105806652.34448  20134316.2284   82446731.27749
  21370616.5134  112303374.69648  21370608.2644   87509099.31049
  22837051.0574  120009528.98948  22837040.3914   93513879.98248
 13  6 30  3 21 30.0000000  0  9G04G07G23G32G20G16G13G10G02
  20989463.6304  110300394.96748  20989455.1214   85948324.22149
  22303473.590   117205567.163 8  22303465.044    91329015.507 9
  21044607.6314  110590236.83448  21044596.5764   86174190.75849
  25494582.6604  133974938.32544
  22506711.7614  118273623.02547  22506703.0434   92161264.57548
  24509728.0624  128799491.41746  24509721.7704  100363211.98346
  20135492.6034  105812784.93348  20135483.2214   82451509.91949
  21357632.5674  112235143.03748  21357624.2084   87455931.77149
  22823129.8674  119936372.64348  22823119.2184   93456875.04448
 13  6 30  3 22  0.0000000  0  8G04G07G23G20G16G13G10G02
  20990272.9564  110304648.06549  20990264.5194   85951638.31849
  22285608.222   117111684.146 8  22285599.691    91255859.935 9
  21054122.0974  110640235.69249  21054111.0834   86213150.88949
  22523053.5394  118359499.64648  22523044.8814   92228181.35748
  24500682.3714  128751956.05246  24500676.0734  100326171.43046
  20136738.4614  105819331.70748  20136729.0114   82456611.28449
  21344701.1934  112167187.83648  21344692.7984   87402979.68349
  22809287.9244  119863632.61748  22809277.2834   93400194.50948
 13  6 30  3 22 30.0000000  0  8G04G07G23G20G16G13G10G02
  20991169.2174  110309357.82249  20991160.8014   85955308.25449
  22267770.774   117017947.850 8  22267762.227    91182818.690 9
  21063659.2434  110690353.79549  21063648.2934   86252203.91949
  22539410.2014  118445454.54848  22539401.6364   92295159.16248
  24491692.4164  128704714.08146  24491686.2284  100289359.58246
  20138033.1564  105826135.62948  20138023.7954   82461913.02149
  21331793.0314  112099354.79948  21331784.6624   87350122.77749
  22795496.0284  119791155.59047  22795485.4124   93343718.91348
 13  6 30  3 23  0.0000000  0  8G04G07G23G20G16G13G10G02
  20992211.1404  110314832.91949  20992202.7374   85959574.55849
  22250020.536   116924669.904 8  22250012.012    91110134.590 9
  21073277.7154  110740899.14649  21073266.7854   86291589.91149
  22555840.4554  118531795.98847  22555831.9474   92362438.16248
  24482817.5944  128658077.01445  24482811.4724  100253019.12746
  20139435.4854  105833504.91748  20139426.1394   82467655.32149
  21318967.3104  112031955.11748  21318958.9644   87297603.56048
  22781813.3604  119719252.68348  22781802.7824   93287690.64648
 13  6 30  3 23 30.0000000  0  8G04G07G23G20G16G13G10G02
  20993369.5114  110320920.07148  20993361.1114   85964317.78449
  22232328.825   116831699.402 8  22232320.260    91037690.071 8
  21082948.0614  110791717.03148  21082937.1454   86331188.23149
  22572314.9144  118618369.72847  22572306.4444   92429898.16248
  24474029.1194  128611893.64345  24474022.9404  100217032.12046
  20140916.0894  105841285.60647  20140906.7574   82473718.20749
  21306194.9674  111964836.56648  21306186.7424   87245303.38648
  22768211.2344  119647772.96547  22768200.6864   93231992.21048
 13  6 30  3 24  0.0000000  0  8G04G07G23G20G16G13G10G02
  20994643.9474  110327617.09349  20994635.5354   85969536.21149
  22214695.607   116739036.777 8  22214687.110    90965485.458 9
  21092669.6154  110842804.07948  21092658.7164   86370996.31349
  22588833.0664  118705172.76748  22588824.5574   92497536.82248
  24465327.0044  128566164.22145  24465320.8674  100181398.89646
  20142474.3234  105849474.17748  20142464.9874   82480098.89649
  21293476.1124  111897998.71948  21293467.9104   87193221.95648
  22754689.6514  119576716.81648  22754679.1654   93176623.77848
 13  6 30  3 24 30.0000000  0  8G04G07G23G20G16G13G10G02
  20996005.5804  110334772.14648  20995997.1094   85975111.56849
  22197092.707   116646533.352 8  22197084.250    90893404.875 9
  21102413.3634  110894007.56949  21102402.4484   86410895.07849
  22605365.8534  118792052.96348  22605357.3644   92565235.65148
  24456682.9354  128520739.95545  24456676.8124  100146003.50146
  20144081.2664  105857918.59847  20144071.9324   82486678.94249
  21280782.1854  111831291.86848  21280774.0184   87141242.59048
  22741220.3044  119505935.17348  22741209.8864   93121469.27048
 13  6 30  3 25  0.0000000  0  8G04G07G23G20G16G13G10G02
  20997512.5854  110342691.38649  20997504.0934   85981282.41249
  22179578.732   116554496.975 8  22179570.300    90821688.242 9
  21112237.3274  110945632.66049  21112226.4494   86451122.40949
  22621971.4274  118879315.52948  22621962.9164   92633232.42548
  24448155.7654  128475929.81245  24448149.5634  100111086.46746
  20145794.9294  105866924.08448  20145785.6284   82493696.17949
  21268171.8064  111765023.75548  21268163.5324   87089605.07048
  22727861.9334  119435736.58248  22727851.5424   93066769.08448
 13  6 30  3 25 30.0000000  0  8G04G07G23G20G16G13G10G02
  20999135.6674  110351220.48949  20999127.1544   85987928.45349
  22162124.958   116462776.964 8  22162116.520    90750218.119 9
  21122112.0334  110997524.40649  21122101.1594   86491557.50749
  22638620.2374  118966805.42948  22638611.7674   92701406.31048
  24439716.4354  128431581.64645  24439710.2944  100076529.56946
  20147586.0294  105876336.12748  20147576.7114   82501030.24049
  21255615.9594  111699042.21048  21255607.5824   87038190.86849
  22714585.7154  119365969.77547  22714575.3254   93012405.32248
 13  6 30  3 26  0.0000000  0  8G04G07G23G20G16G13G10G02
  21000903.9974  110360512.87449  21000895.4334   85995169.25949
  22144761.031   116371528.974 9  22144752.553    90679115.824 9
  21132066.3694  111049834.73049  21132055.5254   86532318.78449
  22655341.4094  119054675.40748  22655332.9314   92769876.36948
  24431394.9284  128387851.70546  24431388.6644  100042454.32346
  20149483.3704  105886306.78348  20149474.0604   82508799.56649
  21243144.0764  111633502.21148  21243135.6714   86987120.72749
  22701421.1734  119296789.76148  22701410.7494   92958498.83448
 13  6 30  3 26 30.0000000  0  8G04G07G23G20G16G13G10G02
  21002759.1024  110370261.20449  21002750.5224   86002765.35149
  22127429.015   116280448.551 8  22127420.497    90608144.080 9
  21142041.7984  111102255.84149  21142030.9384   86573166.37249
  22672076.3034  119142617.55448  22672067.8774   92838402.67648
  24423133.1394  128344435.39745  24423126.7614  100008623.52546
  20151428.5544  105896528.85748  20151419.2494   82516764.79149
  21230698.2064  111568098.59649  21230689.7454   86936156.86649
  22688310.5034  119227892.91647  22688300.0014   92904812.94748
 13  6 30  3 27  0.0000000  0  8G04G07G23G20G16G13G10G02
  21004730.1334  110380619.10649  21004721.5904   86010836.41849
  22110158.580   116189691.805 8  22110150.036    90537424.554 9
  21152067.3864  111154940.34648  21152056.4644   86614219.22649
  22688853.9504  119230784.68448  22688845.5764   92907104.30048
  24414960.6894  128301488.63446  24414954.2544   99975158.59846
  20153450.5894  105907154.90848  20153441.3144   82525044.81049
  21218307.8034  111502986.58748  21218299.3784   86885420.25849
  22675283.3394  119159434.95447  22675272.7934   92851469.08348
 13  6 30  3 27 30.0000000  0  8G04G07G23G20G16G13G10G02
  21006788.0104  110391433.13449  21006779.4764   86019262.93349
  22092921.108   116099108.339 8  22092912.548    90466840.045 9
  21162113.6564  111207733.72549  21162102.7334   86655356.89149
  22705645.1904  119319022.93548  22705636.8094   92975861.34148
  24406848.9164  128258860.97746  24406842.5014   99941942.32746
  20155520.2824  105918031.02948  20155510.9854   82533519.70149
  21205944.0904  111438014.89848  21205935.7394   86834792.97549
  22662311.0964  119091265.23248  22662300.4674   92798349.82848
 13  6 30  3 28  0.0000000  0  8G04G07G23G20G16G13G10G02
  21008991.0814  110403010.41349  21008982.5874   86028284.17949
  22075775.543   116009007.850 8  22075766.948    90396631.868 9
  21172239.0104  111260942.32349  21172228.0294   86696818.09749
  22722508.2824  119407638.83247  22722499.9514   93044912.65248
  24398856.7884  128216862.06446  24398850.3404   99909215.94946
  20157695.8004  105929463.39648  20157686.5084   82542428.04449
  21193665.8584  111373492.29248  21193657.5144   86784515.63449
  22649452.7044  119023693.61448  22649442.0104   92745696.59848
 13  6 30  3 28 30.0000000  0  8G04G07G23G20G16G13G10G02
  21011338.8684  110415348.30648  21011330.4224   86037898.10649
  22058721.974   115919390.426 9  22058713.274    90326800.111 9
  21182442.8174  111314563.18848  21182431.7644   86738600.56449
  22739442.7004  119496629.61047  22739434.3934   93114256.04748
  24390984.3994  128175492.56746  24390977.9084   99876980.03246
  20159976.6874  105941449.47248  20159967.3754   82551767.81449
  21181473.0854  111309418.77648  21181464.7434   86734588.20949
  22636708.0734  118956720.12948  22636697.3704   92693509.48948
 13  6 30  3 29  0.0000000  0  8G04G07G23G20G16G13G10G02
  21013773.2554  110428141.15849  21013764.8604   86047866.53749
  22041702.684   115829953.265 9  22041693.965    90257108.823 9
  21192666.6354  111368289.58848  21192655.5664   86780465.26249
  22756390.1684  119585688.78047  22756381.8544   93183652.75548
  24383174.0074  128134448.87046  24383167.4484   99844997.94346
  20162304.5804  105953682.63248  20162295.2824   82561300.14049
  21169307.9404  111245490.63448  21169299.6224   86684774.07349
  22624019.6494  118890041.76148  22624008.8804   92641552.30548
 13  6 30  3 29 30.0000000  0  8G04G07G23G20G16G13G10G02
  21016323.4584  110441542.19049  21016315.0204   86058308.89149
  22024747.290   115740852.196 9  22024738.568    90187679.432 9
  21202939.5304  111422273.70548  21202928.4254   86822530.77449
  22773379.6024  119674968.67547  22773371.3164   93253221.45148
  24375455.2624  128093887.27946  24375448.7834   99813391.61146
  20164708.5554  105966315.67048  20164699.2304   82571144.02949
  21157200.0284  111181863.12448  21157191.6934   86635194.18949
  22611417.0134  118823814.33848  22611406.2024   92589946.50848
 13  6 30  3 30  0.0000000  0  8G04G07G23G20G16G13G10G02
  21018989.0444  110455549.68849  21018980.5724   86069223.81649
  22007856.208   115652088.586 9  22007847.388    90118512.998 9
  21213261.0304  111476513.24248  21213249.9534   86864795.33449
  22790410.6144  119764467.24447  22790402.3414   93322960.52748
  24367828.4384  128053808.29546  24367821.9414   99782161.28146
  20167188.2204  105979346.46048  20167178.9004   82581297.86449
  21145149.3734  111118536.44449  21145141.0144   86585848.73849
  22598900.3514  118758039.02048  22598889.5764   92538693.01748
 13  6 30  3 30 30.0000000  0  8G04G07G23G20G16G13G10G02
  21021770.1134  110470163.99249  21021761.5644   86080611.57949
  21991029.898   115563665.792 9  21991021.070    90049612.101 9
  21223630.9924  111531007.88648  21223619.9824   86907258.67949
  22807483.2384  119854184.42947  22807474.9694   93392869.96048
  24360294.2294  128014215.51246  24360287.6124   99751309.84146
  20169743.4874  105992774.91547  20169734.2774   82591761.57949
  21133156.4404  111055513.09048  21133148.0474   86536739.60449
  22586470.2914  118692719.05148  22586459.6184   92487794.35348
 13  6 30  3 31  0.0000000  0  9G04G08G07G23G20G16G13G10G02
  21024666.2314  110485383.19549  21024657.6964   86092470.69249
  24466535.2494  128572512.90045  24466530.8904  100186358.55146
  21974268.545   115475584.289 9  21974259.679    89980977.196 9
  21234049.0594  111585755.32149  21234038.1274   86949918.99149
  22824597.0384  119944117.86447  22824588.7574   93462947.93548
  24352852.4824  127975109.42945  24352845.8634   99720837.56046
  20172373.9714  106006598.33048  20172364.8124   82602533.05549
  21121221.2794  110992793.27548  21121212.8634   86487867.02249
  22574127.0424  118627855.08948  22574116.4134   92437250.99548
 13  6 30  3 31 30.0000000  0  9G04G08G07G23G20G16G13G10G02
  21027647.9474  110501052.41048  21027639.4334   86104680.46849
  24445584.6764  128462415.58446  24445579.8674  100100568.55146
  21957543.255   115387692.483 8  21957534.397    89912490.086 9
  21244485.6824  111640599.96048  21244474.7804   86992655.02949
  22841722.4564  120034112.23247  22841714.1364   93533073.37248
  24345474.2674  127936337.83346  24345467.8144   99690625.99546
  20175050.0984  106020661.47148  20175040.9194   82613491.33249
  21109314.8254  110930224.43448  21109306.4104   86439112.08849
  22561841.7254  118563295.18948  22561831.0874   92386944.57448
 13  6 30  3 32  0.0000000  0  9G04G08G07G23G20G16G13G10G02
  21030774.0764  110517480.45048  21030765.6134   86117481.52949
  24424675.4134  128352535.66446  24424670.0454  100014947.95346
  21940913.371   115300301.978 9  21940904.508    89844393.594 9
  21254999.3344  111695849.76248  21254988.4904   87035706.79049
  22858918.1564  120124475.99747  22858909.8204   93603486.63547
  24338219.1794  127898212.46546  24338212.6904   99660917.97346
  20177830.5624  106035272.97248  20177821.4074   82624876.90249
  21097496.2784  110868117.30148  21097487.8164   86390716.92249
  22549673.5564  118499350.71747  22549662.8754   92337117.71948
 13  6 30  3 32 30.0000000  0  9G04G08G07G23G20G16G13G10G02
  21034015.3824  110534513.81649  21034006.9204   86130754.26449
  24403778.9424  128242722.71946  24403772.9954   99929379.46147
  21924350.204   115213262.196 8  21924341.375    89776570.396 9
  21265560.8514  111751350.78248  21265549.9924   87078954.31249
  22876154.8844  120215055.36147  22876146.5094   93674067.87347
  24331058.4234  127860582.74946  24331051.8774   99631596.14146
  20180686.1444  106050278.84248  20180676.9534   82636569.75949
  21085736.8694  110806320.87848  21085728.3504   86342563.87249
  22537593.8814  118435871.22348  22537583.1314   92287653.18748
 13  6 30  3 33  0.0000000  0  9G04G08G07G23G20G16G13G10G02
  21037371.3864  110552149.79849  21037362.9294   86144496.55749
  24382895.0984  128132976.75646  24382888.9454   99843863.20647
  21907853.799   115126573.256 8  21907844.994    89709020.598 9
  21276169.5854  111807099.80348  21276158.7174   87122395.08149
  22893431.9684  120305846.79947  22893423.5484   93744814.39647
  24323991.9004  127823448.17146  24323985.3624   99602660.13046
  20183616.0334  106065675.57748  20183606.8854   82648567.21649
  21074036.3954  110744834.53248  21074027.9294   86294652.41849
  22525602.5794  118372856.50548  22525591.8404   92238550.79248
 13  6 30  3 33 30.0000000  0  9G04G08G07G23G20G16G13G10G02
  21040842.1214  110570388.44949  21040833.6244   86158708.47649
  24362024.5584  128023301.07647  24362018.3214   99758401.74147
  21891424.796   115040238.388 8  21891415.995    89641746.658 9
  21286825.4434  111863096.34148  21286814.5414   87166028.70949
  22910749.3884  120396850.39447  22910740.9334   93815726.25447
  24317020.1334  127786811.85146  24317013.7994   99574112.43546
  20186620.3864  106081463.43147  20186611.2364   82660869.40649
  21062395.3944  110683660.60148  21062386.9184   86246984.42249
  22513700.3294  118310309.69548  22513689.6014   92189813.04848
 13  6 30  3 34  0.0000000  0  9G04G08G07G23G20G16G13G10G02
  21044427.5764  110589229.88849  21044419.0464   86173390.11649
  24341167.8934  127913698.56047  24341161.5904   99672997.22847
  21875063.722   114954260.548 8  21875054.970    89574750.995 9
  21297528.2564  111919340.00448  21297517.4214   87209854.90149
  22928107.1654  120488066.00647  22928098.6524   93886803.27547
  24310143.8274  127750676.61746  24310137.4804   99545955.11846
  20189699.0704  106097642.15048  20189689.9414   82673476.18849
  21050814.3694  110622801.65148  21050805.8784   86199561.87749
  22501887.5474  118248233.67048  22501876.9234   92141442.10848
 13  6 30  3 34 30.0000000  0  9G04G08G07G23G20G16G13G10G02
  21048098.0614  110608518.29448  21048089.4784   86188420.04849
  24320296.0724  127804016.46547  24320289.7974   99587530.78647
  21858741.510   114868486.806 8  21858732.752    89507914.367 9
  21308248.3974  111975674.41248  21308237.5104   87253751.81249
  22945475.5424  120579337.31547  22945466.9664   93957923.74247
  24303333.8154  127714889.45046  24303327.4114   99518069.02646
  20192822.4494  106114055.49248  20192813.3024   82686265.76949
  21039264.0084  110562104.09748  21039255.4964   86152265.05648
  22490135.3584  118186475.56248  22490124.7484   92093318.91648
 13  6 30  3 35  0.0000000  0  9G04G08G07G23G20G16G13G10G02
  21051912.2614  110628561.98949  21051903.6474   86204038.49349
  24299468.3774  127694566.44047  24299462.1064   99502245.12447
  21842517.331   114783228.361 8  21842508.605    89441479.198 9
  21319044.3474  112032407.63748  21319033.5064   87297959.48749
  22962913.1864  120670972.25347  22962904.5504   94029327.54847
  24296649.3004  127679761.39946  24296642.7494   99490696.57646
  20196048.9844  106131011.23648  20196039.8774   82699478.05149
  21027803.4954  110501878.69148  21027794.9794   86105336.15448
  22478502.9494  118125346.52648  22478492.2684   92045685.91948
 13  6 30  3 35 30.0000000  0  9G04G08G07G23G20G16G13G10G02
  21055869.7064  110649358.56648  21055861.1184   86220243.61549
  24278685.0384  127585349.19348  24278678.7074   99417140.82648
  21826391.389   114698486.089 8  21826382.693    89375446.280 9
  21329915.6314  112089536.74748  21329904.8504   87342475.63649
  22980419.5814  120762968.54347  22980410.9364   94101012.89548
  24290090.2274  127645292.98946  24290083.6414   99463838.06346
  20199378.3074  106148507.07148  20199369.2054   82713111.15849
  21016432.8664  110442125.69448  21016424.3334   86058775.38649
  22466990.2654  118064847.09048  22466979.6204   91998543.48448
 13  6 30  3 36  0.0000000  0  9G04G08G07G23G20G16G13G10G02
  21059911.7454  110670599.56148  21059903.1434   86236795.03149
  24257887.8244  127476058.97147  24257881.4454   99331979.70348
  21810305.595   114613954.668 8  21810296.871    89309577.656 9
  21340803.4084  112146752.90148  21340792.7934   87387059.62849
  22997935.9314  120855017.20847  22997927.2324   94172739.07648
  24283598.4874  127611178.66846  24283591.8204   99437255.51746
  20202751.5954  106166234.25948  20202742.5954   82726924.50249
  21005093.8904  110382538.72648  21005085.3084   86012343.97349
  22455539.2914  118004671.37648  22455528.5774   91951653.31748
 13  6 30  3 36 30.0000000  0  9G04G08G07G23G20G16G13G10G02
  21064067.6484  110692438.79249  21064058.9744   86253812.59049
  24237106.6924  127366853.19948  24237100.2044   99246884.36948
  21794289.728   114529790.786 8  21794280.996    89243995.448 9
  21351737.0704  112204209.99248  21351726.5634   87431831.33849
  23015491.4334  120947271.87047  23015482.7644   94244625.79248
  24277203.7434  127577574.49846  24277197.0854   99411070.45946
  20206198.1114  106184346.25648  20206189.1934   82741037.74149
  20993816.2104  110323273.99248  20993807.6144   85966163.63649
  22444179.7174  117944976.47648  22444169.0574   91905137.79348
 13  6 30  3 37  0.0000000  0  9G04G08G07G23G20G16G13G10G02
  21068308.1874  110714723.09748  21068299.5464   86271176.96149
  24216312.9914  127257581.81248  24216306.5394   99161737.91448
  21778315.220   114445844.367 8  21778306.539    89178582.657 9
  21362687.2524  112261753.77848  21362676.7984   87476670.66049
  23033057.0154  121039579.44047  23033048.3744   94316553.71947
  24270877.6574  127544330.56846  24270870.9744   99385166.09346
  20209688.7554  106202689.71748  20209679.8284   82755331.30949
  20982571.1734  110264180.79648  20982562.5684   85920116.99149
  22432883.0114  117885612.26148  22432872.4584   91858879.98448
 13  6 30  3 37 30.0000000  0  9G04G08G07G23G20G16G13G10G02
  21072691.7094  110737758.78948  21072683.0634   86289126.85549
  24195565.7284  127148554.21047  24195559.2384   99076781.37448
  21762440.896   114362424.230 9  21762432.215    89113579.954 9
  21373712.2214  112319690.37948  21373701.7684   87521816.00349
  23050690.8674  121132245.58047  23050682.1984   94388761.03047
  24264678.9854  127511755.76046  24264672.2164   99359783.08746
  20213281.6374  106221570.43948  20213272.7064   82770043.54649
  20971417.5054  110205567.75248  20971408.9084   85874444.49449
  22421708.0824  117826887.48648  22421697.5194   91813120.41348
 13  6 30  3 38  0.0000000  0  9G04G08G07G23G20G16G13G10G02
  21077217.9654  110761544.48648  21077209.3744   86307661.15149
  24174865.2624  127039772.46248  24174858.6994   98992016.43848
  21746667.179   114279532.724 9  21746658.507    89048989.190 9
  21384811.7404  112378018.31049  21384801.2454   87567266.32249
  23068392.6354  121225268.74947  23068383.9744   94461246.59448
  24258607.8104  127479851.52546  24258601.0304   99334922.65846
  20216976.5314  106240987.05048  20216967.5884   82785173.34549
  20960355.4434  110147436.15948  20960346.8344   85829147.14949
  22410655.1864  117768803.75248  22410644.5174   91767860.34548
 13  6 30  3 38 30.0000000  0  9G04G08G07G23G20G16G13G10G02
  21081827.9694  110785770.03248  21081819.3234   86326538.18449
  24154153.1564  126930929.79647  24154146.5824   98907204.03148
  21730935.627   114196862.799 8  21730926.916    88984571.081 9
  21395926.7034  112436427.33548  21395916.1464   87612779.79649
  23086103.3174  121318338.88747  23086094.6664   94533768.66647
  24252605.5814  127448310.21946  24252598.8614   99310345.02946
  20220714.4084  106260629.29048  20220705.4044   82800478.94949
  20949326.4584  110089478.51848  20949317.8764   85783985.34749
  22399665.7934  117711054.16348  22399655.1064   91722860.66748
 13  6 30  3 39  0.0000000  0  9G04G08G07G23G20G16G13G10G02
  21086550.7874  110810588.54649  21086542.1584   86345877.27949
  24133459.1974  126822182.56147  24133452.5994   98822465.94348
  21715275.969   114114570.615 9  21715267.217    88920447.294 9
  21407086.1134  112495070.42648  21407075.5884   87658475.65749
  23103852.0584  121411609.08647  23103843.4544   94606446.67247
  24246702.2794  127417288.28546  24246695.5874   99286172.11046
  20224524.3264  106280650.16748  20224515.2714   82816079.59349
  20938360.2094  110031850.67848  20938351.6584   85739080.51849
  22388769.6854  117653794.60248  22388758.9434   91678242.82648
 13  6 30  3 39 30.0000000  0  9G04G08G07G23G20G16G13G10G02
  21091386.5084  110836000.55448  21091377.9404   86365678.81149
  24112784.0784  126713534.07547  24112777.3804   98737804.81348
  21699688.759   114032659.462 9  21699679.983    88856620.427 9
  21418290.1564  112553947.69448  21418279.5704   87704354.02749
  23121638.9214  121505079.43347  23121630.3184   94679280.65947
  24240898.3814  127386788.53346  24240891.7354   99262406.05646
  20228406.2524  106301050.01748  20228397.2494   82831975.58349
  20927457.2484  109974555.35748  20927448.6924   85694434.82049
  22377967.4854  117597028.47448  22377956.7054   91634009.46648
 13  6 30  3 40  0.0000000  0  9G04G08G07G23G20G16G13G10G02
  21096334.6964  110862003.52348  21096326.1514   86385940.84849
  24092127.8384  126604985.36547  24092121.1694   98653221.46148
  21684174.271   113951130.212 8  21684165.419    88793091.133 9
  21429538.2154  112613056.45748  21429527.6324   87750412.77349
  23139463.4504  121598747.71447  23139454.8084   94752268.84047
  24235193.9374  127356811.60246  24235187.3044   99239047.36446
  20232359.9314  106321826.29948  20232350.8874   82848164.88149
  20916617.5414  109917592.74848  20916609.0194   85650048.35849
  22367259.3064  117540756.48948  22367248.5114   91590161.14048
 13  6 30  3 40 30.0000000  0  9G04G08G07G23G20G16G13G10G02
  21101395.3544  110888597.27348  21101386.7724   86406663.24449
  24071491.3034  126496539.70447  24071484.5674   98568718.39947
  21668733.058   113869986.031 9  21668724.191    88729861.947 9
  21440830.3064  112672396.41949  21440819.7054   87796651.67549
  23157325.4444  121692613.43847  23157316.8934   94825410.90647
  24229589.5564  127327360.06846  24229582.7924   99216098.07446
  20236385.1714  106342978.95448  20236376.1444   82864647.44949
  20905841.7354  109860965.44149  20905833.1674   85605923.17149
  22356645.6924  117484981.44348  22356634.8554   91546700.05848
 13  6 30  3 41  0.0000000  0  9G04G08G07G23G20G16G13G10G02
  21106568.2274  110915780.46448  21106559.5134   86427844.94049
  24050874.7084  126388198.89247  24050867.9104   98484297.07247
  21653365.370   113789228.346 8  21653356.534    88666933.898 9
  21452166.1284  112731966.19549  21452155.4984   87843069.66449
  23175224.7844  121786675.17147  23175216.3204   94898705.69047
  24224085.3284  127298435.22046  24224078.5424   99193559.21546
  20240481.6964  106364506.27748  20240472.6804   82881421.95549
  20895129.9694  109804674.41949  20895121.3254   85562060.03149
  22346126.8514  117429704.75248  22346116.0694   91503627.32448
 13  6 30  3 41 30.0000000  0  9G04G08G07G23G20G16G13G10G02
  21111824.0564  110943400.28048  21111815.3844   86449366.85349
  24030249.6934  126279813.95646  24030242.8874   98399841.30247
  21638042.849   113708707.957 9  21638034.014    88604190.738 9
  21463516.5204  112791612.90448  21463505.8744   87889547.55749
  23193132.4404  121880780.16047  23193123.9774   94972034.17947
  24218652.8274  127269887.48146  24218646.1054   99171314.17046
  20244620.4944  106386255.62148  20244611.4554   82898369.48549
  20884453.6804  109748569.89148  20884445.0014   85518342.20649
  22335674.5184  117374776.87148  22335663.6354   91460826.35348
 13  6 30  3 42  0.0000000  0  9G04G08G07G23G20G16G13G10G02
  21117221.0584  110971762.03048  21117212.4554   86471466.89549
  24009674.8404  126171693.37547  24009668.1394   98315591.58347
  21622824.199   113628733.347 9  21622815.319    88541872.852 9
  21474939.6234  112851641.65549  21474928.9994   87936323.15849
  23211106.4364  121975233.83547  23211097.9834   95045634.41747
  24213350.6514  127242024.42445  24213343.9634   99149602.66246
  20248859.5754  106408532.07748  20248850.5454   82915727.72449
  20873871.3804  109692959.46948  20873862.6894   85475009.41049
  22325347.1654  117320506.07648  22325336.2324   91418537.42848
 13  6 30  3 42 30.0000000  0  9G04G08G07G23G20G16G13G10G02
  21122729.5844  111000709.90548  21122721.0664   86494023.67249
  23989121.4944  126063685.06247  23989114.7644   98231429.32247
  21607680.309   113549151.668 9  21607671.401    88479861.164 9
  21486405.7514  112911896.43949  21486395.1454   87983274.91949
  23229117.1464  122069880.44547  23229108.6934   95119384.94948
  24208149.8164  127214693.47446  24208143.0134   99128305.82946
  20253169.4224  106431179.97748  20253160.3094   82933375.42249
  20863354.0684  109637690.37348  20863345.4044   85431942.57249
  22315115.6814  117266739.51448  22315104.8444   91376641.41748
 13  6 30  3 43  0.0000000  0 10G04G08G07G23G05G20G16G13G10G02
  21128349.4114  111030242.42348  21128340.9174   86517036.02249
  23968589.8194  125955790.44547  23968583.0184   98147355.63347
  21592611.503   113469964.555 9  21592602.567    88418156.932 9
  21497914.6404  112972375.99548  21497904.0424   88030401.80349
  25334139.136   133131820.598 5
  23247164.1754  122164718.09547  23247155.7344   95193284.31747
  24203050.3224  127187895.64145  24203043.5984   99107424.44946
  20257549.6224  106454197.70548  20257540.4734   82951311.27449
  20852901.8894  109582763.73948  20852893.2574   85389142.59149
  22304980.4324  117213478.73448  22304969.7144   91335139.50248
 13  6 30  3 43 30.0000000  0 10G04G08G07G23G05G20G16G13G10G02
  21134051.1884  111060205.83948  21134042.7894   86540384.11249
  23948051.2444  125847859.62547  23948044.4304   98063253.73647
  21577589.122   113391021.473 9  21577580.165    88356642.835 9
  21509437.0824  113032926.77449  21509426.5234   88077584.18649
  25314964.762   133031056.398 6
  23265218.4104  122259593.36647  23265209.9884   95267213.03047
  24198023.4264  127161480.18845  24198016.9184   99086840.97446
  20261970.9604  106477431.74548  20261961.7884   82969415.69549
  20842486.0894  109528028.64948  20842477.5904   85346491.86149
  22294912.7764  117160572.84448  22294902.0684   91293914.11648
 13  6 30  3 44  0.0000000  0 10G04G08G07G23G05G20G16G13G10G02
  21139922.7244  111091061.21648  21139914.3344   86564427.23049
  23927594.1304  125740357.01647  23927587.2824   97979485.50947
  21562701.611   113312787.263 8  21562692.639    88295681.091 9
  21521060.8084  113094009.80649  21521050.2724   88125181.30849
  25295848.055   132930589.363 4
  23283367.5374  122354967.54547  23283359.1614   95341530.48547
  24193157.8024  127135911.03546  24193151.2894   99066916.97246
  20266521.2234  106501343.16448  20266511.9884   82988047.94449
  20832194.9864  109473948.91548  20832186.5854   85304351.79349
  22285001.0854  117108486.43248  22284990.3674   91253327.29248
 13  6 30  3 44 30.0000000  0  9G04G08G07G23G20G16G13G10G02
  21145846.4104  111122190.39948  21145838.0464   86588683.71949
  23907101.4634  125632668.01347  23907094.7264   97895572.04247
  21547831.932   113234646.576 8  21547822.946    88234792.246 9
  21532668.2684  113155006.98148  21532657.6694   88172711.53349
  23301493.8474  122450222.19747  23301485.5934   95415754.81847
  24188336.0714  127110572.66646  24188329.5654   99047172.69546
  20271082.7214  106525313.80948  20271073.4944   83006726.36149
  20821911.5184  109419909.23948  20821903.1584   85262242.94149
  22275128.2374  117056604.20248  22275117.5244   91212899.58748
