     2.11           OBSERVATION DATA    M (MIXED)           RINEX VERSION / TYPE
MAKERINEX 2.0.11285 AUBG                2013-07-19 01:04    PGM / RUN BY / DATE
AUBG                                                        MARKER NAME
10913M001                                                   MARKER NUMBER
NTRIPS05-596771-32  BKG                                     OBSERVER / AGENCY
355615              LEICA GRX1200+GNSS  8.70/6.112          REC # / TYPE / VERS
10211013            LEIAR25.R4      LEIT                    ANT # / TYPE
  4164313.4740   803525.3740  4748474.5530                  APPROX POSITION XYZ
         .0450         .0000         .0000                  ANTENNA: DELTA H/E/N
     1     1                                                WAVELENGTH FACT L1/2
    16    C1    C2    C5    C7    C8    P2    L1    L2    L5# / TYPES OF OBSERV
          L7    L8    S1    S2    S5    S7    S8            # / TYPES OF OBSERV
    30.000                                                  INTERVAL
  2013     7    19     0     0    0.0000000     GPS         TIME OF FIRST OBS
  2013     7    19     0    59   30.0000000     GPS         TIME OF LAST OBS
     0                                                      RCV CLOCK OFFS APPL
                                                            END OF HEADER
 13  7 19  0  0  0.0000000  0 23G13G12G04G17G32G01G20G31G23G11R03R02
                                R18R04R17R12R19R11R13E11E19S26S20
  22718863.220
  22718860.480   119388485.192 8  93030007.979 6
                        49.250          38.900

  25712124.820    25712121.620
  25712120.140   135118122.14716 105286833.45215
                        38.650          32.000

  23417420.060
  23417419.320   123059392.26017  95890446.092 6
                        45.300          36.350

  22328661.420    22328658.280
  22328657.740   117337929.436 8  91432144.663 7
                        50.250          45.400

  21769150.000
  21769146.700   114397812.593 8  89141238.406 7
                        49.950          43.600

  21752507.400    21752507.640    21752506.100
  21752506.620   114310304.245 8  89073020.899 7  85361648.061 8
                        49.750          46.800          51.850

  20085633.580
  20085628.540   105550866.317 8  82247461.922 8
                        49.350          48.350

  23168285.700    23168282.260
  23168281.640   121750201.414 7  94870293.419 7
                        47.750          42.650

  21026750.460
  21026744.460   110496409.998 8  86101109.946 7
                        50.300          45.650

  24140128.080
  24140125.140   126857321.841 7  98849899.126 5
                        46.600          34.600

  19659349.860
  19659349.580   105238149.723 7  81851928.147 7
                        47.200          45.950

  20707339.900
  20707342.420   110498481.446 8  85943346.228 7
                        49.200          45.250

  20244100.020
  20244104.300   108064419.004 8  84050115.739 7
                        50.100          46.800

  22872691.520
  22872693.580   122482267.41717  95264010.34416
                        47.050          40.750

  22591341.380
  22591344.160   120890867.262 7  94026245.291 7
                        46.150          43.000

  21906276.920
  21906280.540   117019430.771 8  91015149.924 6
                        49.100          41.150

  22184502.400
  22184503.220   118672127.48017  92300545.070 6
                        47.400          41.100

  22806743.780
  22806746.580   121872346.293 7  94789629.019 5
                        45.850          35.550

  23785648.360
  23785655.320   127014034.52317  98788726.92516
                        44.350          41.150

  25597358.420                    25597358.520    25597377.000    25597378.200
                 134515068.224 8                 100449583.260 7 103070080.789 7
 101759884.964 7        51.100                          47.800          47.950
        43.350
  28324957.520                    28324960.340    28324979.740    28324980.140
                 148848777.340 7                 111153386.825 7 114053108.204 7
 112603233.955 6        43.350                          45.350          46.400
        41.100
  38398934.200
                 201788251.253 7
                        45.300

  38732088.680
                 203538549.826 7
                        45.650

 13  7 19  0  0 30.0000000  0 23G13G12G04G17G32G01G20G31G23G11R03R02
                                R18R04R17R12R19R11R13E11E19S26S20
  22699376.540
  22699373.900   119286082.775 8  92950213.939 6
                        49.050          37.550

  25718028.240    25718025.000
  25718023.280   135149144.950 7 105311007.074 4
                        42.000          27.800

  23398246.280
  23398245.280   122958632.554 7  95811932.117 5
                        46.050          34.450

  22334514.420    22334511.200
  22334510.700   117368686.752 8  91456111.384 7
                        50.150          45.350

  21781584.220
  21781580.900   114463154.608 8  89192154.257 7
                        50.050          42.100

  21768384.060    21768384.300    21768382.780
  21768383.280   114393736.864 8  89138033.308 7  85423951.609 8
                        49.850          46.600          52.100

  20087827.120
  20087822.100   105562393.757 8  82256444.345 8
                        49.350          48.250

  23173783.760    23173780.260
  23173779.640   121779093.804 7  94892806.970 7
                        47.700          42.050

  21015963.440
  21015957.500   110439724.540 8  86056939.490 7
                        50.300          45.600

  24161789.720
  24161786.700   126971154.281 7  98938599.677 5
                        46.250          33.200

  19654777.940
  19654777.560   105213675.692 7  81832892.798 7
                        47.250          46.550

  20720827.200
  20720829.640   110570451.970 8  85999323.302 7
                        49.450          45.600

  20253847.040
  20253851.280   108116449.360 8  84090583.777 7
                        50.000          47.250

  22854736.620
  22854738.580   122386120.102 7  95189229.153 6
                        47.100          40.900

  22616341.780
  22616344.440   121024648.704 7  94130297.365 7
                        47.000          43.550

  21894664.920
  21894668.680   116957401.752 8  90966905.165 6
                        49.000          41.700

  22167188.300
  22167189.020   118579508.514 7  92228508.149 6
                        47.400          41.600

  22817326.620
  22817329.640   121928897.656 7  94833613.431 6
                        45.700          36.300

  23761679.240
  23761685.020   126886038.867 7  98689174.872 6
                        44.000          41.000

  25613861.680                    25613861.900    25613880.240    25613881.560
                 134601793.267 8                 100514345.413 8 103136532.405 8
 101825491.849 7        50.950                          48.650          48.000
        43.600
  28339383.780                    28339386.180    28339405.440    28339405.960
                 148924585.354 7                 111209996.629 7 114111194.796 7
 112660582.152 7        43.750                          47.100          46.950
        42.050
  38398489.420
                 201785917.216 7
                        45.150

  38732102.620
                 203538624.364 7
                        45.750

 13  7 19  0  1  0.0000000  0 24G13G12G04G17G32G10G01G20G31G23G11R03
                                R02R18R04R17R12R19R11R13E11E19S26S20
  22679939.440
  22679936.860   119183940.735 8  92870622.790 6
                        48.850          39.250

  25724028.520    25724025.320
  25724024.640   135180677.461 6 105335577.860 4
                        40.650          29.000

  23379112.360
  23379111.040   122858082.261 7  95733581.338 5
                        46.250          35.550

  22340473.760    22340470.560
  22340470.140   117400003.854 8  91480514.288 7
                        49.950          45.100

  21794058.400
  21794054.920   114528706.591 8  89243233.712 7
                        49.800          43.550

  25423342.200
  25423342.660   133600564.44116 104104337.01415
                        39.900          30.500

  21784328.120    21784328.360    21784326.760
  21784327.400   114477523.152 8  89203321.299 7  85486519.262 8
                        49.900          47.000          51.450

  20090094.240
  20090089.280   105574307.572 8  82265727.835 8
                        49.400          48.150

  23179392.420    23179388.860
  23179388.140   121808567.406 7  94915773.403 7
                        47.600          42.400

  21005258.320
  21005252.320   110383468.873 8  86013103.928 7
                        50.300          45.350

  24183467.460
  24183464.680   127085072.372 7  99027366.906 5
                        45.900          35.150

  19650280.020
  19650279.560   105189597.838 7  81814165.592 7
                        46.300          46.000

  20734358.780
  20734361.020   110642658.975 8  86055484.293 7
                        48.500          45.000

  20263737.140
  20263741.500   108169243.756 8  84131646.065 7
                        49.200          46.800

  22836810.940
  22836812.920   122290129.266 7  95114569.672 6
                        46.050          40.700

  22641379.260
  22641381.920   121158628.589 7  94234503.792 7
                        46.050          42.650

  21883180.880
  21883184.680   116896056.371 8  90919192.123 6
                        48.350          40.850

  22149980.340
  22149980.780   118487457.387 7  92156912.863 6
                        46.850          41.150

  22828045.820
  22828049.060   121986177.712 7  94878164.581 5
                        45.000          35.250

  23737726.500
  23737732.000   126758134.659 7  98589693.970 6
                        43.700          39.450

  25630397.640                    25630397.820    25630416.080    25630417.500
                 134688689.800 8                 100579235.630 7 103203115.421 7
 101891228.466 7        51.000                          47.250          47.550
        42.750
  28353807.800                    28353810.600    28353829.740    28353830.360
                 149000385.796 7                 111266600.737 7 114169275.539 7
 112717924.577 6        42.750                          45.650          46.350
        41.100
  38398043.720
                 201783581.287 7
                        45.250

  38732116.600
                 203538697.677 7
                        45.700

 13  7 19  0  1 30.0000000  0 24G13G12G04G17G32G10G01G20G31G23G11R03
                                R02R18R04R17R12R19R11R13E11E19S26S20
  22660551.440
  22660548.980   119082057.092 8  92791232.999 6
                        49.000          37.850

  25730125.040    25730121.900
  25730120.480   135212714.951 7 105360548.13516
                        45.600          37.800

  23360018.000
  23360016.540   122757740.299 7  95655392.882 5
                        46.750          35.500

  22346538.820    22346535.640
  22346535.200   117431875.860 8  91505349.593 7
                        50.150          44.200

  21806571.580
  21806568.100   114594464.158 8  89294473.377 7
                        49.800          42.700

  25403572.760
  25403572.600   133496675.677 6 104023384.689 5
                        41.500          32.550

  21800338.500    21800338.860    21800337.140
  21800337.860   114561658.141 8  89268880.999 7  85549347.307 8
                        49.900          46.050          51.600

  20092434.140
  20092429.300   105586604.050 8  82275309.508 7
                        49.300          47.700

  23185110.940    23185107.400
  23185106.440   121838618.029 7  94939189.475 6
                        47.800          41.350

  20994634.540
  20994628.460   110327640.490 8  85969601.318 7
                        50.300          44.550

  24205160.720
  24205158.100   127199070.513 7  99116196.530 5
                        45.550          35.000

  19645855.480
  19645854.940   105165912.525 7  81795743.699 7
                        47.250          46.000

  20747933.680
  20747936.000   110715097.536 8  86111825.396 7
                        48.800          44.750

  20273769.360
  20273773.740   108222796.327 8  84173298.043 7
                        49.700          46.850

  22818913.960
  22818915.900   122194291.968 7  95040029.631 6
                        46.600          40.850

  22666452.440
  22666455.140   121292799.287 7  94338858.657 7
                        47.050          42.250

  21871824.840
  21871828.520   116835394.521 8  90872010.714 6
                        48.950          40.650

  22132878.660
  22132879.140   118395974.730 7  92085759.740 6
                        47.550          41.500

  22838900.300
  22838903.360   122044180.281 7  94923277.699 5
                        46.000          34.400

  23713791.540
  23713796.620   126630322.750 7  98490284.817 6
                        45.700          37.700

  25646965.240                    25646965.400    25646983.660    25646985.060
                 134775752.572 8                 100644249.988 7 103269825.812 8
 101957090.841 7        51.050                          47.100          48.500
        43.750
  28368230.580                    28368232.960    28368251.920    28368252.600
                 149076175.082 7                 111323196.587 7 114227347.802 7
 112775258.636 6        45.000                          44.800          46.750
        41.450
  38397597.900
                 201781238.797 7
                        45.050

  38732129.760
                 203538766.355 7
                        45.700

 13  7 19  0  2  0.0000000  0 24G13G12G04G17G32G10G01G20G31G23G11R03
                                R02R18R04R17R12R19R11R13E11E19S26S20
  22641213.800
  22641211.460   118980438.096 8  92712049.429 6
                        48.950          38.950

  25736318.120    25736314.880
  25736313.440   135245259.349 6 105385907.400 4
                        39.550          29.100

  23340964.380
  23340962.780   122657612.958 7  95577371.663 5
                        47.150          34.700

  22352709.960    22352706.880
  22352706.380   117464305.448 8  91530619.385 7
                        50.100          45.050

  21819124.520
  21819121.040   114660430.177 8  89345875.463 7
                        50.050          43.150

  25383808.140
  25383807.880   133392813.480 6 103942448.17614
                        39.100          28.700

  21816415.620    21816416.000    21816414.380
  21816414.980   114646144.056 8  89334714.157 7  85612437.408 8
                        49.800          46.750          51.750

  20094847.580
  20094842.780   105599286.823 8  82285192.194 8
                        49.300          48.400

  23190939.760    23190936.040
  23190935.080   121869248.346 7  94963057.258 6
                        47.750          41.700

  20984092.980
  20984086.880   110272244.058 8  85926435.298 7
                        50.500          45.300

  24226869.640
  24226866.880   127313150.549 7  99205089.956 5
                        46.100          35.150

  19641504.960
  19641504.500   105142623.561 7  81777630.073 7
                        47.500          46.350

  20761552.580
  20761554.920   110787770.271 8  86168348.639 7
                        49.200          45.000

  20283943.820
  20283948.220   108277108.181 8  84215540.567 7
                        50.050          47.050

  22801046.480
  22801048.380   122098612.871 7  94965612.632 6
                        46.800          40.900

  22691561.240
  22691563.780   121427160.368 7  94443361.618 6
                        47.850          41.750

  21860598.100
  21860601.640   116775423.481 8  90825366.600 6
                        49.050          40.850

  22115884.600
  22115885.280   118305068.144 7  92015054.665 6
                        47.400          41.900

  22849890.220
  22849892.920   122102906.681 7  94968953.800 5
                        46.200          34.550

  23689875.420
  23689880.940   126502611.566 7  98390953.981 6
                        45.950          38.150

  25663564.920                    25663564.940    25663583.280    25663584.540
                 134862983.596 8                 100709389.994 7 103336665.122 7
 102023080.497 7        51.050                          47.400          47.100
        42.050
  28382651.600                    28382653.460    28382672.580    28382673.380
                 149151956.787 7                 111379786.800 7 114285414.282 7
 112832586.980 6        45.600                          44.900          44.400
        39.200
  38397151.940
                 201778893.906 7
                        45.350

  38732143.260
                 203538836.199 7
                        45.750

 13  7 19  0  2 30.0000000  0 23G13G04G17G32G10G01G20G31G23G11R03R02
                                R18R04R17R12R19R11R13E11E19S26S20
  22621926.720
  22621924.420   118879084.217 8  92633072.447 6
                        49.000          38.750

  23321951.740
  23321949.860   122557701.013 7  95499518.284 5
                        46.750          34.950

  22358986.540    22358983.580
  22358983.100   117497289.451 8  91556321.189 7
                        50.000          44.650

  21831716.660
  21831713.220   114726602.240 8  89397438.112 7
                        50.150          43.250

  25364048.900
  25364049.180   133288978.044 7 103861537.555 5
                        43.950          35.000

  21832559.000    21832559.380    21832557.880
  21832558.360   114730977.875 8  89400818.409 7  85675787.313 8
                        50.000          46.400          51.700

  20097334.180
  20097329.380   105612354.176 8  82295374.557 7
                        49.400          47.850

  23196878.400    23196874.600
  23196873.660   121900455.797 7  94987374.755 6
                        47.700          41.700

  20973633.600
  20973627.420   110217279.085 8  85883605.486 7
                        50.650          45.250

  24248593.440
  24248590.640   127427308.843 7  99294044.364 6
                        46.000          36.400

  19637228.000
  19637227.620   105119729.152 7  81759823.333 7
                        47.400          45.900

  20775214.840
  20775217.100   110860674.526 8  86225051.946 7
                        49.400          44.550

  20294260.000
  20294264.220   108332175.786 8  84258370.912 7
                        50.300          46.700

  22783208.420
  22783210.320   122003090.998 7  94891317.932 6
                        46.200          41.100

  22716704.560
  22716707.040   121561706.472 7  94548008.507 6
                        47.650          41.200

  21849501.020
  21849504.320   116716144.559 8  90779260.818 6
                        49.300          40.150

  22098998.680
  22098999.260   118214740.035 7  91944799.534 6
                        47.150          41.550

  22861014.740
  22861017.280   122162352.505 7  95015189.454 5
                        46.250          33.800

  23665978.360
  23665984.740   126375003.902 7  98291703.706 6
                        45.650          38.150

  25680195.840                    25680195.840    25680214.300    25680215.460
                 134950379.607 8                 100774653.212 7 103403630.857 8
 102089194.975 7        51.200                          47.200          48.250
        43.350
  28397070.740                    28397072.320    28397091.680    28397092.380
                 149227729.175 7                 111436370.002 7 114343473.567 7
 112889908.224 6        46.300                          45.400          47.000
        41.650
  38396704.860
                 201776545.801 7
                        45.300

  38732156.620
                 203538905.061 7
                        45.800

 13  7 19  0  3  0.0000000  0 23G13G04G17G32G10G01G20G31G23G11R03R02
                                R18R04R17R12R19R11R13E11E19S26S20
  22602690.740
  22602688.400   118777998.609 8  92554304.497 6
                        48.950          39.150

  23302980.680
  23302978.740   122458008.276 7  95421835.710 6
                        46.600          36.200

  22365368.520    22365365.680
  22365365.200   117530827.287 8  91582454.537 7
                        50.050          45.100

  21844348.140
  21844344.700   114792980.801 8  89449161.649 7
                        50.100          43.400

  25344295.180
  25344295.620   133185170.688 7 103780648.787 6
                        43.750          36.850

  21848768.480    21848768.900    21848767.360
  21848767.840   114816159.293 8  89467193.508 7  85739396.784 8
                        49.850          46.700          51.700

  20099894.240
  20099889.380   105625807.201 8  82305857.428 8
                        49.300          48.150

  23202926.900    23202923.180
  23202922.260   121932240.969 7  95012142.406 7
                        47.550          42.450

  20963256.760
  20963250.500   110162747.740 8  85841113.551 7
                        50.600          45.850

  24270331.880
  24270329.060   127541544.433 7  99383058.993 6
                        45.700          36.450

  19633025.000
  19633024.480   105097230.480 7  81742324.370 7
                        47.750          46.550

  20788920.440
  20788922.580   110933810.039 8  86281935.123 7
                        49.250          45.100

  20304717.500
  20304721.540   108387997.817 8  84301788.022 7
                        50.150          47.300

  22765400.000
  22765402.020   121907728.419 7  94817147.108 7
                        46.700          42.050

  22741881.940
  22741884.200   121696434.800 7  94652797.131 6
                        47.600          41.700

  21838534.420
  21838537.620   116657562.803 8  90733697.253 6
                        49.400          41.350

  22082221.760
  22082222.340   118124995.529 7  91874998.308 7
                        47.450          42.250

  22872273.640
  22872276.120   122222516.621 7  95061983.776 5
                        46.100          35.250

  23642102.080
  23642108.840   126247505.963 7  98192538.734 6
                        45.050          37.000

  25696858.020                    25696858.120    25696876.540    25696877.720
                 135037940.112 8                 100840039.246 7 103470722.622 7
 102155433.874 6        51.050                          47.350          46.750
        41.850
  28411488.020                    28411489.820    28411509.320    28411509.880
                 149303493.317 7                 111492947.106 7 114401526.606 7
 112947223.296 6        45.950                          44.500          44.000
        38.500
  38396256.960
                 201774196.763 7
                        45.100

  38732170.520
                 203538977.013 7
                        45.600

 13  7 19  0  3 30.0000000  0 23G13G04G17G32G10G01G20G31G23G11R03R02
                                R18R04R17R12R19R11R13E11E19S26S20
  22583505.880
  22583503.420   118677181.269 8  92475745.592 6
                        49.050          38.600

  23284051.320
  23284049.660   122358535.037 7  95344324.175 5
                        46.650          34.350

  22371855.460    22371852.420
  22371852.040   117564915.733 8  91609016.934 7
                        50.200          44.300

  21857018.300
  21857014.780   114859562.836 8  89501043.740 7
                        50.100          42.250

  25324546.560
  25324546.660   133081390.270 7 103699781.016 5
                        42.650          30.850

  21865043.440    21865043.800    21865042.320
  21865042.740   114901684.654 8  89533836.619 7  85803263.092 8
                        49.950          45.850          51.800

  20102527.340
  20102522.400   105639643.972 8  82316639.323 7
                        49.350          47.600

  23209084.620    23209080.980
  23209080.180   121964600.505 7  95037357.607 6
                        47.600          41.550

  20952962.160
  20952955.840   110108649.015 8  85798958.728 7
                        50.650          45.000

  24292084.240
  24292081.460   127655853.231 7  99472130.677 5
                        46.350          35.950

  19628895.680
  19628895.000   105075125.197 7  81725131.379 7
                        47.850          46.400

  20802668.760
  20802670.960   111007173.592 8  86338995.664 7
                        49.300          44.950

  20315315.460
  20315319.380   108444569.926 8  84345788.525 7
                        50.250          47.150

  22747621.040
  22747623.200   121812523.699 7  94743099.086 6
                        45.900          41.850

  22767092.200
  22767094.440   121831339.106 7  94757722.613 6
                        46.950          40.800

  21827698.460
  21827701.840   116599678.988 8  90688676.537 6
                        49.400          41.350

  22065554.220
  22065554.820   118035836.301 7  91805652.308 6
                        47.450          41.800

  22883666.020
  22883668.500   122283394.174 7  95109332.990 5
                        45.800          34.300

  23618247.020
  23618252.760   126120119.722 7  98093460.586 6
                        43.100          36.450

  25713550.900                    25713550.900    25713569.340    25713570.540
                 135125661.181 8                 100905545.188 7 103537937.419 7
 102221794.244 7        51.050                          47.750          47.000
        42.250
  28425903.300                    28425905.360    28425924.740    28425925.480
                 149379247.024 7                 111549516.395 7 114459571.627 7
 113004530.451 6        46.750                          46.050          46.050
        40.400
  38395809.200
                 201771843.311 7
                        45.100

  38732184.520
                 203539049.570 7
                        45.700

 13  7 19  0  4  0.0000000  0 23G13G04G17G32G10G01G20G31G23G11R03R02
                                R18R04R17R12R19R11R13E11E19S26S20
  22564372.440
  22564370.040   118576634.450 8  92397397.486 6
                        49.250          40.800

  23265164.380
  23265162.620   122259284.181 7  95266985.923 6
                        46.100          36.900

  22378447.080    22378443.920
  22378443.540   117599554.099 8  91636007.863 7
                        50.000          46.100

  21869727.080
  21869723.520   114926347.941 8  89553084.080 7
                        50.050          44.200

  25304803.060
  25304803.120   132977638.223 7 103618935.413 5
                        42.950          33.800

  21881383.680    21881383.940    21881382.400
  21881382.860   114987552.869 8  89600746.896 7  85867385.438 8
                        50.000          47.300          51.300

  20105233.380
  20105228.540   105653864.473 8  82327720.242 8
                        49.400          49.150

  23215351.720    23215348.020
  23215347.320   121997534.007 7  95063020.072 7
                        47.600          43.350

  20942750.080
  20942743.760   110054984.433 8  85757142.190 7
                        50.600          46.250

  24313850.280
  24313847.520   127770233.663 7  99561258.209 6
                        46.600          37.300

  19624839.780
  19624839.260   105053413.706 7  81708244.688 7
                        47.450          46.100

  20816459.640
  20816461.920   111080764.303 8  86396232.890 7
                        49.300          44.550

  20326053.580
  20326057.380   108501889.924 8  84390370.741 7
                        50.250          46.700

  22729871.660
  22729873.820   121717477.994 7  94669174.742 6
                        46.550          41.700

  22792334.600
  22792336.660   121966415.757 7  94862782.164 6
                        46.300          40.850

  21816993.860
  21816997.500   116542496.920 8  90644201.621 6
                        49.600          40.800

  22048997.040
  22048997.520   117947266.783 7  91736764.965 6
                        47.000          41.550

  22895191.540
  22895193.900   122344983.032 7  95157235.450 5
                        45.950          33.350

  23594412.480
  23594418.280   125992850.084 6  97994473.213 5
                        39.100          34.950

  25730274.000                    25730274.020    25730292.420    25730293.700
                 135213541.586 8                 100971170.125 7 103605274.320 8
 102288275.162 7        51.150                          46.550          48.150
        43.550
  28440316.780                    28440319.100    28440338.340    28440339.100
                 149454990.546 7                 111606078.061 7 114517608.831 7
 113061829.886 6        46.200                          44.200          46.100
        40.900
  38395361.260
                 201769486.877 7
                        45.350

  38732198.380
                 203539121.030 7
                        45.800

 13  7 19  0  4 30.0000000  0 23G13G04G17G32G10G01G20G31G23G11R03R02
                                R18R04R17R12R19R11R13E11E19S26S20
  22545291.100
  22545288.560   118476361.074 8  92319262.454 6
                        49.650          40.250

  23246320.340
  23246318.880   122160259.039 7  95189823.571 5
                        46.450          35.850

  22385142.800    22385139.800
  22385139.400   117634740.637 8  91663425.917 7
                        50.350          45.950

  21882474.480
  21882470.980   114993336.135 8  89605282.663 7
                        50.350          43.700

  25285064.980
  25285065.200   132873915.870 7 103538112.911 5
                        43.050          34.000

  21897789.020    21897789.280    21897787.720
  21897788.200   115073763.142 8  89667923.710 7  85931763.206 8
                        50.250          47.350          51.600

  20108012.700
  20108007.820   105668469.562 8  82339100.835 8
                        49.900          48.900

  23221728.000    23221724.260
  23221723.600   122031041.248 8  95089129.602 7
                        48.300          42.850

  20932620.820
  20932614.600   110001755.532 8  85715665.145 7
                        50.800          45.850

  24335629.580
  24335626.920   127884684.407 7  99650440.501 6
                        47.200          37.200

  19620857.460
  19620857.040   105032096.651 7  81691664.782 7
                        47.950          45.950

  20830293.040
  20830295.220   111154581.904 8  86453646.574 7
                        49.550          44.550

  20336931.340
  20336935.180   108559956.134 8  84435533.316 7
                        50.550          46.900

  22712152.580
  22712154.600   121622592.868 7  94595375.288 7
                        47.350          42.650

  22817608.520
  22817610.720   122101661.699 7  94967973.353 6
                        45.950          41.650

  21806421.400
  21806425.060   116486020.552 8  90600275.581 6
                        50.000          41.050

  22032550.860
  22032551.400   117859291.716 7  91668339.974 6
                        47.850          41.550

  22906849.860
  22906852.160   122407281.404 7  95205689.768 5
                        46.550          34.050

  23570601.140
  23570606.820   125865702.459 6  97895580.732 6
                        40.750          36.200

  25747027.300                    25747027.340    25747045.640    25747046.980
                 135301580.359 8                 101036913.313 7 103672732.557 8
 102354875.874 7        51.450                          47.200          48.000
        43.200
  28454728.540                    28454730.940    28454750.020    28454750.800
                 149530724.611 8                 111662632.677 7 114575638.783 7
 113119122.171 6        48.400                          45.800          46.950
        41.850
  38394913.040
                 201767128.504 7
                        45.800

  38732211.640
                 203539191.584 7
                        46.250

 13  7 19  0  5  0.0000000  0 23G13G04G17G32G10G01G20G31G23G11R03R02
                                R18R04R17R12R19R11R13E11E19S26S20
  22526262.000
  22526259.360   118376361.997 8  92241341.153 6
                        49.700          39.700

  23227519.500
  23227518.100   122061460.906 7  95112838.088 5
                        46.250          34.700

  22391942.480    22391939.580
  22391939.100   117670473.635 8  91691269.786 7
                        50.150          45.150

  21895260.120
  21895256.720   115060525.169 8  89657637.746 7
                        50.250          43.600

  25265332.560
  25265332.800   132770222.801 7 103457313.194 5
                        45.800          31.550

  21914258.940    21914259.160    21914257.620
  21914258.160   115160312.683 8  89735364.867 7  85996394.314 8
                        50.100          47.000          51.300

  20110864.940
  20110859.960   105683457.819 8  82350779.994 8
                        49.550          48.300

  23228212.960    23228209.220
  23228208.540   122065119.854 8  95115684.356 7
                        48.100          42.600

  20922574.400
  20922568.260   109948961.764 8  85674527.173 7
                        50.700          45.700

  24357421.700
  24357419.220   127999202.253 7  99739675.071 6
                        46.850          36.650

  19616948.720
  19616948.040   105011172.533 7  81675390.462 7
                        47.700          46.100

  20844168.420
  20844170.580   111228623.703 8  86511234.631 7
                        49.150          44.750

  20347948.180
  20347952.100   108618764.796 8  84481273.361 7
                        50.000          47.000

  22694463.180
  22694465.320   121527867.619 7  94521700.201 7
                        46.450          42.350

  22842913.000
  22842915.460   122237071.292 7  95073291.814 6
                        44.500          41.700

  21795981.300
  21795985.040   116430251.618 8  90556899.777 6
                        49.650          41.050

  22016216.360
  22016217.040   117771913.495 7  91600379.179 6
                        47.600          41.800

  22918640.260
  22918642.660   122470285.473 7  95254692.942 5
                        45.700          34.400

  23546814.480
  23546819.300   125738680.250 7  97796785.765 6
                        43.000          38.300

  25763810.260                    25763810.160    25763828.460    25763829.780
                 135389774.450 8                 101102772.488 7 103740309.803 7
 102421594.086 7        51.300                          46.600          47.850
        42.950
  28469138.360                    28469140.520    28469159.580    28469160.500
                 149606447.500 8                 111719178.951 7 114633660.193 7
 113176406.012 6        48.550                          45.400          46.850
        41.850
  38394462.840
                 201764766.549 7
                        45.400

  38732224.260
                 203539258.699 7
                        45.900

 13  7 19  0  5 30.0000000  0 23G13G04G17G32G10G01G20G31G23G11R03R02
                                R18R04R17R12R19R11R13E11E19S26S20
  22507285.720
  22507282.900   118276640.518 8  92163636.170 6
                        49.750          39.700

  23208762.720
  23208761.460   121962893.601 7  95036032.484 6
                        45.750          36.350

  22398846.220    22398843.360
  22398842.820   117706752.905 8  91719539.328 7
                        50.050          45.250

  21908084.200
  21908080.700   115127915.762 8  89710149.892 7
                        50.300          43.750

  25245606.340
  25245606.440   132666560.970 7 103376537.822 5
                        42.650          30.800

  21930793.280    21930793.680    21930792.000
  21930792.620   115247201.336 8  89803070.287 7  86061278.668 8
                        50.000          47.050          51.450

  20113790.100
  20113785.260   105698830.430 8  82362758.653 8
                        49.450          48.350

  23234806.800    23234803.100
  23234802.260   122099770.462 8  95142684.834 7
                        48.050          42.450

  20912611.460
  20912605.180   109896605.820 8  85633730.352 7
                        50.850          45.850

  24379226.480
  24379223.980   128113786.528 7  99828961.423 6
                        47.150          36.350

  19613113.600
  19613113.000   104990642.993 7  81659423.054 7
                        47.600          46.750

  20858085.960
  20858088.220   111302890.240 8  86568997.483 7
                        49.350          45.450

  20359103.800
  20359107.880   108678314.571 8  84527589.826 7
                        50.150          47.600

  22676804.260
  22676806.240   121433304.709 7  94448151.350 7
                        47.000          42.700

  22868247.700
  22868250.100   122372642.293 7  95178735.851 7
                        45.000          42.350

  21785674.460
  21785678.160   116375194.804 8  90514077.837 6
                        49.600          41.550

  21999994.300
  21999995.200   117685137.533 7  91532886.808 7
                        47.300          42.550

  22930562.260
  22930564.700   122533993.144 7  95304243.369 5
                        45.300          35.000

  23523052.220
  23523057.200   125611789.401 7  97698092.979 6
                        43.700          40.550

  25780622.580                    25780622.380    25780640.860    25780642.040
                 135478123.562 8                 101168747.441 7 103808005.837 7
 102488429.579 7        51.250                          46.750          47.350
        42.300
  28483545.980                    28483548.140    28483567.280    28483568.220
                 149682160.708 8                 111775717.960 7 114691674.129 7
 113233682.483 6        48.650                          43.750          45.600
        39.650
  38394012.400
                 201762399.863 7
                        45.350

  38732236.420
                 203539323.733 7
                        45.900

 13  7 19  0  6  0.0000000  0 24G13G25G04G17G32G10G01G20G31G23G11R03
                                R02R18R04R17R12R19R11R13E11E19S26S20
  22488362.360
  22488359.380   118177197.199 8  92086147.930 6
                        49.700          40.650

  25677035.580                    25677036.120
  25677037.760   134933741.001 6 105143197.64515 100762205.30616
                        39.100          31.100          38.800

  23190050.140
  23190048.800   121864558.293 7  94959407.653 6
                        46.200          38.950

  22405853.080    22405850.260
  22405849.740   117743574.647 8  91748231.572 7
                        49.950          45.750

  21920946.120
  21920942.620   115195505.692 8  89762817.362 7
                        50.250          44.150

  25225885.760
  25225886.300   132562930.485 6 103295786.979 5
                        40.950          31.200

  21947391.620    21947392.040    21947390.440
  21947391.040   115334426.149 8  89871037.635 7  86126414.037 8
                        50.150          47.550          50.700

  20116788.280
  20116783.480   105714585.985 8  82375035.712 8
                        49.650          49.050

  23241508.980    23241505.320
  23241504.420   122134990.642 8  95170129.128 7
                        48.400          43.150

  20902731.720
  20902725.300   109844686.957 8  85593274.118 7
                        50.850          46.600

  24401043.260
  24401040.540   128228433.692 7  99918296.779 6
                        46.800          36.900

  19609351.800
  19609351.360   104970506.137 7  81643761.073 7
                        47.600          45.700

  20872045.040
  20872047.440   111377378.590 8  86626932.868 7
                        49.000          44.300

  20370397.600
  20370401.860   108738602.010 8  84574480.032 7
                        49.750          46.600

  22659175.380
  22659177.320   121338903.227 7  94374728.068 6
                        46.150          41.950

  22893611.560
  22893614.140   122508369.196 7  95284301.116 6
                        45.850          41.500

  21775501.240
  21775504.900   116320851.954 8  90471811.207 6
                        49.350          40.200

  21983885.460
  21983886.360   117598966.267 7  91465864.766 6
                        47.550          41.100

  22942615.220
  22942617.820   122598400.866 7  95354338.268 5
                        45.450          34.300

  23499314.560
  23499320.140   125485033.082 7  97599504.840 6
                        44.600          39.700

  25797463.800                    25797463.640    25797482.060    25797483.240
                 135566624.540 8                 101234835.786 7 103875818.230 7
 102555379.946 7        51.150                          45.350          47.350
        42.300
  28497951.660                    28497953.800    28497972.860    28497973.820
                 149757862.692 8                 111832248.599 6 114749679.481 7
 113290950.479 6        49.450                          41.650          44.650
        38.800
  38393560.960
                 201760028.452 7
                        45.450

  38732248.480
                 203539388.488 7
                        45.950

 13  7 19  0  6 30.0000000  0 24G13G25G04G17G32G10G01G20G31G23G11R03
                                R02R18R04R17R12R19R11R13E11E19S26S20
  22469492.100
  22469489.080   118078033.618 8  92008877.671 6
                        50.100          40.900

  25674597.720                    25674598.200
                 134920926.634 5                 100752635.989 6
                        32.750                          36.600

  23171381.980
  23171380.840   121766456.705 7  94882964.951 6
                        47.250          38.000

  22412962.900    22412960.140
  22412959.660   117780937.014 8  91777345.092 7
                        50.800          47.100

  21933845.680
  21933842.260   115263293.463 8  89815638.998 7
                        50.700          44.550

  25206171.700
  25206171.920   132459330.966 7 103215060.210 5
                        44.700          33.650

  21964053.580    21964053.920    21964052.200
  21964052.920   115421984.930 8  89939265.228 8  86191798.814 8
                        50.700          48.600          50.650

  20119859.180
  20119854.420   105730723.595 8  82387610.470 8
                        50.150          49.650

  23248319.160    23248315.480
  23248314.620   122170778.382 8  95198015.673 7
                        49.050          44.400

  20892935.220
  20892928.680   109793205.569 8  85553158.771 7
                        51.400          47.350

  24422871.380
  24422868.620   128343141.313 7 100007679.235 6
                        47.000          37.300

  19605663.380
  19605662.840   104950761.323 7  81628404.015 7
                        47.900          46.350

  20886045.360
  20886047.720   111452087.055 8  86685039.446 7
                        49.250          45.050

  20381828.880
  20381833.280   108799623.362 8  84621941.050 7
                        50.000          47.350

  22641576.660
  22641578.680   121244663.242 7  94301430.429 7
                        46.950          42.650

  22919003.740
  22919006.520   122644247.203 7  95389983.919 7
                        46.400          42.300

  21765462.200
  21765465.760   116267225.220 8  90430101.557 6
                        49.550          41.150

  21967890.420
  21967891.180   117513402.835 7  91399315.494 7
                        47.450          42.200

  22954798.540
  22954801.500   122663505.208 7  95404974.991 5
                        45.000          35.700

  23475603.040
  23475608.840   125358415.272 7  97501024.479 6
                        45.550          40.700

  25814333.380                    25814333.280    25814351.640    25814352.860
                 135655274.999 8                 101301035.763 7 103943745.163 7
 102622443.401 6        51.450                          45.050          46.800
        41.650
  28512355.160                    28512357.580    28512376.080    28512377.360
                 149833552.641 8                 111888770.235 6 114807675.623 7
 113348209.369 6        50.000                          40.600          43.600
        37.550
  38393109.280
                 201757654.582 7
                        46.550

  38732260.100
                 203539451.173 7
                        46.850

 13  7 19  0  7  0.0000000  0 23G13G04G17G32G10G01G20G31G23G11R03R02
                                R18R04R17R12R19R11R13E11E19S26S20
  22450675.840
  22450672.800   117979153.925 8  91931828.619 6
                        49.350          40.150

  23152759.240
  23152758.020   121668593.730 7  94806708.136 6
                        46.450          38.050

  22420175.860    22420173.020
  22420172.560   117818840.915 8  91806880.573 7
                        50.250          45.000

  21946783.100
  21946779.780   115331280.642 8  89868616.008 7
                        50.250          43.700

  25186464.160
  25186463.720   132355765.673 7 103134360.072 5
                        44.700          31.700

  21980779.200    21980779.480    21980777.740
  21980778.500   115509878.370 8  90007753.596 7  86257433.496 8
                        50.050          47.100          52.150

  20123003.180
  20122998.460   105747245.826 8  82400484.938 8
                        49.700          48.100

  23255237.600    23255233.940
  23255233.040   122207135.040 8  95226345.528 7
                        48.300          43.250

  20883222.500
  20883216.000   109742164.765 8  85513386.738 7
                        50.950          45.550

  24444711.020
  24444708.320   128457909.412 7 100097108.842 5
                        46.050          34.500

  19602048.560
  19602047.940   104931410.850 7  81613353.653 7
                        47.600          45.650

  20900087.200
  20900089.420   111527016.825 8  86743318.135 7
                        49.100          44.950

  20393397.660
  20393402.080   108861378.469 8  84669972.767 7
                        49.750          46.550

  22624008.860
  22624010.620   121150587.863 7  94228260.771 6
                        47.100          41.950

  22944423.940
  22944426.480   122780274.779 7  95495783.051 6
                        46.700          41.600

  21755558.320
  21755561.860   116214320.353 8  90388953.354 6
                        49.600          40.350

  21952010.200
  21952010.600   117428453.349 7  91333243.718 7
                        47.700          42.000

  22967112.160
  22967115.220   122729305.452 7  95456152.948 5
                        44.100          35.350

  23451919.140
  23451924.180   125231942.899 7  97402657.198 6
                        46.000          39.400

  25831231.400                    25831231.440    25831249.820    25831251.020
                 135744075.450 8                 101367347.741 7 104011787.021 7
 102689620.320 7        50.950                          47.800          47.500
        43.000
  28526756.580                    28526759.200    28526777.260    28526778.740
                 149909232.824 8                 111945284.594 6 114865664.257 6
 113405460.862 5        48.800                          39.650          41.400
        35.350
  38392657.360
                 201755279.132 7
                        45.700

  38732272.520
                 203539516.703 7
                        46.150

 13  7 19  0  7 30.0000000  0 23G13G04G17G32G10G01G20G31G23G11R03R02
                                R18R04R17R12R19R11R13E11E19S26S20
  22431913.580
  22431910.680   117880558.679 8  91855001.226 6
                        49.050          39.800

  23134182.160
  23134180.940   121570970.528 7  94730638.179 6
                        46.400          37.200

  22427491.280    22427488.380
  22427487.880   117857283.467 8  91836835.786 7
                        50.000          44.350

  21959758.140
  21959754.860   115399464.964 8  89921746.634 7
                        50.150          44.000

  25166762.740
  25166762.600   132252234.267 7 103053686.370 4
                        43.250          29.950

  21997567.760    21997568.200    21997566.460
  21997567.160   115598103.613 8  90076500.504 7  86323315.943 8
                        49.650          46.600          52.000

  20126220.120
  20126215.320   105764150.815 8  82413657.649 8
                        49.550          48.550

  23262263.860    23262260.120
  23262259.360   122244058.049 8  95255116.689 7
                        48.000          42.700

  20873593.540
  20873587.100   109691564.262 8  85473957.800 7
                        50.700          45.350

  24466561.580
  24466559.000   128572734.743 7 100186583.013 6
                        45.450          36.300

  19598507.020
  19598506.480   104912453.038 7  81598608.703 7
                        47.600          47.300

  20914169.960
  20914172.340   111602165.323 8  86801766.950 7
                        49.000          46.350

  20405103.220
  20405107.660   108923863.290 8  84718572.036 8
                        49.700          48.000

  22606471.560
  22606473.120   121056676.586 7  94155218.761 7
                        47.100          43.600

  22969871.240
  22969873.480   122916446.841 7  95601694.592 7
                        47.150          43.150

  21745789.800
  21745793.300   116162138.649 8  90348367.609 7
                        49.650          42.050

  21936244.980
  21936245.280   117344119.871 7  91267651.069 7
                        47.550          43.650

  22979555.140
  22979558.340   122795797.616 7  95507869.061 6
                        44.050          37.050

  23428262.800
  23428267.160   125105619.160 7  97304405.505 6
                        45.400          40.650

  25848157.440                    25848157.600    25848175.860    25848177.200
                 135833022.921 8                 101433769.499 7 104079941.527 7
 102756908.453 6        50.650                          47.850          46.650
        41.300
  28541155.920                    28541158.460    28541176.380    28541178.360
                 149984901.919 8                 112001790.705 6 114923644.492 6
 113462704.039 5        50.050                          38.600          38.500
        31.600
  38392204.840
                 201752904.061 7
                        45.300

  38732285.220
                 203539583.245 7
                        45.800

 13  7 19  0  8  0.0000000  0 24G13G25G04G17G32G10G01G20G31G23G11R03
                                R02R18R04R17R12R19R11R13E11E19S26S20
  22413205.880
  22413203.140   117782249.890 8  91778397.038 6
                        49.300          40.250

                                  25667897.360
                                                 100726341.95416
                                                        39.150

  23115651.040
  23115649.780   121473589.214 7  94654756.711 6
                        46.750          37.650

  22434908.820    22434905.900
  22434905.380   117896262.921 8  91867209.366 7
                        49.900          45.050

  21972770.540
  21972767.220   115467845.483 8  89975030.145 7
                        50.200          43.700

  25147066.980
  25147067.500   132148737.586 7 102973039.788 5
                        43.150          34.000

  22014419.180    22014419.720    22014417.940
  22014418.680   115686658.767 8  90145504.493 7  86389444.767 8
                        49.750          47.000          51.550

  20129509.860
  20129505.060   105781438.355 8  82427128.457 8
                        49.550          48.650

  23269397.680    23269393.920
  23269393.080   122281546.219 8  95284328.240 7
                        48.100          43.200

  20864048.420
  20864042.140   109641404.663 8  85434872.424 7
                        50.850          45.900

  24488422.620
  24488420.080   128687615.026 7 100276100.013 5
                        45.150          33.950

  19595038.880
  19595038.340   104893887.556 7  81584168.903 7
                        47.750          46.850

  20928293.500
  20928296.000   111677531.190 8  86860384.843 7
                        49.050          45.450

  20416944.900
  20416949.380   108987074.947 8  84767736.632 7
                        49.450          47.650

  22588964.920
  22588966.540   120962929.637 7  94082304.569 7
                        47.750          42.550

  22995344.580
  22995346.700   123052758.793 7  95707714.931 6
                        46.250          41.800

  21736157.220
  21736160.640   116110683.245 8  90308346.772 6
                        49.800          41.650

  21920595.680
  21920596.000   117260406.492 7  91202540.702 7
                        47.400          42.650

  22992127.020
  22992130.420   122862978.479 7  95560120.829 6
                        44.200          36.200

  23404634.780
  23404639.040   124979448.472 7  97206272.881 6
                        45.650          40.350

  25865111.080                    25865111.440    25865129.540    25865130.960
                 135922115.345 8                 101500299.501 7 104148207.100 7
 102824306.239 7        50.650                          46.850          47.550
        42.900
  28555553.320                    28555556.740    28555574.180
                 150060559.148 8                 112058287.987 4 114981615.618 5
                        49.450                          29.550          33.300

  38391752.860
                 201750527.684 7
                        45.550

  38732298.140
                 203539649.364 7
                        45.900

 13  7 19  0  8 30.0000000  0 24G13G25G04G17G32G10G01G20G31G23G11R03
                                R02R18R04R17R12R19R11R13E11E19S26S20
  22394552.940
  22394550.340   117684228.743 8  91702016.998 6
                        49.200          39.800

  25665870.580    25665870.860    25665870.640
  25665868.500   134875061.41516 105097435.35715 100718383.862 6
                        36.650          34.400          41.650

  23097166.400
  23097165.100   121376451.941 7  94579065.386 6
                        46.950          37.400

  22442428.060    22442425.200
  22442424.620   117935776.597 8  91897999.221 7
                        49.950          44.650

  21985820.040
  21985816.680   115536420.787 8  90028465.434 7
                        50.200          43.700

  25127378.880
  25127379.100   132045275.860 7 102892420.352 5
                        45.050          33.150

  22031332.940    22031333.540    22031331.860
  22031332.520   115775541.648 8  90214763.846 7  86455818.302 8
                        49.800          46.600          51.650

  20132872.240
  20132867.540   105799108.018 8  82440897.025 8
                        49.550          48.500

  23276638.660    23276634.880
  23276634.100   122319597.684 8  95313978.710 7
                        48.350          43.000

  20854587.240
  20854581.000   109591686.207 8  85396130.797 7
                        50.650          45.700

  24510293.620
  24510291.160   128802547.773 7 100365657.876 5
                        44.800          34.050

  19591643.920
  19591643.300   104875713.757 7  81570033.733 7
                        47.600          45.700

  20942457.420
  20942459.900   111753112.662 8  86919170.409 7
                        48.950          44.100

  20428922.080
  20428926.580   109051009.945 8  84817463.825 7
                        49.600          46.400

  22571489.100
  22571490.660   120869347.203 7  94009518.306 6
                        47.900          40.600

  23020843.120
  23020845.380   123189206.310 7  95813840.709 6
                        45.700          39.450

  21726661.000
  21726664.140   116059956.177 8  90268892.407 6
                        49.400          40.100

  21905062.720
  21905063.000   117177316.199 7  91137914.969 6
                        47.700          41.350

  23004827.240
  23004830.580   122930844.590 7  95612905.570 5
                        44.000          35.250

  23381036.360
  23381040.920   124853434.586 7  97108262.204 6
                        45.900          39.450

  25882091.960                    25882092.340    25882110.360    25882111.880
                 136011350.385 8                 101566935.994 7 104216581.946 7
 102891811.912 6        50.400                          47.000          46.600
        41.650
  28569948.260                    28569952.040    28569969.160
                 150136204.152 8                 112114776.284 5 115039577.529 5
                        48.600                          34.400          33.900

  38391300.000
                 201748148.385 7
                        45.350

  38732310.260
                 203539713.021 7
                        45.750

 13  7 19  0  9  0.0000000  0 24G13G25G04G17G32G10G01G20G31G23G11R03
                                R02R18R04R17R12R19R11R13E11E19S26S20
  22375955.100
  22375952.460   117586496.505 8  91625862.081 6
                        49.650          39.200

  25663944.640    25663944.740    25663945.380
  25663943.200   134864943.853 7 105089561.50016 100710828.483 7
                        43.500          37.650          43.250

  23078728.600
  23078727.240   121279560.834 7  94503565.888 6
                        47.400          36.500

  22450048.580    22450045.720
  22450045.180   117975822.498 8  91929203.784 7
                        50.200          44.800

  21998906.260
  21998902.900   115605189.455 8  90082051.400 7
                        50.300          43.550

  25107697.720
  25107697.640   131941849.365 7 102811828.391 5
                        44.100          34.150

  22048308.720    22048309.360    22048307.680
  22048308.340   115864750.093 8  90284276.893 7  86522434.974 8
                        49.850          46.600          50.650

  20136307.180
  20136302.400   105817158.734 8  82454962.518 8
                        49.850          48.300

  23283986.480    23283982.720
  23283981.940   122358210.765 8  95344066.820 7
                        48.450          42.750

  20845210.000
  20845203.900   109542409.408 8  85357733.322 7
                        50.700          45.900

  24532174.100
  24532171.780   128917530.364 7 100455254.616 5
                        44.500          32.150

  19588321.840
  19588321.340   104857930.948 7  81556202.679 7
                        47.650          46.050

  20956661.320
  20956663.760   111828907.914 8  86978122.251 7
                        48.950          44.250

  20441034.120
  20441038.660   109115665.114 8  84867751.158 7
                        49.250          46.800

  22554043.960
  22554045.300   120775929.771 7  93936860.389 6
                        47.700          40.500

  23046366.060
  23046368.260   123325784.876 7  95920068.413 6
                        45.050          38.900

  21717301.480
  21717304.420   116009959.678 8  90230006.274 6
                        49.600          40.350

  21889646.860
  21889647.060   117094852.035 7  91073776.208 6
                        47.400          41.900

  23017655.020
  23017658.320   122999392.275 7  95666220.427 5
                        44.300          35.400

  23357468.240
  23357473.100   124727582.149 7  97010377.103 6
                        45.250          40.150

  25899099.540                    25899099.960    25899118.000    25899119.560
                 136100725.755 8                 101633677.279 7 104285064.316 7
 102959423.738 6        50.550                          45.350          46.800
        41.900
  28584340.280                    28584343.780    28584360.720
                 150211836.143 8                 112171254.692 5 115097529.238 6
                        48.050                          34.300          37.800

  38390846.380
                 201745764.972 7
                        45.750

  38732321.180
                 203539772.274 7
                        46.100

 13  7 19  0  9 30.0000000  0 24G13G25G04G17G32G10G01G20G31G23G11R03
                                R02R18R04R17R12R19R11R13E11E19S26S20
  22357412.980
  22357410.280   117489057.152 8  91549935.375 6
                        49.300          40.550

  25662122.540    25662122.800    25662122.840
  25662121.840   134855368.043 6 105082099.838 6 100703677.750 7
                        41.150          38.200          42.550

  23060338.420
  23060336.920   121182919.605 7  94428261.098 6
                        47.250          37.950

  22457770.440    22457767.460
  22457767.000   118016400.436 8  91960822.932 7
                        50.050          45.300

  22012029.460
  22012026.140   115674152.402 8  90135788.753 7
                        50.200          44.450

  25088023.420
  25088023.580   131838460.620 6 102731265.874 5
                        41.550          34.600

  22065346.480    22065347.140    22065345.440
  22065346.080   115954284.194 8  90354043.701 7  86589294.823 8
                        49.650          47.100          50.950

  20139814.920
  20139810.080   105835592.003 8  82469326.109 8
                        49.450          49.150

  23291441.240    23291437.500
  23291436.720   122397385.783 8  95374592.804 7
                        48.350          43.900

  20835917.280
  20835911.180   109493576.329 8  85319681.605 7
                        50.600          46.750

  24554064.060
  24554061.500   129032562.420 7 100544889.874 5
                        44.700          35.550

  19585073.200
  19585072.660   104840540.711 7  81542676.955 7
                        47.900          45.100

  20970905.620
  20970907.980   111904917.718 8  87037240.976 7
                        49.300          43.350

  20453280.860
  20453285.400   109181039.162 8  84918597.609 7
                        49.600          45.900

  22536630.080
  22536631.380   120682679.639 7  93864332.592 6
                        47.900          39.900

  23071913.040
  23071915.200   123462492.156 7  96026396.242 6
                        44.300          37.350

  21708079.720
  21708082.540   115960698.715 8  90191692.225 6
                        49.950          39.650

  21874349.120
  21874349.260   117013019.489 8  91010128.722 6
                        48.100          40.900

  23030610.160
  23030613.400   123068620.580 7  95720064.679 5
                        44.700          34.750

  23333931.000
  23333936.280   124601896.904 7  96912622.069 6
                        44.900          38.400

  25916133.840                    25916134.280    25916152.280    25916153.900
                 136190241.401 8                 101700523.302 7 104353654.156 7
 103027141.669 7        50.300                          45.900          47.300
        42.600
  28598730.320                    28598732.960    28598750.500
                 150287456.713 7                 112227724.651 6 115155472.292 6
                        46.750                          36.700          38.400

  38390392.400
                 201743379.107 7
                        45.350

  38732331.740
                 203539829.120 7
                        45.750

 13  7 19  0 10  0.0000000  0 24G13G25G04G17G32G10G01G20G31G23G11R03
                                R02R18R04R17R12R19R11R13E11E19S26S20
  22338926.860
  22338924.140   117391912.272 8  91474238.136 6
                        49.250          39.800

  25660403.580    25660403.660    25660403.420
  25660403.120   134846334.198 7 105075060.489 5 100696931.720 6
                        42.000          34.100          41.200

  23041996.340
  23041994.580   121086530.885 7  94353153.056 6
                        47.350          37.550

  22465593.160    22465590.040
  22465589.520   118057508.490 8  91992855.159 7
                        49.950          44.600

  22025189.460
  22025186.160   115743308.551 8  90189676.646 7
                        50.100          44.100

  25068356.440
  25068356.880   131735110.182 7 102650733.163 6
                        42.900          36.100

  22082445.860    22082446.500    22082444.880
  22082445.480   116044142.035 8  90424062.767 7  86656396.414 8
                        49.550          46.300          51.050

  20143395.440
  20143390.680   105854407.712 8  82483987.697 8
                        49.400          48.950

  23299002.680    23298999.120
  23298998.120   122437121.442 8  95405555.649 7
                        48.200          43.600

  20826709.220
  20826703.060   109445187.647 8  85281976.165 7
                        50.550          45.950

  24575963.020
  24575960.320   129147641.527 7 100634561.818 5
                        44.600          34.850

  19581897.900
  19581897.220   104823542.621 8  81529456.221 7
                        48.050          45.900

  20985189.780
  20985192.140   111981140.464 8  87096525.321 7
                        49.350          44.200

  20465661.900
  20465666.280   109247129.239 8  84970000.973 7
                        49.750          46.600

  22519247.440
  22519248.800   120589596.932 7  93791935.026 6
                        47.600          40.900

  23097483.200
  23097485.480   123599323.780 7  96132820.774 6
                        44.500          37.950

  21698996.120
  21698999.160   115912175.503 8  90153951.991 6
                        50.200          40.600

  21859170.100
  21859170.340   116931821.992 7  90946975.152 7
                        47.750          42.000

  23043691.940
  23043695.320   123138526.135 7  95774435.658 5
                        45.150          35.550

  23310426.280
  23310431.180   124476383.163 7  96815000.401 6
                        45.300          38.400

  25933194.580                    25933194.940    25933212.980    25933214.480
                 136279895.249 8                 101767472.533 7 104422349.899 7
 103094964.155 6        50.450                          46.400          46.400
        41.550
  28613118.080                    28613120.500    28613138.800
                 150363065.567 7                 112284185.731 6 115213406.325 6
                        42.000                          39.700          39.800

  38389936.700
                 201740989.897 7
                        45.150

  38732342.320
                 203539886.744 7
                        45.550

 13  7 19  0 10 30.0000000  0 24G13G25G04G17G32G10G01G20G31G23G11R03
                                R02R18R04R17R12R19R11R13E11E19S26S20
  22320496.860
  22320494.140   117295062.199 8  91398770.602 6
                        49.250          40.000

  25658787.500    25658788.040    25658787.260
  25658787.820   134837841.801 6 105068443.009 5 100690590.003 6
                        39.950          33.900          41.850

  23023702.460
  23023700.540   120990395.560 7  94278242.466 6
                        47.200          37.000

  22473516.220    22473513.020
  22473512.500   118099144.236 8  92025298.573 7
                        50.050          44.150

  22038385.780
  22038382.460   115812655.749 8  90243713.410 7
                        50.100          43.700

  25048696.620
  25048696.740   131631797.622 7 102570229.986 5
                        42.400          35.800

  22099606.280    22099606.880    22099605.380
  22099605.880   116134320.498 8  90494331.671 7  86723737.439 8
                        49.600          46.300          51.150

  20147048.360
  20147043.580   105873603.860 8  82498945.728 8
                        49.450          48.050

  23306670.260    23306666.760
  23306665.760   122477414.907 8  95436953.149 7
                        48.300          43.150

  20817585.620
  20817579.420   109397242.963 8  85244616.695 7
                        50.500          45.350

  24597870.200
  24597867.600   129262764.412 7 100724267.843 5
                        44.850          35.300

  19578795.420
  19578794.800   104806935.027 7  81516539.224 7
                        47.850          46.150

  20999513.320
  20999515.740   112057573.695 8  87155973.369 7
                        49.200          44.300

  20478176.160
  20478180.480   109313930.688 8  85021957.626 7
                        49.450          46.700

  22501895.880
  22501897.360   120496681.232 7  93719667.371 6
                        46.800          41.650

  23123075.700
  23123078.140   123736274.428 7  96239337.871 6
                        43.850          38.200

  21690050.940
  21690054.240   115864391.663 8  90116786.817 6
                        50.100          40.850

  21844110.220
  21844110.440   116851261.716 8  90884317.189 7
                        48.050          42.350

  23056899.780
  23056903.080   123209104.341 7  95829329.814 5
                        45.450          35.700

  23286954.500
  23286959.080   124351044.468 7  96717514.849 6
                        45.150          38.400

  25950280.940                    25950281.320    25950299.280    25950300.800
                 136369684.101 8                 101834522.576 7 104491149.081 7
 103162888.767 6        50.550                          46.550          46.300
        41.600
  28627503.760                    28627506.480    28627524.720
                 150438660.910 7                 112340636.721 7 115271329.957 7
                        43.050                          42.100          42.350

  38389480.940
                 201738597.653 7
                        45.350

  38732352.860
                 203539942.208 7
                        45.850

 13  7 19  0 11  0.0000000  0 24G13G25G04G17G32G10G01G20G31G23G11R03
                                R02R18R04R17R12R19R11R13E11E19S26S20
  22302123.740
  22302120.820   117198510.647 8  91323535.694 6
                        49.300          40.350

  25657274.520    25657275.020    25657274.900
  25657275.220   134829892.698 6 105062249.014 5 100684654.090 7
                        37.800          34.900          42.400

  23005457.600
  23005455.420   120894517.951 7  94203532.700 6
                        47.200          36.950

  22481539.460    22481536.180
  22481535.780   118141306.626 8  92058152.346 7
                        49.900          44.700

  22051618.600
  22051615.260   115882194.543 8  90297899.469 7
                        50.050          44.400

  25029044.040
  25029044.100   131528525.176 6 102489758.111 5
                        41.600          34.200

  22116827.780    22116828.280    22116826.800
  22116827.260   116224819.387 8  90564850.261 7  86791317.747 8
                        49.600          46.450          51.050

  20150773.980
  20150769.160   105893181.989 8  82514201.406 8
                        49.450          48.800

  23314444.040    23314440.480
  23314439.540   122518266.339 8  95468785.419 7
                        48.300          43.550

  20808546.920
  20808540.680   109349744.382 8  85207604.834 7
                        50.450          46.150

  24619785.600
  24619782.860   129377930.290 7 100814007.372 5
                        44.900          35.000

  19575766.160
  19575765.580   104790719.161 7  81503926.890 7
                        47.850          46.550

  21013876.420
  21013878.780   112134217.800 8  87215585.429 7
                        49.250          44.650

  20490823.300
  20490827.680   109381442.180 8  85074466.536 7
                        49.300          47.000

  22484575.940
  22484577.480   120403934.503 7  93647531.157 7
                        46.700          42.750

  23148689.940
  23148692.560   123873341.593 7  96345945.564 6
                        43.150          39.450

  21681244.760
  21681248.420   115817351.336 8  90080199.925 6
                        49.550          41.100

  21829170.220
  21829170.760   116771343.643 7  90822158.728 7
                        47.750          42.750

  23070233.120
  23070236.320   123280353.609 7  95884745.911 6
                        45.300          36.300

  23263516.360
  23263520.800   124225887.144 7  96620170.359 6
                        43.550          38.350

  25967392.860                    25967393.280    25967411.200    25967412.840
                 136459607.651 8                 101901673.198 7 104560051.477 7
 103230915.277 7        50.400                          46.700          46.800
        42.100
  28641885.900                    28641889.760    28641907.900
                 150514244.064 6                 112397078.649 7 115329244.274 7
                        40.200                          42.050          43.800

  38389025.700
                 201736202.807 7
                        45.100

  38732364.160
                 203539999.822 7
                        45.600

 13  7 19  0 11 30.0000000  0 23G13G25G04G17G32G10G01G20G31G23G11R03
                                R02R18R04R17R12R19R11R13E11S26S20
  22283807.660
  22283804.660   117102258.994 8  91248534.474 6
                        49.550          40.100

  25655865.240    25655865.680    25655865.820
  25655865.680   134822486.913 7 105056478.293 5 100679123.790 7
                        44.600          35.900          43.800

  22987262.100
  22987259.800   120798900.037 7  94129025.296 6
                        47.150          36.900

  22489662.420    22489659.140
  22489658.740   118183993.084 8  92091414.483 7
                        49.850          43.950

  22064887.760
  22064884.340   115951924.000 8  90352234.106 7
                        50.150          44.250

  25009399.740
  25009399.920   131425293.772 7 102409318.146 5
                        44.150          34.900

  22134109.800    22134110.220    22134108.820
  22134109.280   116315636.855 8  90635617.092 7  86859135.947 8
                        49.500          46.150          51.600

  20154572.280
  20154567.380   105913141.809 8  82529754.511 8
                        49.400          48.400

  23322323.800    23322320.120
  23322319.280   122559674.416 8  95501051.446 7
                        48.350          43.200

  20799593.200
  20799587.000   109302692.329 8  85170940.915 7
                        50.550          45.650

  24641708.820
  24641706.180   129493137.014 7 100903778.736 5
                        45.300          35.350

  19572810.080
  19572809.340   104774894.777 7  81491619.040 7
                        47.900          46.550

  21028278.780
  21028281.040   112211071.219 8  87275360.294 7
                        49.550          44.700

  20503602.960
  20503607.340   109449660.622 8  85127525.293 7
                        49.550          47.000

  22467287.700
  22467289.380   120311357.483 7  93575526.937 7
                        46.450          43.200

  23174325.080
  23174327.960   124010521.028 7  96452640.587 6
                        44.050          40.950

  21672578.220
  21672582.080   115771057.041 8  90044193.276 6
                        49.450          41.200

  21814351.200
  21814351.440   116692071.488 8  90760502.637 7
                        48.150          42.650

  23083691.520
  23083694.600   123352270.948 7  95940681.626 6
                        45.300          36.000

  23240112.680
  23240117.540   124100915.223 7  96522970.119 6
                        44.100          38.350

  25984530.060                    25984530.460    25984548.380    25984550.080
                 136549663.906 8                 101968922.928 7 104629055.558 7
 103299042.183 7        50.600                          47.550          47.050
        42.400
  38388569.360
                 201733804.656 7
                        45.000

  38732376.060
                 203540059.580 7
                        45.450

 13  7 19  0 12  0.0000000  0 23G13G25G04G17G32G10G01G20G31G23G11R03
                                R02R18R04R17R12R19R11R13E11S26S20
  22265548.340
  22265545.200   117006305.376 8  91173765.476 7
                        49.600          42.000

  25654558.980    25654559.080    25654559.180
  25654558.740   134815621.162 7 105051128.291 6 100673996.712 7
                        44.300          39.650          45.100

  22969115.760
  22969113.320   120703540.458 7  94054719.180 6
                        46.950          38.000

  22497884.120    22497880.840
  22497880.320   118227198.415 8  92125080.942 7
                        50.000          45.400

  22078192.240
  22078188.780   116021839.351 8  90406713.589 7
                        50.250          45.250

  24989762.920
  24989763.360   131322100.362 7 102328907.833 6
                        43.300          37.150

  22151451.360    22151451.840    22151450.360
  22151450.920   116406767.252 8  90706627.757 7  86927187.832 8
                        49.550          47.550          51.300

  20158442.260
  20158437.380   105933478.678 8  82545601.422 8
                        49.450          49.400

  23330308.460    23330304.660
  23330303.900   122601633.709 8  95533746.985 7
                        48.250          44.200

  20790723.920
  20790717.680   109256083.761 8  85134622.569 7
                        50.550          46.800

  24663638.640
  24663636.120   129608378.756 7 100993577.407 6
                        45.000          36.850

  19569926.120
  19569925.560   104759457.556 7  81479612.325 7
                        47.600          46.850

  21042719.480
  21042721.740   112288128.953 8  87335294.073 7
                        49.200          44.950

  20516513.700
  20516517.980   109518578.874 8  85181128.353 7
                        49.200          47.050

  22450030.420
  22450032.140   120218946.566 7  93503651.910 7
                        46.550          43.450

  23199980.020
  23199983.160   124147804.826 7  96559416.762 6
                        44.850          41.200

  21664051.220
  21664054.980   115725507.514 8  90008765.893 6
                        49.550          41.600

  21799652.820
  21799652.840   116613444.590 8  90699348.418 7
                        48.100          43.250

  23097273.520
  23097276.520   123424848.771 7  95997131.052 6
                        45.400          36.500

  23216744.600
  23216749.340   123976129.260 7  96425914.470 6
                        45.700          39.850

  26001691.420                    26001691.940    26001709.820    26001711.500
                 136639847.159 8                 102036267.506 7 104698156.967 7
 103367265.175 7        50.600                          47.400          47.350
        42.650
  38388110.720
                 201731399.124 7
                        45.200

  38732386.980
                 203540114.085 7
                        45.600

 13  7 19  0 12 30.0000000  0 23G13G25G04G17G32G10G01G20G31G23G11R03
                                R02R18R04R17R12R19R11R13E11S26S20
  22247347.420
  22247344.180   116910658.693 8  91099235.659 6
                        49.750          40.550

  25653356.600    25653356.900    25653356.660
  25653356.240   134809303.104 7 105046205.160 6 100669278.715 7
                        43.200          37.600          44.200

  22951020.180
  22951017.860   120608448.657 7  93980621.726 5
                        47.100          35.150

  22506205.640    22506202.380
  22506201.780   118270928.085 8  92159155.968 7
                        50.200          43.800

  22091533.260
  22091529.780   116091946.811 8  90461342.766 7
                        50.550          43.750

  24970134.280
  24970134.580   131218952.597 7 102248533.089 5
                        43.900          34.100

  22168853.540    22168854.000    22168852.460
  22168853.100   116498216.026 8  90777886.521 7  86995477.471 8
                        49.850          46.250          50.550

  20162385.360
  20162380.480   105954200.029 8  82561747.925 7
                        49.650          47.900

  23338399.000    23338395.180
  23338394.400   122644149.710 8  95566876.335 7
                        48.500          42.800

  20781940.500
  20781934.260   109209926.312 8  85098655.747 7
                        50.700          45.450

  24685575.960
  24685573.840   129723660.416 7 101083407.141 5
                        45.400          35.800

  19567115.960
  19567115.500   104744414.681 7  81467912.328 7
                        47.900          47.850

  21057199.480
  21057201.700   112365397.076 8  87395391.484 7
                        49.050          45.600

  20529556.280
  20529560.680   109588201.354 8  85235279.139 7
                        49.000          47.950

  22432805.820
  22432807.600   120126709.984 7  93431912.453 7
                        47.450          44.400

  23225654.840
  23225657.780   124285196.415 7  96666276.848 7
                        45.300          42.750

  21655665.580
  21655668.980   115680712.428 8  89973925.310 7
                        49.900          42.550

  21785076.920
  21785077.260   116535473.769 7  90638704.468 7
                        47.900          44.050

  23110979.960
  23110983.000   123498091.411 7  96054097.552 6
                        46.100          37.300

  23193413.580
  23193418.340   123851541.283 7  96329012.797 6
                        46.350          41.700

  26018877.920                    26018878.460    26018896.460    26018898.040
                 136730162.666 8                 102103710.839 7 104767359.702 8
 103435588.210 7        50.750                          45.750          48.800
        43.400
  38387652.540
                 201728995.066 7
                        45.600

  38732398.180
                 203540172.258 7
                        45.850

 13  7 19  0 13  0.0000000  0 23G13G25G04G17G32G10G01G20G31G23G11R03
                                R02R18R04R17R12R19R11R13E11S26S20
  22229204.160
  22229200.900   116815315.678 8  91024942.462 6
                        49.650          39.150

  25652257.480    25652257.740    25652257.700
  25652257.040   134803527.870 7 105041705.055 6 100664966.124 7
                        45.550          39.900          47.150

  22932975.120
  22932972.900   120513622.257 7  93906731.084 5
                        46.850          34.650

  22514625.560    22514622.300
  22514621.740   118315174.685 8  92193633.799 7
                        50.000          43.250

  22104909.700
  22104906.180   116162240.346 8  90516116.941 7
                        50.300          43.050

  24950514.000
  24950513.300   131115846.347 7 102168190.606 5
                        44.150          32.100

  22186315.080    22186315.460    22186313.840
  22186314.580   116589976.095 8  90849387.842 7  87063999.573 8
                        49.750          45.700          51.300

  20166400.500
  20166395.680   105975300.129 8  82578189.561 7
                        49.550          47.400

  23346594.200    23346590.500
  23346589.680   122687216.060 8  95600434.532 7
                        48.350          42.450

  20773242.140
  20773235.820   109164215.657 8  85063037.070 7
                        50.700          44.900

  24707519.600
  24707517.800   129838974.855 7 101173262.449 6
                        45.200          36.250

  19564378.420
  19564377.880   104729760.516 7  81456514.646 7
                        47.600          46.200

  21071717.600
  21071719.800   112442868.931 8  87455647.354 7
                        49.000          44.400

  20542729.160
  20542733.640   109658519.301 8  85289970.849 7
                        49.250          46.600

  22415612.880
  22415614.700   120034642.786 7  93360304.749 7
                        47.800          43.250

  23251348.120
  23251351.160   124422686.261 7  96773213.330 6
                        45.700          41.750

  21647420.620
  21647423.840   115636669.236 8  89939669.536 6
                        50.150          40.750

  21770623.160
  21770623.720   116458157.183 7  90578569.375 7
                        47.950          42.900

  23124809.220
  23124812.240   123571990.305 7  96111574.467 5
                        46.450          35.500

  23170118.960
  23170124.120   123727150.540 7  96232264.548 6
                        46.550          39.900

  26036088.220                    26036088.740    26036106.820    26036108.400
                 136820603.342 8                 102171247.639 7 104836658.338 7
 103504005.927 7        50.650                          46.950          47.250
        42.000
  38387194.320
                 201726587.587 7
                        45.400

  38732408.740
                 203540227.341 7
                        45.850

 13  7 19  0 13 30.0000000  0 23G13G25G04G17G32G10G01G20G31G23G11R03
                                R02R18R04R17R12R19R11R13E11S26S20
  22211119.220
  22211116.000   116720279.145 8  90950888.077 6
                        49.800          40.650

  25651262.260    25651262.380    25651262.520
  25651261.780   134798296.506 7 105037628.682 6 100661059.606 7
                        47.400          41.600          47.850

  22914981.180
  22914979.040   120419064.518 7  93833049.802 6
                        46.750          36.200

  22523143.660    22523140.420
  22523139.900   118359937.347 8  92228513.757 7
                        50.150          44.400

  22118321.540
  22118318.040   116232720.073 8  90571036.200 7
                        50.450          43.900

  24930902.060
  24930901.340   131012783.559 7 102087882.007 5
                        43.550          33.900

  22203835.600    22203835.960    22203834.320
  22203835.080   116682046.788 8  90921131.218 7  87132753.631 8
                        49.850          46.700          51.150

  20170487.940
  20170483.180   105996779.934 8  82594927.070 8
                        49.800          48.400

  23354894.060    23354890.380
  23354889.540   122730832.350 8  95634421.245 7
                        48.600          43.500

  20764628.960
  20764622.660   109118953.190 8  85027767.628 7
                        50.900          45.650

  24729469.280
  24729467.540   129954320.695 7 101263142.207 6
                        45.750          36.600

  19561713.540
  19561713.100   104715495.853 7  81445419.919 7
                        47.300          46.300

  21086274.080
  21086276.180   112520544.532 8  87516061.683 7
                        49.150          44.300

  20556032.260
  20556036.580   109729531.020 8  85345202.157 7
                        48.900          46.700

  22398451.860
  22398453.500   119942746.640 7  93288830.067 7
                        47.550          42.950

  23277059.340
  23277062.480   124560271.329 7  96880223.855 6
                        44.800          41.850

  21639317.060
  21639320.260   115593381.376 8  89906001.240 6
                        49.800          40.850

  21756292.720
  21756293.240   116381499.345 7  90518946.631 7
                        47.550          42.850

  23138760.860
  23138763.840   123646543.410 7  96169560.209 5
                        45.800          35.500

  23146862.420
  23146867.340   123602962.710 7  96135674.100 6
                        46.650          39.950

  26053322.340                    26053322.760    26053340.920    26053342.400
                 136911168.379 8                 102238877.300 7 104906052.257 8
 103572517.718 7        50.800                          46.550          48.000
        43.100
  38386737.000
                 201724178.931 7
                        45.750

  38732418.500
                 203540280.223 7
                        46.000

 13  7 19  0 14  0.0000000  0 23G13G25G04G17G32G10G01G20G31G23G11R03
                                R02R18R04R17R12R19R11R13E11S26S20
  22193093.360
  22193090.200   116625552.929 8  90877075.511 6
                        49.550          41.050

  25650370.920    25650370.820    25650370.980
  25650370.320   134793611.507 7 105033978.071 6 100657561.101 8
                        47.350          41.900          48.400

  22897039.380
  22897037.140   120324779.974 7  93759581.391 6
                        46.650          37.950

  22531760.040    22531756.760
  22531756.280   118405216.223 8  92263795.955 7
                        50.050          45.200

  22131769.000
  22131765.640   116303387.215 8  90626101.499 7
                        50.200          44.650

  24911298.020
  24911298.260   130909766.734 6 102007609.316 6
                        40.500          36.650

  22221415.180    22221415.700    22221414.060
  22221414.780   116774428.315 8  90993116.780 7  87201739.793 8
                        49.550          47.550          51.600

  20174647.940
  20174643.280   106018641.034 8  82611961.687 8
                        49.550          49.200

  23363298.600    23363295.000
  23363294.260   122774998.995 8  95668836.798 7
                        48.150          44.200

  20756101.620
  20756095.300   109074141.661 8  84992849.574 7
                        50.700          46.700

  24751425.000
  24751423.060   130069697.875 7 101353046.400 6
                        45.000          37.250

  19559121.880
  19559121.520   104701622.438 7  81434629.487 7
                        47.750          46.950

  21100868.840
  21100871.060   112598424.824 8  87576635.220 7
                        49.050          44.850

  20569464.960
  20569469.160   109801235.050 8  85400971.931 7
                        49.100          47.000

  22381323.340
  22381324.800   119851024.434 7  93217490.669 7
                        47.900          43.250

  23302787.980
  23302791.300   124697949.863 7  96987307.053 7
                        44.850          42.000

  21631355.660
  21631359.020   115550853.442 8  89872923.981 6
                        49.600          41.650

  21742086.540
  21742086.900   116305505.869 7  90459840.632 7
                        47.800          43.500

  23152834.640
  23152837.560   123721749.262 7  96228053.644 5
                        46.400          35.350

  23123645.080
  23123649.520   123478984.069 7  96039246.341 6
                        46.600          40.450

  26070579.840                    26070580.380    26070598.660    26070600.060
                 137001857.963 8                 102306599.967 7 104975541.608 7
 103641123.728 7        50.200                          47.000          47.600
        42.400
  38386279.100
                 201721769.586 7
                        45.450

  38732428.300
                 203540334.008 7
                        45.750

 13  7 19  0 14 30.0000000  0 23G13G25G04G17G32G10G01G20G31G23G11R03
                                R02R18R04R17R12R19R11R13E11S26S20
  22175126.400
  22175123.240   116531136.156 8  90803504.049 6
                        49.700          41.000

  25649582.660    25649582.820    25649582.680
  25649582.000   134789470.579 7 105030751.406 7 100654468.885 8
                        47.200          43.300          49.000

  22879149.620
  22879147.380   120230768.373 7  93686325.665 6
                        47.250          37.350

  22540473.680    22540470.420
  22540469.880   118451006.226 8  92299476.436 7
                        49.900          45.050

  22145251.460
  22145248.200   116374238.217 8  90681310.065 7
                        50.300          44.650

  24891702.580
  24891702.740   130806793.923 7 101927370.921 5
                        42.800          34.950

  22239053.080    22239053.700    22239052.060
  22239052.820   116867116.197 8  91065341.067 7  87270954.734 8
                        49.600          47.300          51.050

  20178879.840
  20178875.300   106040880.355 8  82629291.030 8
                        49.600          49.050

  23371807.140    23371803.620
  23371802.780   122819711.771 8  95703677.916 7
                        48.250          44.400

  20747659.640
  20747653.280   109029778.859 8  84958281.175 7
                        50.700          46.550

  24773385.620
  24773383.780   130185102.028 7 101442971.588 5
                        43.750          34.850

  19556602.840
  19556602.380   104688137.233 8  81424141.001 7
                        48.600          46.100

  21115501.140
  21115503.500   112676505.815 8  87637364.866 7
                        49.400          44.150

  20583026.240
  20583030.380   109873625.499 8  85457275.593 7
                        49.700          46.250

  22364226.800
  22364228.280   119759473.777 8  93146284.706 7
                        48.350          42.450

  23328532.520
  23328536.280   124835714.969 7  97094457.550 6
                        44.200          40.250

  21623536.380
  21623539.880   115509084.815 8  89840437.306 6
                        50.200          40.800

  21728004.680
  21728004.860   116230177.240 8  90401251.727 7
                        48.350          42.700

  23167029.460
  23167032.280   123797601.745 7  96287050.032 5
                        46.850          33.750

  23100467.160
  23100471.820   123355216.949 7  95942983.133 6
                        47.600          41.050

  26087860.500                    26087860.780    26087879.280    26087880.600
                 137092667.498 8                 102374412.204 7 105045122.867 7
 103709820.472 7        50.300                          45.900          47.650
        42.450
  38385819.840
                 201719357.494 7
                        45.650

  38732437.940
                 203540386.217 7
                        45.900

 13  7 19  0 15  0.0000000  0 23G13G25G04G17G32G10G01G20G31G23G11R03
                                R02R18R04R17R12R19R11R13E11S26S20
  22157218.880
  22157215.720   116437031.929 8  90730176.139 7
                        49.000          42.000

  25648898.360    25648898.680    25648898.180
  25648897.720   134785875.504 7 105027950.074 6 100651784.304 8
                        47.150          41.950          48.850

  22861312.620
  22861310.200   120137033.688 7  93613285.718 6
                        47.200          38.900

  22549284.440    22549281.260
  22549280.680   118497307.388 8  92335555.216 7
                        49.450          44.800

  22158769.140
  22158765.820   116445273.961 8  90736662.580 7
                        49.900          44.750

  24872116.520
  24872116.160   130703867.897 6 101847168.903 5
                        41.100          35.900

  22256749.280    22256749.800    22256748.300
  22256748.840   116960110.348 8  91137804.003 7  87340398.367 8
                        49.100          46.900          51.400

  20183184.140
  20183179.540   106063499.467 8  82646916.308 8
                        49.300          49.100

  23380419.660    23380416.120
  23380415.320   122864970.830 7  95738944.695 7
                        47.750          44.000

  20739303.500
  20739297.060   108985867.368 8  84924064.445 7
                        50.300          46.550

  24795351.280
  24795349.520   130300532.261 7 101532917.089 5
                        42.600          35.700

  19554156.500
  19554155.940   104675041.923 8  81413955.761 7
                        48.000          45.800

  21130171.200
  21130173.440   112754788.029 8  87698251.016 7
                        49.300          43.600

  20596715.640
  20596719.900   109946700.774 8  85514111.883 7
                        49.250          45.900

  22347162.740
  22347164.380   119668097.167 8  93075214.118 7
                        48.100          42.600

  23354293.120
  23354296.240   124973564.504 7  97201673.717 6
                        43.150          38.550

  21615860.080
  21615863.600   115468079.775 8  89808544.524 6
                        50.000          40.300

  21714047.800
  21714048.420   116155518.758 7  90343184.046 7
                        47.600          42.650

  23181344.840
  23181347.620   123874099.301 7  96346548.143 5
                        45.750          32.650

  23077330.460
  23077335.100   123231667.399 7  95846889.141 6
                        46.800          41.350

  26105163.760                    26105164.120    26105182.640    26105183.880
                 137183596.846 8                 102442313.915 7 105114795.927 7
 103778607.861 6        49.850                          46.300          47.100
        41.850
  38385360.120
                 201716943.244 7
                        44.900

  38732447.580
                 203540438.123 7
                        45.250

 13  7 19  0 15 30.0000000  0 23G13G25G04G17G32G10G01G20G31G23G11R03
                                R02R18R04R17R12R19R11R13E11S26S20
  22139370.820
  22139367.840   116343240.616 8  90657092.064 6
                        49.100          40.150

  25648317.940    25648318.140    25648317.520
  25648317.160   134782824.769 7 105025572.882 6 100649506.150 8
                        46.550          41.400          48.850

  22843528.440
  22843526.000   120043576.686 7  93540462.144 6
                        47.550          37.200

  22558191.780    22558188.620
  22558188.120   118544115.836 8  92372029.284 7
                        49.900          44.050

  22172321.460
  22172318.020   116516491.689 8  90792156.903 7
                        50.100          43.900

  24852538.940
  24852538.860   130600988.005 7 101767002.872 6
                        43.950          36.400

  22274503.100    22274503.600    22274502.080
  22274502.620   117053407.097 8  91210502.735 7  87410067.972 8
                        49.300          46.400          51.350

  20187560.380
  20187555.660   106086496.228 8  82664835.854 8
                        49.600          48.300

  23389135.580    23389132.020
  23389131.140   122910772.684 8  95774634.439 7
                        48.250          43.150

  20731032.960
  20731026.580   108942405.923 8  84890198.402 7
                        50.600          45.600

  24817321.260
  24817319.640   130415984.859 7 101622880.040 5
                        42.200          35.800

  19551782.580
  19551782.100   104662334.210 7  81404071.989 7
                        47.750          46.850

  21144878.520
  21144880.520   112833268.378 8  87759291.256 7
                        49.250          44.700

  20610532.340
  20610536.740   110020455.991 8  85571477.018 7
                        48.800          46.900

  22330131.020
  22330132.660   119576893.411 7  93004277.976 7
                        47.700          43.150

  23380068.420
  23380071.100   125111492.717 6  97308951.108 6
                        41.900          38.750

  21608326.940
  21608330.240   115427838.973 8  89777246.158 6
                        49.850          41.400

  21700216.660
  21700217.360   116081531.688 7  90285638.568 7
                        47.700          43.600

  23195780.060
  23195782.920   123951236.970 7  96406544.106 5
                        44.850          33.750

  23054234.800
  23054239.680   123108338.317 7  95750966.640 7
                        45.500          42.200

  26122488.940                    26122489.600    26122508.080    26122509.300
                 137274642.311 8                 102510302.337 7 105184557.967 7
 103847483.091 7        49.550                          46.250          47.450
        42.100
  38384900.760
                 201714526.684 7
                        45.400

  38732457.760
                 203540488.167 7
                        45.650

 13  7 19  0 16  0.0000000  0 23G13G25G04G17G32G10G01G20G31G23G11R03
                                R02R18R04R17R12R19R11R13E11S26S20
  22121582.720
  22121579.860   116249764.436 8  90584253.555 6
                        49.300          41.150

  25647841.320    25647841.280    25647840.940
  25647840.480   134780319.098 7 105023620.414 6 100647635.014 7
                        46.350          41.700          47.700

  22825797.660
  22825795.160   119950400.604 7  93467857.453 6
                        47.300          38.300

  22567195.460    22567192.300
  22567191.800   118591430.231 8  92408897.591 7
                        50.100          45.100

  22185908.360
  22185904.800   116587891.304 8  90847792.958 7
                        50.250          44.050

  24832970.880
  24832970.700   130498155.290 7 101686873.578 6
                        44.900          36.000

  22292314.180    22292314.860    22292313.260
  22292313.900   117147005.356 8  91283436.403 7  87479962.733 8
                        49.250          47.200          51.250

  20192008.520
  20192003.800   106109871.167 8  82683050.094 8
                        49.600          48.900

  23397954.620    23397951.020
  23397950.120   122957116.679 8  95810746.641 7
                        48.500          44.100

  20722848.320
  20722842.020   108899395.551 8  84856683.848 7
                        50.700          46.550

  24839295.240
  24839293.760   130531458.517 7 101712859.383 5
                        42.250          35.800

  19549481.180
  19549480.720   104650014.537 7  81394490.023 7
                        47.650          46.100

  21159622.860
  21159624.940   112911946.636 8  87820485.426 7
                        48.950          43.950

  20624476.020
  20624480.540   110094888.574 8  85629368.992 7
                        48.650          46.100

  22313131.760
  22313133.320   119485863.719 8  92933477.196 7
                        48.100          42.150

  23405857.740
  23405860.860   125249496.343 6  97416287.167 6
                        41.800          37.350

  21600937.400
  21600940.620   115388365.545 8  89746544.636 6
                        49.700          40.700

  21686511.860
  21686512.560   116008220.284 7  90228618.635 7
                        47.850          42.850

  23210334.600
  23210337.580   124029011.901 7  96467035.731 5
                        44.100          32.000

  23031181.060
  23031186.460   122985234.965 7  95655219.707 6
                        45.100          40.700

  26139836.400                    26139836.800    26139855.380    26139856.580
                 137365802.686 8                 102578376.574 7 105254408.063 7
 103916445.259 6        49.700                          45.900          46.800
        41.300
  38384440.820
                 201712107.823 7
                        45.550

  38732467.080
                 203540537.199 7
                        45.850

 13  7 19  0 16 30.0000000  0 23G13G25G04G17G32G10G01G20G31G23G11R03
                                R02R18R04R17R12R19R11R13E11S26S20
  22103855.440
  22103852.460   116156607.148 8  90511663.517 6
                        49.300          40.900

  25647468.460    25647468.660    25647468.360
  25647467.820   134778360.611 7 105022094.313 6 100646172.522 7
                        42.800          39.250          45.550

  22808121.100
  22808118.720   119857509.599 7  93395474.926 6
                        47.600          38.000

  22576295.380    22576292.120
  22576291.680   118639250.354 8  92446159.980 7
                        49.750          44.300

  22199529.980
  22199526.400   116659473.484 8  90903571.270 7
                        49.950          44.300

  24813412.160
  24813411.560   130395372.579 7 101606783.263 5
                        42.700          33.400

  22310182.660    22310183.500    22310181.760
  22310182.540   117240904.968 8  91356604.886 7  87550082.528 8
                        49.150          46.600          51.000

  20196528.800
  20196524.160   106133625.506 8  82701559.965 8
                        49.450          48.500

  23406876.800    23406873.140
  23406872.240   123004003.051 7  95847281.462 7
                        47.950          43.250

  20714749.980
  20714743.700   108856838.330 8  84823522.395 7
                        50.600          46.050

  24861273.080
  24861271.540   130646952.770 6 101802854.757 5
                        41.800          34.200

  19547252.500
  19547251.960   104638084.348 7  81385210.987 7
                        47.350          46.350

  21174404.220
  21174406.640   112990823.123 8  87881833.777 7
                        48.700          44.400

  20638546.260
  20638550.820   110169996.769 8  85687786.444 7
                        48.600          46.300

  22296165.620
  22296166.980   119395010.502 8  92862813.672 7
                        48.000          42.800

  23431660.560
  23431663.920   125387572.942 6  97523679.945 6
                        41.000          36.450

  21593692.200
  21593695.440   115349663.212 8  89716442.854 6
                        49.450          41.200

  21672934.340
  21672934.900   115935589.360 7  90172127.937 7
                        47.600          42.950

  23225007.980
  23225010.880   124107422.355 7  96528021.642 5
                        43.800          32.300

  23008170.800
  23008176.240   122862363.388 7  95559653.014 6
                        44.950          41.000

  26157205.480                    26157205.780    26157224.460    26157225.700
                 137457077.770 8                 102646536.467 7 105324346.044 7
 103985494.194 6        49.850                          45.400          47.000
        41.700
  38383980.740
                 201709687.995 7
                        45.300

  38732476.660
                 203540586.717 7
                        45.600

 13  7 19  0 17  0.0000000  0 23G13G25G04G17G32G10G01G20G31G23G11R03
                                R02R18R04R17R12R19R11R13E11S26S20
  22086189.160
  22086186.160   116063770.378 8  90439323.230 6
                        49.500          41.000

  25647199.740    25647200.140    25647199.660
  25647199.140   134776949.288 7 105020994.513 6 100645118.478 7
                        43.950          38.550          44.100

  22790499.180
  22790496.740   119764906.247 7  93323316.558 6
                        47.850          38.500

  22585491.040    22585487.840
  22585487.380   118687573.863 8  92483814.615 7
                        49.850          44.400

  22213186.240
  22213182.700   116731237.604 8  90959491.354 7
                        50.250          44.150

  24793862.560
  24793861.680   130292641.050 6 101526732.856 5
                        41.950          32.200

  22328108.300    22328109.060    22328107.320
  22328108.040   117335104.216 8  91430006.865 7  87620426.089 8
                        49.600          46.750          50.250

  20201121.320
  20201116.600   106157759.018 8  82720365.296 8
                        49.750          48.600

  23415901.760    23415898.120
  23415897.340   123051429.996 7  95884237.511 7
                        47.650          43.650

  20706738.120
  20706731.720   108814735.072 8  84790714.678 7
                        50.800          46.150

  24883254.600
  24883252.840   130762465.602 7 101892864.613 5
                        42.600          30.600

  19545096.440
  19545096.060   104626543.430 7  81376234.728 7
                        47.650          46.550

  21189222.500
  21189225.100   113069896.867 8  87943335.558 7
                        48.750          44.300

  20652742.460
  20652747.040   110245777.340 8  85746726.855 7
                        48.600          46.300

  22279232.460
  22279233.780   119304334.710 8  92792288.144 7
                        48.350          42.300

  23457476.300
  23457479.820   125525718.551 7  97631126.417 6
                        43.300          36.750

  21586591.840
  21586595.240   115311734.352 8  89686942.658 6
                        49.550          41.350

  21659484.660
  21659484.820   115863642.636 7  90116169.407 7
                        47.950          42.800

  23239799.540
  23239802.440   124186465.055 7  96589499.335 5
                        43.200          31.900

  22985205.300
  22985210.520   122739728.638 7  95464270.534 6
                        46.150          40.550

  26174596.140                    26174596.540    26174615.160    26174616.320
                 137548465.816 8                 102714780.719 7 105394370.587 7
 104054628.592 7        49.650                          44.450          47.250
        42.100
  38383520.260
                 201707266.776 7
                        45.600

  38732485.860
                 203540634.699 7
                        45.850

 13  7 19  0 17 30.0000000  0 23G13G25G04G17G32G10G01G20G31G23G11R03
                                R02R18R04R17R12R19R11R13E11S26S20
  22068583.700
  22068580.580   115971253.132 8  90367231.935 6
                        49.450          40.650

  25647035.100    25647035.100    25647035.040
  25647034.440   134776082.869 7 105020319.322 6 100644471.459 7
                        46.100          40.250          47.350

  22772931.920
  22772929.520   119672590.156 7  93251382.011 6
                        47.600          38.650

  22594781.620    22594778.380
  22594777.940   118736395.744 8  92521857.600 7
                        49.950          43.650

  22226876.420
  22226873.020   116803179.996 8  91015550.342 7
                        50.250          43.550

  24774322.320
  24774321.600   130189958.364 7 101446720.500 5
                        43.000          34.600

  22346090.060    22346090.700    22346088.940
  22346089.700   117429598.427 8  91503638.683 7  87690989.903 8
                        49.650          45.950          51.000

  20205785.320
  20205780.540   106182268.422 8  82739463.533 8
                        49.700          48.800

  23425028.700    23425025.240
  23425024.420   123099393.030 7  95921611.289 7
                        47.550          42.900

  20698812.160
  20698805.700   108773083.451 8  84758258.886 7
                        50.800          45.300

  24905238.740
  24905236.920   130877991.936 7 101982885.039 5
                        43.200          33.750

  19543012.740
  19543012.320   104615388.723 7  81367558.846 7
                        47.550          47.000

  21204077.100
  21204079.480   113149164.027 8  88004987.762 7
                        48.850          44.650

  20667063.460
  20667068.160   110322224.126 8  85806185.432 7
                        48.250          46.900

  22262332.060
  22262333.200   119213833.696 8  92721898.545 7
                        48.000          42.800

  23483304.040
  23483307.280   125663926.439 7  97738621.298 6
                        44.600          37.900

  21579636.160
  21579639.700   115274578.262 8  89658043.501 7
                        49.400          42.000

  21646162.860
  21646162.920   115792380.272 7  90060743.159 7
                        47.550          43.450

  23254708.340
  23254711.140   124266133.752 7  96651463.896 5
                        42.950          32.800

  22962284.780
  22962289.340   122617332.292 7  95369073.443 6
                        46.150          40.750

  26192007.280                    26192007.840    26192026.440    26192027.580
                 137639962.130 8                 102783105.809 7 105464478.081 7
 104123844.887 6        49.700                          45.850          45.050
        39.950
  38383059.780
                 201704845.030 7
                        45.600

  38732494.440
                 203540678.930 7
                        45.750

 13  7 19  0 18  0.0000000  0 23G13G25G04G17G32G10G01G20G31G23G11R03
                                R02R18R04R17R12R19R11R13E11S26S20
  22051039.800
  22051036.680   115879059.709 8  90295392.968 6
                        49.650          39.100

  25646974.360    25646974.380    25646974.560
  25646973.860   134775763.389 7 105020070.336 6 100644232.835 8
                        44.550          39.700          48.100

  22755420.260
  22755417.780   119580565.958 7  93179674.912 6
                        47.550          37.650

  22604167.140    22604163.860
  22604163.400   118785716.399 8  92560289.248 7
                        49.950          43.600

  22240600.880
  22240597.520   116875302.139 8  91071749.404 7
                        50.200          42.450

  24754792.140
  24754791.980   130087327.821 7 101366748.814 5
                        42.900          31.050

  22364128.060    22364128.520    22364126.820
  22364127.460   117524388.140 8  91577500.766 7  87761774.393 8
                        49.650          45.550          51.100

  20210521.300
  20210516.460   106207156.062 8  82758856.495 7
                        49.700          47.400

  23434257.820    23434254.440
  23434253.680   123147892.917 7  95959403.390 7
                        47.650          42.350

  20690972.660
  20690966.140   108731886.369 8  84726157.280 7
                        50.700          44.950

  24927225.420
  24927223.220   130993532.239 7 102072916.310 5
                        43.650          30.400

  19541001.440
  19541001.020   104604622.325 7  81359184.988 7
                        47.700          47.650

  21218968.240
  21218970.460   113228625.649 8  88066791.210 7
                        48.900          45.250

  20681509.140
  20681513.880   110399336.013 8  85866161.307 7
                        48.300          47.550

  22245464.900
  22245465.760   119123510.646 7  92651647.345 7
                        47.850          43.100

  23509143.260
  23509146.000   125802195.013 7  97846163.389 6
                        45.700          39.350

  21572826.040
  21572829.700   115238199.508 8  89629748.942 7
                        49.450          42.750

  21632970.200
  21632970.320   115721807.840 7  90005853.524 7
                        47.950          44.150

  23269734.000
  23269737.320   124346427.165 7  96713914.326 5
                        42.700          33.650

  22939409.860
  22939414.260   122495181.584 7  95274067.394 6
                        46.250          40.800

  26209439.200                    26209439.760    26209458.180    26209459.540
                 137731567.162 8                 102851512.078 7 105534668.877 7
 104193143.418 6        49.800                          46.100          45.750
        40.300
  38382599.400
                 201702423.021 7
                        45.400

  38732502.680
                 203540722.621 7
                        45.800

 13  7 19  0 18 30.0000000  0 23G13G25G04G17G32G10G01G20G31G23G11R03
                                R02R18R04R17R12R19R11R13E11S26S20
  22033557.600
  22033554.440   115787190.183 8  90223806.376 6
                        49.800          40.550

  25647017.340    25647017.420    25647017.820
  25647016.980   134775989.750 7 105020246.718 6 100644401.902 7
                        45.450          37.300          44.600

  22737964.360
  22737961.940   119488834.771 7  93108196.132 6
                        47.700          38.650

  22613646.880    22613643.680
  22613643.200   118835532.574 8  92599107.000 7
                        49.750          44.550

  22254359.080
  22254355.680   116947601.740 8  91128086.743 7
                        50.200          44.000

  24735272.280
  24735271.520   129984748.669 7 101286817.071 5
                        45.550          31.750

  22382221.580    22382222.000    22382220.300
  22382220.960   117619469.956 8  91651590.446 7  87832777.001 8
                        49.850          46.350          50.950

  20215328.880
  20215324.020   106232419.871 8  82778542.570 8
                        49.800          48.350

  23443588.640    23443585.320
  23443584.540   123196926.557 7  95997611.397 7
                        47.950          43.250

  20683219.400
  20683212.880   108691142.928 8  84694409.157 7
                        50.750          45.850

  24949214.140
  24949212.160   131109082.888 7 102162955.667 5
                        44.050          30.250

  19539062.500
  19539061.960   104594242.487 7  81351111.782 7
                        47.900          46.450

  21233895.340
  21233897.780   113308279.194 8  88128743.935 7
                        49.050          44.250

  20696078.540
  20696083.260   110477108.129 8  85926650.691 7
                        48.850          46.150

  22228630.720
  22228631.620   119033364.792 7  92581533.988 6
                        47.650          41.950

  23534992.620
  23534995.420   125940519.053 7  97953748.576 6
                        44.800          39.350

  21566161.380
  21566165.080   115202598.780 8  89602059.509 6
                        49.250          41.050

  21619906.620
  21619907.000   115651927.170 8  89951501.916 7
                        48.000          43.150

  23284875.760
  23284879.160   124427340.198 7  96776846.692 5
                        43.750          32.900

  22916581.280
  22916585.960   122373279.388 7  95179254.659 6
                        46.800          40.550

  26226891.140                    26226891.740    26226910.180    26226911.560
                 137823277.563 8                 102919997.031 7 105604940.407 7
 104262521.659 6        49.800                          45.950          46.900
        41.850
  38382137.660
                 201699997.925 7
                        45.600

  38732510.640
                 203540765.657 7
                        45.800

 13  7 19  0 19  0.0000000  0 23G13G25G04G17G32G10G01G20G31G23G11R03
                                R02R18R04R17R12R19R11R13E11S26S20
  22016137.480
  22016134.200   115695646.467 8  90152473.671 6
                        49.750          40.900

  25647164.320    25647164.520    25647164.500
  25647163.960   134776761.996 7 105020848.493 6 100644978.572 7
                        42.050          37.950          43.600

  22720564.740
  22720562.340   119397399.372 7  93036947.834 6
                        47.850          38.300

  22623220.400    22623217.180
  22623216.700   118885841.648 8  92638308.838 7
                        49.700          44.150

  22268150.860
  22268147.380   117020078.096 8  91184561.813 7
                        50.150          44.000

  24715762.580
  24715761.000   129882222.160 7 101206926.358 5
                        43.700          33.300

  22400370.480    22400370.720    22400369.100
  22400369.700   117714842.168 8  91725906.433 7  87903996.482 8
                        49.750          46.150          50.700

  20220207.960
  20220203.120   106258059.609 8  82798521.591 8
                        49.600          48.100

  23453020.820    23453017.400
  23453016.600   123246492.482 7  96036234.192 7
                        47.900          43.050

  20675552.560
  20675546.060   108650853.699 8  84663014.970 7
                        50.600          46.050

  24971204.360
  24971202.520   131224642.117 7 102253001.710 5
                        44.500          30.200

  19537195.580
  19537195.100   104584248.878 7  81343338.984 7
                        47.500          46.450

  21248858.080
  21248860.780   113388123.485 8  88190845.029 7
                        48.900          44.200

  20710771.060
  20710775.720   110555537.048 8  85987650.929 7
                        48.450          46.150

  22211829.720
  22211830.580   118943396.556 7  92511558.774 6
                        47.800          41.700

  23560851.640
  23560854.560   126078894.482 7  98061373.685 6
                        45.200          40.200

  21559642.760
  21559646.340   115167778.240 8  89574976.897 6
                        49.000          40.850

  21606973.100
  21606973.600   115582741.618 7  89897690.969 7
                        47.650          43.200

  23300133.060
  23300136.240   124508869.876 7  96840258.680 5
                        43.550          32.850

  22893800.100
  22893805.160   122251630.261 7  95084638.752 6
                        46.500          40.300

  26244362.980                    26244363.420    26244381.900    26244383.240
                 137915091.593 8                 102988559.376 7 105675291.340 7
 104331978.299 7        49.950                          45.350          47.550
        42.700
  38381675.080
                 201697569.158 7
                        45.450

  38732518.760
                 203540807.815 7
                        45.650

 13  7 19  0 19 30.0000000  0 23G13G25G04G17G32G10G01G20G31G23G11R03
                                R02R18R04R17R12R19R11R13E11S26S20
  21998780.000
  21998776.600   115604432.128 8  90081397.616 6
                        49.800          40.700

  25647415.680    25647415.820    25647415.420
  25647415.340   134778082.126 7 105021877.172 5 100645964.399 6
                        43.600          33.000          40.700

  22703222.180
  22703219.660   119306263.898 7  92965933.253 6
                        47.850          37.750

  22632887.700    22632884.500
  22632883.960   118936643.416 8  92677894.594 7
                        49.700          44.000

  22281976.560
  22281972.960   117092732.211 8  91241175.394 7
                        50.250          43.900

  24696262.120
  24696261.860   129779750.878 7 101127078.797 5
                        42.700          34.350

  22418574.480    22418574.740    22418573.240
  22418573.760   117810504.925 8  91800448.804 7  87975432.906 8
                        49.750          45.850          50.800

  20225158.920
  20225154.060   106284077.290 8  82818795.106 7
                        49.650          47.950

  23462554.280    23462550.800
  23462549.980   123296590.864 7  96075271.884 7
                        47.650          42.850

  20667972.520
  20667966.140   108611021.195 8  84631976.678 7
                        50.600          46.050

  24993196.320
  24993194.240   131340209.761 7 102343054.289 5
                        45.950          32.550

  19535401.080
  19535400.700   104574643.441 7  81335868.094 7
                        47.750          46.750

  21263856.820
  21263859.400   113468159.739 8  88253095.420 7
                        48.900          44.250

  20725586.280
  20725590.960   110634621.264 8  86049160.828 7
                        48.600          46.450

  22195062.440
  22195063.220   118853608.688 8  92441723.828 6
                        48.100          41.900

  23586719.980
  23586722.580   126217319.415 7  98169037.266 6
                        44.300          40.700

  21553271.080
  21553274.380   115133742.032 8  89548504.330 6
                        49.550          41.250

  21594170.380
  21594170.940   115514256.287 7  89844424.636 7
                        47.800          43.450

  23315505.340
  23315508.540   124591014.508 7  96904148.964 5
                        43.350          34.100

  22871067.980
  22871072.740   122130241.188 7  94990225.108 6
                        47.350          40.550

  26261854.440                    26261854.940    26261873.460    26261874.700
                 138007009.362 8                 103057199.180 7 105745721.763 7
 104401513.411 6        50.150                          46.150          46.000
        41.050
  38381212.120
                 201695138.105 7
                        45.500

  38732526.980
                 203540850.047 7
                        45.950

 13  7 19  0 20  0.0000000  0 23G13G25G04G17G32G10G01G20G31G23G11R03
                                R02R18R04R17R12R19R11R13E11S26S20
  21981485.140
  21981481.640   115513547.112 8  90010578.189 7
                        49.700          42.850

  25647770.920    25647770.860    25647770.600
  25647770.440   134779948.392 7 105023331.368 5 100647358.009 7
                        42.700          35.250          43.000

  22685936.820
  22685934.240   119215429.178 7  92895153.009 6
                        47.350          39.650

  22642648.000    22642644.780
  22642644.300   118987934.215 8  92717861.417 7
                        49.450          45.750

  22295835.500
  22295831.860   117165561.422 8  91297925.410 7
                        50.250          45.550

  24676772.620
  24676772.320   129677333.966 7 101047273.507 6
                        43.050          36.100

  22436832.980    22436833.360    22436831.800
  22436832.400   117906454.432 8  91875214.615 7  88047083.472 8
                        49.600          47.350          51.350

  20230181.320
  20230176.400   106310470.272 8  82839361.062 8
                        49.600          49.250

  23472188.360    23472184.840
  23472184.020   123347218.104 7  96114721.659 7
                        47.350          44.850

  20660479.200
  20660472.800   108571643.748 8  84601292.963 7
                        50.600          47.600

  25015189.120
  25015186.780   131455781.394 7 102433109.995 6
                        46.150          37.050

  19533678.740
  19533678.440   104565423.869 7  81328697.314 7
                        47.800          45.700

  21278891.040
  21278893.320   113548384.746 8  88315492.614 7
                        48.950          42.950

  20740523.240
  20740527.880   110714355.477 8  86111176.274 7
                        48.650          45.400

  22178328.540
  22178329.340   118763999.968 8  92372028.228 6
                        48.000          41.050

  23612596.500
  23612598.940   126355787.937 7  98276734.704 6
                        42.750          39.800

  21547046.220
  21547049.480   115100489.950 8  89522641.626 6
                        49.850          40.100

  21581498.860
  21581499.440   115446472.280 8  89791703.770 7
                        48.450          42.550

  23330991.580
  23330994.960   124673768.595 7  96968513.243 5
                        44.000          32.900

  22848385.100
  22848389.080   122009114.743 7  94896015.693 6
                        47.850          39.550

  26279365.040                    26279365.440    26279383.900    26279385.200
                 138099027.046 8                 103125913.594 7 105816228.741 7
 104471124.106 7        50.100                          47.450          47.450
        42.950
  38380748.220
                 201692702.296 7
                        45.250

  38732534.820
                 203540891.412 7
                        45.800

 13  7 19  0 20 30.0000000  0 23G13G25G04G17G32G10G01G20G31G23G11R03
                                R02R18R04R17R12R19R11R13E11S26S20
  21964253.800
  21964250.220   115422995.641 8  89940018.646 6
                        49.850          41.050

  25648230.500    25648230.220    25648230.440
  25648229.540   134782363.543 7 105025213.269 5 100649161.494 6
                        43.850          33.750          41.800

  22668709.620
  22668707.020   119124900.361 7  92824611.146 6
                        47.050          38.800

  22652501.400    22652498.300
  22652497.880   119039714.592 8  92758209.720 7
                        49.550          44.800

  22309728.200
  22309724.580   117238567.770 8  91354813.454 7
                        50.300          43.850

  24657293.960
  24657293.780   129574975.208 6 100967513.595 5
                        41.900          34.900

  22455146.300    22455146.780    22455145.060
  22455145.780   118002691.591 8  91950204.576 7  88118948.846 8
                        49.400          46.100          50.400

  20235275.680
  20235270.800   106337241.646 8  82860221.879 8
                        49.650          48.500

  23481923.140    23481919.700
  23481919.000   123398375.212 7  96154584.324 7
                        47.500          43.400

  20653073.140
  20653066.720   108532724.695 8  84570966.449 7
                        50.750          46.050

  25037182.760
  25037180.580   131571358.198 7 102523169.729 5
                        45.400          35.800

  19532029.020
  19532028.680   104556592.783 7  81321828.707 7
                        47.550          45.650

  21293960.980
  21293963.200   113628800.220 8  88378037.960 7
                        49.100          43.300

  20755581.820
  20755586.480   110794738.941 8  86173696.704 7
                        48.350          45.300

  22161628.800
  22161629.700   118674573.752 8  92302474.580 6
                        48.300          41.650

  23638480.920
  23638483.620   126494299.148 7  98384465.285 6
                        42.800          39.700

  21540969.120
  21540972.400   115068027.173 8  89497392.826 6
                        49.650          40.200

  21568959.660
  21568960.280   115379395.900 8  89739533.282 7
                        48.050          42.450

  23346591.840
  23346595.300   124757131.336 7  97033350.937 5
                        45.000          34.050

  22825752.740
  22825756.720   121888258.754 7  94802016.666 6
                        47.100          40.250

  26296894.620                    26296895.140    26296913.440    26296914.940
                 138191145.585 8                 103194703.314 7 105886812.995 7
 104540811.095 7        50.150                          46.000          47.050
        42.100
  38380284.280
                 201690266.540 7
                        45.200

  38732542.740
                 203540933.763 7
                        45.900

 13  7 19  0 21  0.0000000  0 23G13G25G04G17G32G10G01G20G31G23G11R03
                                R02R18R04R17R12R19R11R13E11S26S20
  21947085.620
  21947082.000   115332776.013 8  89869717.692 6
                        49.650          40.800

  25648793.620    25648793.520    25648793.800
  25648792.420   134785323.562 6 105027519.856 5 100651371.940 7
                        41.300          34.900          43.750

  22651540.360
  22651537.720   119034676.027 7  92754306.541 6
                        46.900          38.850

  22662446.760    22662443.900
  22662443.380   119091978.040 8  92798934.445 7
                        49.350          44.150

  22323653.660
  22323650.040   117311746.424 8  91411835.760 7
                        50.100          43.250

  24637826.300
  24637826.220   129472671.218 7 100887796.339 5
                        44.650          34.950

  22473513.280    22473513.720    22473512.100
  22473512.760   118099210.597 8  92025414.154 7  88191024.693 8
                        49.350          45.400          50.950

  20240441.240
  20240436.460   106364386.826 8  82881373.967 7
                        49.700          47.950

  23491757.700    23491754.340
  23491753.560   123450056.326 7  96194855.305 7
                        47.500          42.750

  20645753.620
  20645747.200   108494260.268 8  84540994.185 7
                        50.600          45.750

  25059176.120
  25059174.140   131686934.413 7 102613228.974 5
                        44.900          35.050

  19530451.040
  19530450.660   104548145.684 7  81315258.745 7
                        47.750          46.100

  21309065.700
  21309068.040   113709401.214 8  88440727.597 7
                        49.150          43.800

  20770760.500
  20770765.280   110875764.158 8  86236716.269 7
                        48.250          45.700

  22144962.460
  22144963.420   118585326.689 8  92233060.281 7
                        48.000          42.400

  23664371.700
  23664374.320   126632845.136 6  98492222.895 6
                        41.250          39.950

  21535039.420
  21535042.820   115036351.534 8  89472756.237 6
                        49.600          40.700

  21556552.640
  21556553.100   115313026.140 8  89687912.388 7
                        48.700          43.050

  23362304.580
  23362307.860   124841095.033 7  97098656.061 5
                        44.800          33.900

  22803170.640
  22803175.120   121767673.173 7  94708227.982 6
                        46.700          40.650

  26314442.440                    26314442.840    26314461.220    26314462.780
                 138283359.158 8                 103263563.989 7 105957470.053 7
 104610569.961 7        50.100                          46.900          47.900
        43.200
  38379819.160
                 201687827.063 7
                        45.000

  38732550.460
                 203540974.555 7
                        45.450

 13  7 19  0 21 30.0000000  0 23G13G25G04G17G32G10G01G20G31G23G11R03
                                R02R18R04R17R12R19R11R13E11S26S20
  21929981.100
  21929977.420   115242891.088 8  89799677.548 6
                        49.700          41.500

  25649460.840    25649460.880    25649460.760
  25649460.000   134788829.990 6 105030252.066 6 100653990.311 7
                        40.600          36.800          43.650

  22634429.720
  22634427.160   118944760.192 7  92684242.316 6
                        47.050          38.100

  22672484.020    22672481.100
  22672480.620   119144723.900 8  92840035.073 7
                        49.750          44.800

  22337612.040
  22337608.540   117385098.309 8  91468993.056 7
                        50.000          44.200

  24618369.760
  24618369.000   129370424.812 7 100808123.957 5
                        44.400          31.150

  22491933.780    22491934.320    22491932.780
  22491933.320   118196011.256 8  92100843.204 7  88263310.843 8
                        49.250          45.900          50.850

  20245678.160
  20245673.360   106391906.758 8  82902818.066 8
                        49.600          48.400

  23501692.040    23501688.760
  23501687.800   123502261.698 7  96235534.808 7
                        47.250          43.050

  20638521.140
  20638514.620   108456252.820 8  84511378.005 7
                        50.600          46.300

  25081169.160
  25081167.640   131802509.173 7 102703287.075 6
                        44.400          37.100

  19528945.140
  19528944.740   104540084.005 7  81308988.556 7
                        47.700          46.350

  21324205.120
  21324207.640   113790188.247 8  88503561.925 7
                        48.900          43.800

  20786059.020
  20786063.940   110957429.137 8  86300233.430 7
                        48.500          45.850

  22128329.900
  22128331.040   118496261.216 8  92163787.201 7
                        48.250          42.800

  23690268.200
  23690271.300   126771423.510 6  98600005.657 6
                        40.850          39.000

  21529257.700
  21529261.140   115005466.584 8  89448734.619 6
                        49.350          40.900

  21544278.660
  21544278.800   115247367.588 8  89636844.661 7
                        48.400          43.050

  23378129.400
  23378132.400   124925657.693 7  97164427.036 5
                        45.500          34.850

  22780640.680
  22780645.140   121647364.868 7  94614654.931 6
                        46.850          41.150

  26332008.220                    26332008.640    26332027.240    26332028.580
                 138375667.581 8                 103332495.490 7 106028199.780 8
 104680400.576 7        50.100                          46.450          48.200
        43.300
  38379354.720
                 201685387.184 7
                        45.000

  38732557.900
                 203541014.057 7
                        45.700

 13  7 19  0 22  0.0000000  0 23G13G25G04G17G32G10G01G20G31G23G11R03
                                R02R18R04R17R12R19R11R13E11S26S20
  21912940.800
  21912937.100   115153344.101 8  89729900.727 6
                        49.650          41.250

  25650232.320    25650232.700    25650232.260
  25650231.720   134792884.166 6 105033411.135 6 100657017.737 7
                        39.850          38.500          44.700

  22617378.700
  22617376.060   118855156.929 7  92614421.657 6
                        47.000          39.350

  22682613.080    22682610.120
  22682609.600   119197952.026 8  92881511.518 7
                        49.600          44.450

  22351603.480
  22351600.020   117458623.896 8  91526285.703 7
                        50.000          44.100

  24598924.160
  24598923.480   129268238.335 7 100728498.272 5
                        44.350          33.950

  22510407.800    22510408.360    22510406.920
  22510407.360   118293092.997 8  92176491.285 7  88335806.917 8
                        49.300          45.450          50.850

  20250986.600
  20250981.800   106419802.862 8  82924555.292 8
                        49.600          48.350

  23511726.100    23511722.720
  23511721.780   123554990.853 7  96276622.451 7
                        47.300          42.850

  20631375.860
  20631369.360   108418704.151 8  84482119.325 7
                        50.600          46.150

  25103161.920
  25103160.640   131918081.909 7 102793343.634 6
                        42.650          36.500

  19527511.360
  19527511.000   104532409.069 7  81303019.172 7
                        47.450          46.050

  21339379.400
  21339381.960   113871161.670 8  88566541.227 7
                        48.650          43.450

  20801477.100
  20801481.980   111039731.601 8  86364246.422 7
                        48.600          45.350

  22111731.800
  22111733.000   118407379.157 8  92094656.786 7
                        48.950          42.750

  23716170.560
  23716173.820   126910032.048 7  98707811.886 6
                        42.900          38.200

  21523624.480
  21523627.880   114975375.225 8  89425330.250 6
                        49.300          40.700

  21532138.300
  21532138.140   115182424.583 8  89586333.468 7
                        48.250          42.750

  23394065.960
  23394068.740   125010817.472 7  97230662.430 5
                        45.650          34.150

  22758163.680
  22758168.120   121527339.503 7  94521301.967 6
                        46.600          41.350

  26349592.080                    26349592.480    26349611.000    26349612.320
                 138468070.296 8                 103401497.412 7 106099001.766 7
 104750302.529 7        49.800                          46.450          47.850
        42.900
  38378890.580
                 201682947.534 7
                        45.200

  38732565.420
                 203541054.200 7
                        45.450

 13  7 19  0 22 30.0000000  0 23G13G25G04G17G32G10G01G20G31G23G11R03
                                R02R18R04R17R12R19R11R13E11S26S20
  21895964.660
  21895961.080   115064134.396 8  89660386.720 6
                        50.000          40.500

  25651107.660    25651107.800    25651107.640
  25651107.140   134797483.633 6 105036995.088 6 100660452.396 7
                        41.150          36.100          44.250

  22600387.240
  22600384.480   118765866.238 7  92544844.538 6
                        47.700          37.250

  22692832.740    22692829.780
  22692829.300   119251656.544 8  92923359.151 7
                        49.700          44.000

  22365627.360
  22365624.000   117532320.001 8  91583711.217 7
                        50.350          43.150

  24579489.700
  24579488.860   129166109.777 7 100648917.594 5
                        45.550          32.750

  22528934.520    22528935.020    22528933.740
  22528934.020   118390451.499 8  92252355.017 7  88408509.653 8
                        49.600          45.100          50.950

  20256366.080
  20256361.220   106448072.151 8  82946583.306 7
                        49.850          47.750

  23521858.940    23521855.580
  23521854.620   123608239.347 7  96318114.763 7
                        47.750          42.050

  20624317.480
  20624311.020   108381612.185 8  84453216.509 7
                        50.800          45.300

  25125153.300
  25125152.300   132033648.011 6 102883394.987 6
                        41.750          37.700

  19526149.300
  19526148.860   104525117.930 7  81297348.288 7
                        47.800          46.800

  21354588.040
  21354590.500   113952317.874 8  88629662.684 7
                        48.700          44.450

  20817013.460
  20817018.280   111122665.578 8  86428750.589 7
                        48.300          46.150

  22095167.640
  22095168.760   118318678.784 8  92025667.655 7
                        49.150          43.450

  23742077.700
  23742080.760   127048664.162 7  98815636.474 6
                        43.700          38.200

  21518139.820
  21518143.000   114946077.174 8  89402542.900 6
                        49.450          41.600

  21520131.660
  21520131.560   115118197.832 8  89536379.362 7
                        48.400          43.750

  23410113.100
  23410115.860   125096567.972 7  97297357.257 5
                        45.750          35.100

  22735740.100
  22735744.580   121407599.427 7  94428170.880 6
                        46.550          41.950

  26367192.820                    26367193.460    26367212.000    26367213.140
                 138560563.038 8                 103470566.555 7 106169872.717 8
 104820272.576 7        49.900                          46.750          48.100
        43.150
  38378425.040
                 201680503.997 7
                        45.550

  38732572.740
                 203541092.352 7
                        46.050

 13  7 19  0 23  0.0000000  0 23G13G25G04G17G32G10G01G20G31G23G11R03
                                R02R18R04R17R12R19R11R13E11S26S20
  21879053.600
  21879050.040   114975266.664 8  89591139.192 7
                        49.350          42.250

  25652087.200    25652087.340    25652087.400
  25652086.880   134802631.411 6 105041006.391 6 100664296.531 7
                        38.900          39.900          46.050

  22583456.340
  22583453.540   118676893.566 7  92475515.247 6
                        47.250          39.750

  22703143.300    22703140.400
  22703139.960   119305838.942 8  92965579.157 7
                        49.200          45.400

  22379684.200
  22379680.720   117606188.860 8  91641271.336 7
                        50.150          44.800

  24560066.620
  24560065.920   129064043.745 7 100569385.838 5
                        44.250          32.100

  22547514.180    22547514.680    22547513.340
  22547513.720   118488087.948 8  92328435.326 7  88481419.930 8
                        49.300          46.650          51.100

  20261817.100
  20261812.240   106476717.197 8  82968904.123 8
                        49.600          49.100

  23532090.840    23532087.480
  23532086.560   123662008.158 7  96360012.528 7
                        47.700          43.500

  20617346.580
  20617340.200   108344980.358 8  84424672.246 7
                        50.450          47.150

  25147143.600
  25147142.800   132149208.921 6 102973442.287 6
                        39.650          36.600

  19524859.600
  19524859.060   104518213.602 7  81291978.255 7
                        47.500          46.250

  21369831.340
  21369833.920   114033658.902 8  88692927.897 7
                        48.850          43.650

  20832668.100
  20832672.840   111206230.650 8  86493745.604 7
                        48.650          45.150

  22078638.100
  22078639.060   118230163.907 8  91956822.811 7
                        48.850          42.900

  23767989.220
  23767992.020   127187319.309 7  98923479.000 6
                        44.750          36.400

  21512804.580
  21512807.540   114917577.079 8  89380376.189 6
                        49.700          40.900

  21508260.040
  21508260.080   115054693.432 8  89486987.078 7
                        48.100          43.000

  23426270.740
  23426273.420   125182908.941 7  97364511.350 5
                        45.550          34.150

  22713371.460
  22713375.940   121288152.610 7  94335267.897 6
                        46.000          41.150

  26384810.980                    26384811.760    26384830.140    26384831.420
                 138653147.020 8                 103539703.819 7 106240813.579 8
 104890311.640 7        49.700                          46.850          48.000
        42.900
  38377959.540
                 201678059.662 7
                        45.050

  38732580.600
                 203541132.805 7
                        45.550

 13  7 19  0 23 30.0000000  0 23G13G25G04G17G32G10G01G20G31G23G11R03
                                R02R18R04R17R12R19R11R13E11S26S20
  21862207.380
  21862203.900   114886739.830 8  89522157.290 6
                        49.600          40.500

  25653170.580    25653170.820    25653170.780
  25653170.360   134808324.414 6 105045442.526 6 100668547.814 7
                        40.850          36.050          43.550

  22566585.940
  22566583.000   118588238.582 7  92406433.484 6
                        47.750          37.400

  22713543.840    22713540.960
  22713540.540   119360493.841 8  93008167.353 7
                        49.600          43.950

  22393773.200
  22393769.700   117680226.842 8  91698963.246 7
                        50.250          43.200

  24540655.460
  24540654.260   128962038.215 7 100489901.101 5
                        45.650          34.100

  22566145.900    22566146.380    22566144.960
  22566145.460   118585997.659 8  92404728.566 7  88554534.285 8
                        49.600          45.100          50.700

  20267339.020
  20267334.240   106505735.290 8  82991515.626 7
                        49.550          47.750

  23542421.020    23542417.440
  23542416.640   123716293.134 8  96402312.503 7
                        48.100          42.000

  20610462.780
  20610456.420   108308806.099 8  84396484.535 7
                        50.700          45.600

  25169131.940
  25169131.760   132264759.405 6 103063481.382 5
                        39.050          35.250

  19523641.360
  19523641.040   104511692.819 7  81286906.546 7
                        47.750          46.900

  21385108.620
  21385111.260   114115180.966 8  88756333.928 7
                        49.050          44.150

  20848439.620
  20848444.340   111290420.151 8  86559226.285 7
                        48.400          45.700

  22062142.720
  22062143.640   118141832.057 8  91888120.328 7
                        48.550          43.750

  23793903.580
  23793906.440   127325990.879 7  99031334.330 6
                        45.100          37.450

  21507618.480
  21507621.600   114889874.067 8  89358829.414 6
                        49.250          41.700

  21496523.360
  21496523.540   114991911.403 7  89438156.640 7
                        47.950          43.750

  23442537.520
  23442540.120   125269833.577 7  97432119.398 5
                        45.250          34.850

  22691057.680
  22691062.540   121169000.453 7  94242594.104 7
                        45.900          42.000

  26402445.740                    26402446.420    26402465.000    26402466.080
                 138745817.516 8                 103608905.702 7 106311820.739 7
 104960416.161 7        49.400                          46.300          47.850
        42.950
  38377492.980
                 201675608.764 7
                        45.250

  38732588.220
                 203541172.877 7
                        45.700

 13  7 19  0 24  0.0000000  0 23G13G25G04G17G32G10G01G20G31G23G11R03
                                R02R18R04R17R12R19R11R13E11S26S20
  21845425.880
  21845422.580   114798553.440 8  89453440.680 7
                        48.250          42.850

  25654357.260    25654357.620    25654357.260
  25654357.260   134814560.412 6 105050301.641 6 100673204.450 7
                        38.650          38.200          43.700

  22549776.000
  22549773.060   118499901.856 7  92337599.723 6
                        46.600          40.800

  22724033.520    22724030.620
  22724030.120   119415617.169 8  93051120.565 7
                        48.250          44.900

  22407893.820
  22407890.300   117754431.130 8  91756784.744 7
                        49.000          45.700

  24521255.980
  24521255.120   128860091.746 7 100410462.458 6
                        44.050          38.300

  22584828.860    22584829.240    22584827.860
  22584828.420   118684176.593 8  92481231.605 7  88627849.682 8
                        48.300          46.250          50.450

  20272931.360
  20272926.660   106535123.716 8  83014415.706 8
                        48.400          48.400

  23552848.680    23552845.020
  23552844.220   123771090.395 7  96445011.655 7
                        47.000          43.200

  20603665.820
  20603659.400   108273087.807 8  84368652.122 7
                        49.750          47.650

  25191118.300
  25191117.480   132380295.301 6 103153509.179 6
                        39.350          38.300

  19522494.520
  19522494.140   104505553.221 8  81282131.309 7
                        48.250          46.650

  21400419.100
  21400421.720   114196880.762 8  88819878.189 7
                        49.100          43.950

  20864327.180
  20864331.840   111375228.409 8  86625188.216 7
                        49.150          45.600

  22045681.240
  22045682.280   118053681.940 8  91819559.209 7
                        48.800          43.600

  23819819.900
  23819822.700   127464672.646 7  99139197.569 5
                        45.100          35.950

  21502581.480
  21502584.900   114862967.555 8  89337902.147 6
                        49.700          41.800

  21484922.000
  21484922.420   114929852.546 8  89389888.659 7
                        48.900          43.700

  23458912.360
  23458914.920   125357336.064 7  97500176.897 5
                        44.850          35.050

  22668800.020
  22668804.820   121050146.042 7  94150151.877 6
                        47.050          41.600

  26420096.220                    26420096.920    26420115.400    26420116.560
                 138838570.623 8                 103678169.255 7 106382891.184 8
 105030583.159 7        48.250                          46.000          48.650
        43.900
  38377025.080
                 201673151.625 7
                        43.800

  38732595.300
                 203541209.429 7
                        44.200

 13  7 19  0 24 30.0000000  0 23G13G25G04G17G32G10G01G20G31G23G11R03
                                R02R18R04R17R12R19R11R13E11S26S20
  21828710.300
  21828707.040   114710713.039 8  89384993.668 6
                        49.150          41.350

  25655647.920    25655648.300    25655648.060
  25655648.000   134821343.265 6 105055587.032 6 100678269.664 7
                        39.950          36.900          44.150

  22533027.840
  22533024.980   118411889.679 7  92269018.857 6
                        47.300          39.250

  22734612.520    22734609.620
  22734609.120   119471210.370 8  93094439.893 7
                        48.950          44.250

  22422046.620
  22422043.160   117828804.796 8  91814738.223 7
                        49.700          44.000

  24501868.500
  24501867.700   128758209.063 7 100331073.479 5
                        45.700          34.350

  22603563.280    22603563.880    22603562.360
  22603563.020   118782626.819 8  92557946.019 7  88701367.662 8
                        49.150          45.700          50.850

  20278594.980
  20278590.260   106564886.180 8  83037607.239 8
                        49.400          48.350

  23563374.100    23563370.500
  23563369.720   123826401.606 7  96488111.288 7
                        47.950          42.300

  20596956.460
  20596949.960   108237829.614 8  84341178.222 7
                        50.600          46.100

  25213102.320
  25213101.080   132495818.853 7 103243527.347 5
                        42.100          35.650

  19521419.380
  19521419.000   104499798.448 7  81277655.385 7
                        47.650          45.900

  21415763.380
  21415765.940   114278761.274 8  88883563.007 7
                        48.750          43.000

  20880330.640
  20880335.300   111460655.687 8  86691631.619 7
                        48.800          44.650

  22029254.540
  22029255.560   117965718.246 8  91751143.075 7
                        48.650          42.050

  23845737.960
  23845741.120   127603364.979 7  99247069.040 6
                        43.350          36.050

  21497694.760
  21497698.420   114836863.379 8  89317598.916 6
                        49.350          40.650

  21473457.260
  21473457.680   114868524.009 8  89342188.723 7
                        48.200          43.050

  23475395.340
  23475398.000   125445416.836 7  97568684.176 5
                        43.750          33.550

  22646599.760
  22646604.360   120931597.657 7  94057947.684 6
                        47.000          40.450

  26437762.620                    26437763.580    26437781.840    26437783.140
                 138931408.408 8                 103747496.049 7 106454026.522 7
 105100814.225 7        49.000                          46.950          47.300
        42.300
  38376557.300
                 201670692.649 7
                        45.100

  38732602.400
                 203541245.457 7
                        45.500

 13  7 19  0 25  0.0000000  0 23G13G25G04G17G32G10G01G20G31G23G11R03
                                R02R18R04R17R12R19R11R13E11S26S20
  21812060.880
  21812057.660   114623220.185 8  89316817.481 7
                        49.250          42.700

  25657042.660    25657043.080    25657043.000
  25657042.400   134828672.689 7 105061298.185 6 100683742.856 7
                        43.150          38.400          45.350

  22516341.840
  22516339.060   118324204.499 7  92200692.779 6
                        47.450          41.100

  22745280.440    22745277.580
  22745277.120   119527270.718 8  93138123.244 7
                        48.900          45.500

  22436231.520
  22436228.080   117903347.003 8  91872823.040 7
                        49.850          45.450

  24482493.420
  24482492.120   128656391.392 7 100251735.141 6
                        45.350          36.800

  22622349.000    22622349.600    22622348.100
  22622348.780   118881346.299 8  92634870.255 7  88775086.702 8
                        49.000          46.850          51.000

  20284329.640
  20284324.900   106595021.930 8  83061089.643 8
                        49.350          49.250

  23573996.960    23573993.340
  23573992.620   123882225.046 8  96531610.070 7
                        48.150          43.650

  20590334.740
  20590328.180   108203031.904 8  84314063.142 7
                        50.550          47.850

  25235083.420
  25235082.020   132611327.639 7 103333534.016 5
                        42.450          31.550

  19520416.120
  19520415.800   104494428.258 7  81273478.571 7
                        47.750          47.100

  21431141.480
  21431144.000   114360821.576 8  88947387.663 7
                        48.650          44.250

  20896449.360
  20896453.920   111546697.954 8  86758553.339 7
                        48.600          45.800

  22012862.740
  22012863.640   117877941.407 8  91682872.257 7
                        48.750          43.200

  23871657.400
  23871660.840   127742064.071 6  99354945.743 6
                        41.800          38.050

  21492958.400
  21492962.040   114811562.671 8  89297920.598 6
                        49.150          41.950

  21462129.460
  21462129.920   114807928.270 8  89295058.737 7
                        48.000          44.150

  23491985.920
  23491988.660   125534071.919 7  97637638.140 5
                        42.850          33.950

  22624457.620
  22624461.960   120813359.755 7  93965984.958 6
                        47.200          41.300

  26455444.980                    26455445.880    26455464.140    26455465.400
                 139024328.865 8                 103816884.574 7 106525225.197 7
 105171107.824 6        48.950                          46.950          46.250
        41.050
  38376089.740
                 201668232.491 7
                        45.050

  38732609.080
                 203541280.973 7
                        45.500

 13  7 19  0 25 30.0000000  0 23G13G25G04G17G32G10G01G20G31G23G11R03
                                R02R18R04R17R12R19R11R13E11S26S20
  21795477.940
  21795474.700   114536076.612 8  89248913.454 6
                        49.450          41.250

  25658541.480    25658541.600    25658542.060
  25658540.740   134836548.623 7 105067435.332 6 100689624.269 7
                        45.600          38.050          44.950

  22499718.600
  22499715.880   118236849.077 7  92132623.669 6
                        47.900          39.400

  22756036.880    22756034.060
  22756033.660   119583796.339 8  93182169.130 7
                        48.950          44.250

  22450448.380
  22450445.020   117978057.104 8  91931038.674 7
                        50.200          43.700

  24463129.940
  24463128.740   128554639.454 7 100172448.052 5
                        44.150          34.300

  22641185.560    22641186.320    22641184.760
  22641185.380   118980333.303 8  92712002.936 7  88849005.519 8
                        49.250          45.850          50.450

  20290135.340
  20290130.660   106625531.262 8  83084863.149 8
                        49.550          48.150

  23584716.900    23584713.360
  23584712.560   123938558.903 8  96575506.566 7
                        48.100          42.200

  20583800.680
  20583794.120   108168695.224 8  84287307.303 7
                        50.650          46.350

  25257061.420
  25257059.560   132726819.876 7 103423527.781 5
                        44.500          31.600

  19519484.740
  19519484.480   104489442.401 7  81269600.682 7
                        47.500          46.650

  21446553.140
  21446555.820   114443060.618 8  89011351.335 7
                        49.050          43.850

  20912682.720
  20912687.260   111633352.004 8  86825950.889 7
                        48.600          45.300

  21996506.040
  21996506.980   117790352.257 8  91614747.410 7
                        48.700          42.850

  23897577.620
  23897581.320   127880766.306 7  99462824.997 6
                        43.050          38.000

  21488372.840
  21488376.140   114787067.588 8  89278868.879 6
                        49.050          41.250

  21450939.340
  21450939.780   114748068.553 7  89248501.194 7
                        47.950          43.850

  23508683.320
  23508686.300   125623297.831 7  97707036.074 5
                        42.450          33.350

  22602374.660
  22602378.880   120695437.559 7  93874267.774 6
                        47.300          40.700

  26473142.400                    26473143.620    26473161.800    26473163.140
                 139117330.391 8                 103886333.620 7 106596485.972 7
 105241462.736 7        49.300                          45.800          47.700
        42.450
  38375621.860
                 201665773.082 7
                        45.150

  38732615.460
                 203541315.441 7
                        45.650

 13  7 19  0 26  0.0000000  0 23G13G25G04G17G32G10G01G20G31G23G11R03
                                R02R18R04R17R12R19R11R13E11S26S20
  21778961.900
  21778958.500   114449283.816 8  89181282.751 6
                        49.900          41.400

  25660144.140    25660144.160    25660144.540
  25660143.660   134844970.701 6 105073998.049 6 100695913.534 7
                        41.950          37.900          44.200

  22483158.560
  22483155.860   118149825.753 8  92064813.325 6
                        48.250          39.100

  22766881.440    22766878.680
  22766878.220   119640784.773 8  93226575.649 7
                        48.950          44.200

  22464697.120
  22464693.820   118052934.623 8  91989384.760 7
                        50.200          43.400

  24443779.580
  24443778.220   128452954.379 7 100093212.953 5
                        46.200          33.650

  22660072.800    22660073.460    22660071.900
  22660072.480   119079586.022 8  92789342.672 7  88923122.763 8
                        49.450          45.450          49.900

  20296012.020
  20296007.360   106656413.398 8  83108927.145 7
                        49.800          47.650

  23595533.640    23595530.060
  23595529.240   123995401.439 8  96619799.447 6
                        48.600          41.700

  20577354.380
  20577347.800   108134819.826 8  84260910.907 7
                        50.800          46.000

  25279035.680
  25279033.840   132842293.673 7 103513507.218 5
                        45.450          30.700

  19518625.060
  19518624.800   104484840.788 7  81266021.658 7
                        47.600          46.350

  21461998.080
  21462000.860   114525477.561 8  89075453.375 7
                        48.750          43.300

  20929029.940
  20929034.440   111720614.006 8  86893821.304 7
                        48.400          45.050

  21980184.460
  21980185.520   117702951.537 8  91546769.139 7
                        48.800          42.450

  23923497.700
  23923501.500   128019468.044 7  99570703.921 6
                        43.250          38.550

  21483938.300
  21483941.340   114763379.613 8  89260444.913 6
                        48.900          41.100

  21439887.440
  21439887.740   114688947.814 8  89202518.422 7
                        48.050          43.600

  23525486.660
  23525490.100   125713090.715 7  97776874.973 5
                        42.100          32.250

  22580351.500
  22580355.700   120577835.372 7  93782799.496 6
                        47.250          40.000

  26490855.300                    26490856.320    26490874.660    26490875.820
                 139210411.168 8                 103955841.869 7 106667807.484 7
 105311877.618 7        49.300                          44.850          47.300
        42.050
  38375153.520
                 201663313.838 7
                        45.400

  38732621.920
                 203541350.067 7
                        45.850

 13  7 19  0 26 30.0000000  0 23G13G25G04G17G32G10G01G20G31G23G11R03
                                R02R18R04R17R12R19R11R13E11S26S20
  21762512.480
  21762508.980   114362841.047 8  89113924.798 6
                        49.650          41.600

  25661850.060    25661850.180    25661850.220
  25661849.900   134853935.541 6 105080983.531 6 100702607.987 7
                        38.250          38.050          44.600

  22466661.640
  22466659.000   118063134.184 8  91997261.498 6
                        48.100          39.850

  22777813.040    22777810.300
  22777809.800   119698230.688 8  93271338.652 7
                        48.750          44.000

  22478976.980
  22478973.660   118127975.478 8  92047858.127 7
                        50.050          43.550

  24424442.320
  24424441.100   128351334.310 7 100014028.592 6
                        46.650          37.200

  22679009.680    22679010.260    22679008.780
  22679009.280   119179099.381 8  92866885.512 7  88997434.655 8
                        49.300          45.800          50.250

  20301959.060
  20301954.460   106687665.244 8  83133279.232 8
                        49.600          48.050

  23606446.300    23606442.620
  23606441.820   124052747.508 8  96664484.687 6
                        48.450          41.800

  20570995.300
  20570988.760   108101402.971 8  84234871.816 7
                        50.700          46.600

  25301005.260
  25301003.360   132957743.901 7 103603468.320 5
                        45.350          32.600

  19517836.600
  19517836.240   104480619.835 7  81262738.704 7
                        47.800          46.100

  21477475.460
  21477478.060   114608068.184 8  89139690.502 7
                        48.900          42.800

  20945489.540
  20945494.260   111808477.037 8  86962159.180 7
                        48.400          44.700

  21963897.700
  21963898.560   117615736.813 8  91478935.509 7
                        48.850          42.250

  23949416.600
  23949420.320   128158162.089 7  99678576.925 6
                        42.650          38.500

  21479654.620
  21479657.640   114740497.062 8  89242647.391 6
                        49.050          40.850

  21428973.480
  21428973.800   114630565.599 8  89157110.051 7
                        48.100          43.400

  23542394.940
  23542398.320   125803444.188 6  97847149.896 5
                        41.350          30.250

  22558388.640
  22558392.800   120460555.278 7  93691581.723 6
                        47.850          39.900

  26508582.180                    26508583.160    26508601.560    26508602.740
                 139303566.231 8                 104025405.587 7 106739185.921 7
 105382348.695 6        49.650                          44.950          46.550
        41.100
  38374684.500
                 201660850.393 7
                        45.250

  38732627.660
                 203541382.225 7
                        45.850

 13  7 19  0 27  0.0000000  0 23G13G25G04G17G32G10G01G20G31G23G11R03
                                R02R18R04R17R12R19R11R13E11S26S20
  21746130.320
  21746126.780   114276752.134 8  89046842.575 6
                        49.400          41.100

  25663659.900    25663659.920    25663660.040
  25663659.200   134863445.613 7 105088393.975 5 100709709.648 7
                        43.800          35.900          45.300

  22450228.860
  22450226.120   117976779.327 7  91929972.030 6
                        47.800          39.550

  22788831.800    22788828.960
  22788828.480   119756134.392 8  93316458.372 7
                        48.850          43.000

  22493288.220
  22493284.900   118203181.492 8  92106460.181 7
                        49.950          42.850

  24405117.960
  24405116.840   128249782.429 7  99934897.359 5
                        43.850          35.150

  22697996.100    22697996.780    22697995.300
  22697995.800   119278874.012 8  92944631.917 7  89071941.618 8
                        49.150          44.700          50.400

  20307976.820
  20307972.240   106719288.959 8  83157921.085 7
                        49.450          47.450

  23617454.960    23617451.280
  23617450.360   124110597.944 8  96709562.931 6
                        48.650          41.200

  20564724.040
  20564717.520   108068447.453 8  84209192.204 7
                        50.650          45.750

  25322970.380
  25322968.900   133073171.252 7 103693411.530 5
                        45.300          30.800

  19517119.720
  19517119.300   104476781.972 7  81259753.702 7
                        47.800          46.950

  21492985.720
  21492988.080   114690834.189 8  89204064.030 7
                        48.800          43.850

  20962061.560
  20962066.340   111896939.829 8  87030963.528 7
                        48.400          45.600

  21947646.260
  21947647.140   117528711.189 8  91411248.973 7
                        48.650          43.250

  23975333.520
  23975337.540   128296847.460 6  99786443.084 6
                        40.050          40.100

  21475522.500
  21475525.740   114718423.883 8  89225479.374 7
                        49.300          42.100

  21418198.660
  21418198.880   114572927.241 8  89112280.234 7
                        48.600          44.100

  23559407.980
  23559410.980   125894356.576 6  97917859.503 5
                        41.200          31.150

  22536487.500
  22536491.620   120343604.305 7  93600619.932 6
                        47.850          40.900

  26526323.520                    26526324.500    26526342.640    26526343.820
                 139396796.262 8                 104095025.302 7 106810621.806 7
 105452876.495 6        49.650                          45.800          46.400
        41.550
  38374215.360
                 201658384.781 7
                        45.300

  38732633.700
                 203541412.888 7
                        45.800

 13  7 19  0 27 30.0000000  0 23G13G25G04G17G32G10G01G20G31G23G11R03
                                R02R18R04R17R12R19R11R13E11S26S20
  21729815.720
  21729812.160   114191018.448 8  88980037.165 6
                        49.600          41.250

  25665573.240    25665573.240    25665573.520
  25665572.200   134873500.243 7 105096228.600 6 100717217.798 7
                        42.800          37.900          45.800

  22433860.720
  22433857.840   117890763.627 7  91862946.848 6
                        47.850          38.300

  22799937.180    22799934.380
  22799933.840   119814492.958 8  93361932.530 7
                        49.100          43.300

  22507630.680
  22507627.360   118278551.717 8  92165190.200 7
                        49.900          42.900

  24385805.800
  24385805.020   128148299.375 7  99855819.839 5
                        44.200          35.100

  22717031.900    22717032.640    22717031.140
  22717031.600   119378907.853 8  93022580.325 7  89146642.170 8
                        49.300          44.700          50.100

  20314065.200
  20314060.640   106751283.938 8  83182852.239 7
                        49.550          47.150

  23628559.100    23628555.320
  23628554.480   124168950.344 8  96755032.335 6
                        49.050          41.850

  20558540.640
  20558534.120   108035953.441 8  84183872.217 7
                        50.850          45.500

  25344930.540
  25344928.840   133188573.510 7 103783335.245 4
                        44.250          25.050

  19516474.220
  19516473.820   104473326.812 8  81257066.374 7
                        48.100          46.300

  21508528.840
  21508531.160   114773774.487 8  89268573.140 7
                        49.100          42.950

  20978745.200
  20978750.160   111985998.662 8  87100231.476 7
                        48.750          44.800

  21931430.300
  21931431.200   117441875.291 8  91343710.007 7
                        48.900          42.700

  24001247.740
  24001251.760   128435520.047 6  99894299.357 6
                        39.700          39.400

  21471542.220
  21471545.620   114697161.610 8  89208942.062 6
                        49.400          41.200

  21407563.420
  21407563.360   114516035.191 8  89068030.876 7
                        48.450          43.550

  23576524.620
  23576527.720   125985823.937 7  97989000.798 5
                        42.400          30.100

  22514648.720
  22514652.800   120226986.630 7  93509917.403 6
                        47.400          40.250

  26544078.520                    26544079.620    26544097.540    26544099.000
                 139490099.280 8                 104164699.522 7 106882113.635 7
 105523459.519 6        50.100                          45.150          45.400
        40.400
  38373744.780
                 201655914.381 7
                        45.350

  38732638.900
                 203541441.249 7
                        45.800

 13  7 19  0 28  0.0000000  0 23G13G25G04G17G32G10G01G20G31G23G11R03
                                R02R18R04R17R12R19R11R13E11S26S20
  21713569.100
  21713565.600   114105642.083 8  88913510.178 7
                        49.750          42.850

  25667590.200    25667590.380    25667590.460
  25667589.620   134884099.634 7 105104487.810 6 100725132.835 7
                        43.850          40.650          47.700

  22417557.580
  22417554.660   117805089.719 8  91796187.985 6
                        48.150          40.550

  22811128.720    22811125.940
  22811125.340   119873304.393 8  93407759.572 7
                        48.950          45.400

  22522004.400
  22522000.980   118354085.821 8  92224047.912 7
                        50.150          44.550

  24366508.140
  24366506.480   128046886.976 7  99776797.276 6
                        46.150          37.200

  22736116.880    22736117.500    22736115.940
  22736116.420   119479199.343 8  93100729.499 7  89221535.111 8
                        49.300          46.700          50.650

  20320224.320
  20320219.680   106783650.279 8  83208072.763 8
                        49.600          49.150

  23639758.460    23639754.700
  23639753.920   124227803.060 8  96800891.588 7
                        48.900          43.550

  20552445.280
  20552438.720   108003921.945 8  84158912.618 7
                        50.800          47.700

  25366885.700
  25366883.900   133303948.933 7 103873238.080 5
                        45.900          31.700

  19515900.420
  19515899.960   104470254.522 7  81254676.826 7
                        47.850          44.950

  21524104.480
  21524107.000   114856888.270 8  89333217.173 6
                        49.300          41.900

  20995539.820
  20995544.760   112075649.666 8  87169959.991 7
                        48.550          43.150

  21915249.720
  21915250.780   117355230.056 8  91276319.336 6
                        48.400          40.850

  24027158.860
  24027163.120   128574176.530 6 100002143.009 6
                        40.700          38.550

  21467713.980
  21467717.420   114676711.652 8  89193036.551 6
                        49.150          39.850

  21397068.080
  21397068.120   114459892.769 8  89024364.572 7
                        48.050          42.100

  23593744.700
  23593748.120   126077843.168 7  98060571.342 4
                        42.600          28.500

  22492873.300
  22492877.260   120110707.813 7  93419478.403 6
                        46.900          38.550

  26561847.040                    26561848.300    26561866.120    26561867.660
                 139583473.817 8                 104234427.146 7 106953660.255 7
 105594096.640 6        49.900                          46.800          45.950
        41.200
  38373273.280
                 201653441.534 7
                        45.300

  38732644.440
                 203541469.658 7
                        45.900

 13  7 19  0 28 30.0000000  0 23G13G25G04G17G32G10G01G20G31G23G11R03
                                R02R18R04R17R12R19R11R13E11S26S20
  21697390.700
  21697387.220   114020624.340 8  88847262.630 7
                        49.650          42.550

  25669710.880    25669710.980    25669710.860
  25669710.540   134895243.473 6 105113171.257 6 100733454.484 7
                        39.000          37.600          43.300

  22401319.960
  22401316.900   117719760.382 8  91729697.623 6
                        48.400          39.800

  22822405.880    22822403.160
  22822402.620   119932566.222 8  93453937.567 7
                        48.850          44.750

  22536409.140
  22536405.680   118429782.972 8  92283032.673 7
                        50.400          43.200

  24347223.520
  24347222.020   127945545.974 7  99697830.376 6
                        44.900          37.650

  22755250.380    22755251.040    22755249.360
  22755250.020   119579746.420 8  93179077.809 7  89296618.926 8
                        49.350          45.750          49.850

  20326454.000
  20326449.360   106816387.382 8  83233582.191 8
                        49.700          48.400

  23651052.640    23651048.960
  23651048.140   124287154.185 8  96847139.206 7
                        48.950          42.950

  20546437.800
  20546431.240   107972352.485 8  84134313.051 7
                        50.950          46.750

  25388835.500
  25388834.160   133419295.551 7 103963118.440 5
                        44.550          32.650

  19515397.880
  19515397.380   104467564.584 7  81252584.662 7
                        47.750          45.900

  21539712.400
  21539715.120   114940174.607 8  89397995.414 7
                        49.550          42.750

  21012444.800
  21012449.660   112165889.226 8  87240146.266 7
                        48.700          44.300

  21899104.940
  21899105.900   117268776.169 8  91209077.482 6
                        48.300          41.750

  24053066.460
  24053071.100   128712812.988 7 100109971.108 6
                        42.950          39.950

  21464037.980
  21464041.400   114657075.518 8  89177764.017 6
                        48.800          40.850

  21386713.260
  21386713.660   114404502.641 8  88981283.383 7
                        48.100          43.450

  23611067.400
  23611071.240   126170410.104 7  98132567.861 4
                        43.150          29.850

  22471162.040
  22471166.320   119994772.201 7  93329306.360 6
                        46.850          40.700

  26579628.720                    26579630.280    26579648.100    26579649.620
                 139676917.880 8                 104304206.684 7 107025260.147 7
 105664786.356 6        49.950                          45.100          45.550
        40.650
  38372801.560
                 201650967.035 7
                        45.400

  38732649.960
                 203541498.177 7
                        46.150

 13  7 19  0 29  0.0000000  0 23G13G25G04G17G32G10G01G20G31G23G11R03
                                R02R18R04R17R12R19R11R13E11S26S20
  21681280.480
  21681277.000   113935964.657 8  88781294.103 7
                        49.200          42.050

  25671935.000                    25671933.980
                 134906925.73716                 100742190.594 6
                        38.800                          37.050

  22385147.820
  22385144.800   117634775.743 7  91663475.868 6
                        47.650          39.100

  22833767.840    22833765.080
  22833764.560   119992273.436 8  93500462.627 7
                        48.650          43.700

  22550844.400
  22550840.860   118505640.284 8  92342142.234 7
                        50.050          43.050

  24327951.560
  24327950.640   127844275.011 7  99618918.086 6
                        43.550          36.000

  22774431.780    22774432.360    22774430.860
  22774431.320   119680544.979 8  93257622.100 7  89371890.514 8
                        48.850          44.550          50.350

  20332753.780
  20332749.140   106849492.645 8  83259378.504 7
                        49.200          47.800

  23662440.840    23662437.280
  23662436.460   124346999.816 8  96893772.159 7
                        48.650          42.250

  20540517.940
  20540511.380   107941243.510 8  84110072.314 7
                        50.550          46.550

  25410778.980
  25410777.820   133534609.282 7 104052973.224 5
                        43.400          33.100

  19514966.300
  19514965.780   104465254.586 7  81250788.006 7
                        47.150          46.900

  21555351.980
  21555354.620   115023630.384 8  89462905.444 7
                        48.650          43.750

  21029458.960
  21029463.800   112256711.178 8  87310785.520 7
                        48.300          45.500

  21882995.620
  21882996.500   117182512.014 8  91141983.208 7
                        48.000          42.900

  24078969.280
  24078974.220   128851423.335 7 100217778.904 6
                        43.300          40.550

  21460514.140
  21460517.440   114638252.235 8  89163123.703 6
                        48.400          41.850

  21376499.320
  21376499.780   114349865.024 7  88938787.477 7
                        47.800          44.250

  23628491.540
  23628495.040   126263518.718 7  98204985.696 5
                        43.650          30.500

  22449515.620
  22449520.200   119879182.044 7  93239403.023 6
                        46.600          41.900

  26597423.100                    26597424.740    26597442.480    26597444.160
                 139770427.492 8                 104374035.163 7 107096910.264 7
 105735525.654 6        49.300                          46.250          45.900
        41.300
  38372330.060
                 201648489.029 7
                        44.800

  38732655.300
                 203541526.205 7
                        45.600

 13  7 19  0 29 30.0000000  0 23G13G25G04G17G32G10G01G20G31G23G11R03
                                R02R18R04R17R12R19R11R13E11S26S20
  21665239.380
  21665235.920   113851668.586 8  88715608.902 7
                        49.250          42.850

  25674262.020    25674261.960    25674262.240
  25674262.580   134919156.210 6 105131834.84615 100751319.56616
                        40.600          34.000          38.900

  22369042.460
  22369039.480   117550141.800 7  91597527.369 6
                        47.650          39.550

  22845214.800    22845212.020
  22845211.480   120052427.446 8  93547335.827 7
                        48.750          44.000

  22565310.680
  22565307.120   118581660.505 8  92401378.741 7
                        50.100          43.950

  24308694.220
  24308693.800   127743078.572 7  99540063.835 5
                        44.650          35.500

  22793661.260    22793661.920    22793660.460
  22793660.820   119781596.639 8  93336363.600 7  89447351.114 8
                        48.700          45.100          49.550

  20339124.180
  20339119.540   106882969.312 8  83285464.217 8
                        49.150          48.400

  23673923.420    23673919.880
  23673919.160   124407341.447 8  96940791.609 7
                        48.450          43.150

  20534686.420
  20534679.780   107910598.676 8  84086193.233 7
                        50.650          47.000

  25432716.520
  25432715.540   133649891.757 6 104142803.601 5
                        41.700          32.500

  19514606.340
  19514605.920   104463327.807 7  81249289.412 7
                        47.700          46.350

  21571023.720
  21571026.100   115107258.144 8  89527949.237 7
                        49.150          42.750

  21046582.120
  21046586.880   112348115.323 8  87381877.598 7
                        48.800          44.800

  21866922.560
  21866923.460   117096441.719 8  91075039.697 7
                        48.750          42.300

  24104867.180
  24104872.140   128990007.858 7 100325566.689 6
                        44.000          39.600

  21457143.440
  21457146.720   114620246.673 8  89149119.391 6
                        48.800          41.350

  21366427.260
  21366427.540   114295986.022 7  88896881.605 7
                        47.950          43.700

  23646017.040
  23646019.660   126357168.751 7  98277824.636 4
                        45.050          29.800

  22427935.640
  22427940.160   119763945.805 7  93149774.933 6
                        47.050          41.600

  26615230.140                    26615231.900    26615249.700    26615251.380
                 139864004.358 8                 104443913.866 7 107168611.906 7
 105806315.827 6        49.100                          45.650          46.000
        41.550
  38371859.320
                 201646013.783 7
                        45.000

  38732661.200
                 203541557.033 7
                        45.650

 13  7 19  0 30  0.0000000  0 23G13G25G04G17G32G10G01G20G31G23G11R03
                                R02R18R04R17R12R19R11R13E11S26S20
  21649266.880
  21649263.440   113767733.073 8  88650204.649 7
                        49.350          42.450

  25676692.200    25676692.500    25676693.660
  25676691.880   134931926.823 6 105141786.031 5 100760856.151 6
                        37.500          34.650          40.350

  22353003.360
  22353000.440   117465856.614 7  91531850.638 6
                        47.750          39.700

  22856745.460    22856742.760
  22856742.120   120113021.373 8  93594551.839 7
                        48.600          43.950

  22579806.900
  22579803.340   118657838.476 8  92460738.173 7
                        50.200          43.300

  24289450.940
  24289449.740   127641953.171 7  99461264.897 5
                        45.500          35.000

  22812937.660    22812938.320    22812936.880
  22812937.200   119882895.030 8  93415297.369 7  89522995.966 8
                        49.000          44.400          50.550

  20345564.300
  20345559.740   106916812.807 8  83311835.769 8
                        49.450          48.250

  23685499.100    23685495.560
  23685494.880   124468172.229 8  96988192.205 7
                        48.600          42.950

  20528942.340
  20528935.700   107880413.553 8  84062672.372 7
                        50.750          46.750

  25454646.580
  25454645.960   133765136.327 6 104232604.440 5
                        41.900          32.150

  19514317.100
  19514316.660   104461779.486 7  81248085.170 7
                        47.700          47.050

  21586726.720
  21586728.920   115191052.470 8  89593122.579 7
                        49.000          43.600

  21063812.720
  21063817.540   112440093.108 8  87453415.823 7
                        48.650          45.600

  21850885.200
  21850885.900   117010561.603 8  91008244.097 7
                        49.050          43.150

  24130759.080
  24130763.300   129128558.582 7 100433328.353 6
                        44.750          40.550

  21453925.200
  21453928.620   114603055.266 8  89135748.313 7
                        49.150          42.500

  21356496.580
  21356496.860   114242864.139 8  88855564.602 7
                        48.150          44.350

  23663642.260
  23663644.360   126451351.784 7  98351078.139 5
                        45.250          31.600

  22406421.940
  22406426.480   119649063.882 7  93060422.434 7
                        47.250          42.850

  26633048.980                    26633050.820    26633068.460    26633070.340
                 139957642.195 8                 104513838.084 7 107240360.270 7
 105877152.117 6        49.150                          47.250          46.400
        41.950
  38371387.620
                 201643535.388 7
                        45.050

  38732666.960
                 203541584.651 7
                        46.000

 13  7 19  0 30 30.0000000  0 23G13G25G04G17G32G10G01G20G31G23G11R03
                                R02R18R04R17R12R19R11R13E11S26S20
  21633363.820
  21633360.340   113684161.950 8  88585084.342 7
                        49.350          42.800

  25679225.360    25679225.300    25679226.920
  25679225.880   134945239.752 6 105152159.649 5 100770797.545 6
                        38.800          33.650          40.300

  22337031.720
  22337028.860   117381925.502 7  91466449.799 6
                        47.850          38.500

  22868359.780    22868357.120
  22868356.500   120174055.155 8  93642110.569 7
                        48.450          44.050

  22594333.480
  22594329.900   118734175.959 8  92520221.895 7
                        50.350          43.550

  24270221.640
  24270219.780   127540902.472 7  99382524.161 5
                        44.800          32.300

  22832261.100    22832261.720    22832260.420
  22832260.700   119984440.677 8  93494423.795 7  89598825.449 8
                        48.600          44.550          50.350

  20352074.620
  20352070.060   106951024.896 8  83338494.531 8
                        49.400          48.050

  23697168.000    23697164.540
  23697163.780   124529492.781 8  97035974.439 7
                        48.600          43.400

  20523286.360
  20523279.740   107850691.177 8  84039512.090 7
                        50.850          46.850

  25476569.980
  25476569.340   133880343.444 6 104322376.144 5
                        41.600          34.200

  19514098.920
  19514098.480   104460611.990 7  81247177.122 7
                        47.750          46.250

  21602461.200
  21602463.600   115275014.980 8  89658426.726 7
                        48.800          42.900

  21081150.420
  21081155.360   112532643.090 8  87525399.082 7
                        48.850          44.800

  21834883.780
  21834884.360   116924874.827 8  90941598.883 7
                        49.000          42.100

  24156644.160
  24156648.660   129267073.948 7 100541062.324 6
                        44.700          39.750

  21450860.140
  21450863.680   114586682.030 8  89123013.591 6
                        49.150          41.500

  21346708.380
  21346708.740   114190504.062 8  88814840.114 7
                        48.350          43.800

  23681366.980
  23681369.240   126546066.777 7  98424745.349 5
                        44.850          31.550

  22384975.840
  22384980.320   119534543.500 7  92971351.128 7
                        47.650          42.050

  26650879.360                    26650881.300    26650899.220    26650900.880
                 140051341.674 8                 104583808.331 7 107312155.840 7
 105948035.026 7        48.800                          47.350          47.400
        43.000
  38370914.900
                 201641055.111 7
                        45.200

  38732671.880
                 203541610.556 7
                        46.000

 13  7 19  0 31  0.0000000  0 23G13G25G04G17G32G10G01G20G31G23G11R03
                                R02R18R04R17R12R19R11R13E11S26S20
  21617530.400
  21617526.960   113600957.289 8  88520249.581 6
                        49.550          41.550

  25681861.740    25681861.900    25681862.880
  25681862.180   134959094.713 6 105162955.918 5 100781143.967 6
                        39.550          31.700          39.100

  22321127.940
  22321125.140   117298351.171 8  91401326.980 6
                        48.350          38.800

  22880057.400    22880054.780
  22880054.240   120235526.789 8  93690010.498 7
                        48.400          43.300

  22608890.360
  22608886.700   118810672.525 8  92579829.584 7
                        50.650          42.350

  24251006.620
  24251005.060   127439927.688 7  99303842.636 5
                        45.750          33.000

  22851631.340    22851631.960    22851630.680
  22851630.980   120086231.951 8  93573741.626 7  89674838.358 8
                        48.900          43.900          48.700

  20358655.100
  20358650.560   106985605.549 8  83365440.491 7
                        49.650          46.950

  23708929.780    23708926.280
  23708925.500   124591301.297 8  97084136.910 7
                        48.650          42.250

  20517718.540
  20517711.860   107821431.836 8  84016712.617 7
                        51.150          45.750

  25498485.960
  25498485.120   133995511.777 6 104412117.654 5
                        41.850          34.600

  19513951.980
  19513951.560   104459825.197 7  81246565.181 7
                        47.600          45.850

  21618227.160
  21618229.740   115359144.987 8  89723861.155 7
                        48.950          42.100

  21098594.860
  21098599.640   112625761.807 8  87597824.716 7
                        48.600          43.950

  21818918.700
  21818919.180   116839382.329 8  90875104.770 6
                        49.300          41.550

  24182522.060
  24182526.940   129405550.732 7 100648766.325 6
                        44.500          36.650

  21447948.500
  21447951.960   114571128.438 8  89110916.370 6
                        48.450          40.800

  21337063.340
  21337063.460   114138908.732 8  88774710.428 7
                        48.550          42.900

  23699190.420
  23699193.080   126641309.922 7  98498823.374 5
                        44.800          31.650

  22363598.420
  22363602.620   119420389.377 7  92882564.681 6
                        47.700          41.000

  26668721.060                    26668723.280    26668741.280    26668742.940
                 140145101.273 8                 104653823.463 7 107383997.482 7
 106018963.413 7        48.200                          45.300          47.300
        42.700
  38370443.380
                 201638573.013 7
                        45.850

  38732676.080
                 203541635.299 7
                        46.250

 13  7 19  0 31 30.0000000  0 24G13G25G04G17G32G10G02G01G20G31G23G11
                                R03R02R18R04R17R12R19R11R13E11S26S20
  21601767.300
  21601763.840   113518122.160 8  88455702.786 7
                        49.150          42.050

  25684601.660    25684602.160    25684602.400
  25684601.940   134973492.530 6 105174151.97915 100791895.635 6
                        37.500          30.550          38.850

  22305292.840
  22305289.920   117215137.309 8  91336485.048 6
                        48.100          39.350

  22891838.180    22891835.500
  22891835.100   120297435.009 8  93738250.614 7
                        48.000          43.100

  22623477.580
  22623473.940   118887328.860 8  92639561.768 7
                        50.150          42.450

  24231806.280
  24231805.100   127339031.239 7  99225222.147 5
                        44.400          33.000

  25892224.360
  25892224.600   136064558.607 5 106024290.93714
                        35.500          29.200

  22871048.320    22871048.900    22871047.560
  22871047.860   120188268.160 8  93653250.316 7  89751034.170 8
                        48.550          43.650          50.900

  20365305.980
  20365301.480   107020556.075 8  83392674.671 7
                        49.400          47.450

  23720784.260    23720780.860
  23720779.980   124653597.288 7  97132679.237 7
                        47.950          42.200

  20512239.140
  20512232.480   107792637.361 8  83994275.378 7
                        50.800          46.200

  25520394.160
  25520393.580   134110640.610 6 104501828.309 5
                        38.800          34.800

  19513876.280
  19513875.980   104459420.347 7  81246250.305 7
                        47.700          46.150

  21634024.720
  21634027.240   115443443.114 8  89789426.346 7
                        49.550          42.750

  21116145.320
  21116150.080   112719446.820 8  87670690.783 7
                        48.900          44.550

  21802990.320
  21802990.720   116754086.412 8  90808763.545 7
                        49.000          42.100

  24208392.360
  24208396.860   129543986.940 7 100756438.944 6
                        44.050          37.300

  21445190.620
  21445193.940   114556396.964 8  89099458.574 6
                        48.700          41.150

  21327562.140
  21327562.080   114088082.197 8  88735178.695 7
                        48.650          43.650

  23717112.460
  23717115.060   126737078.782 7  98573310.272 5
                        45.050          32.700

  22342290.720
  22342294.880   119306607.706 8  92794067.924 6
                        48.100          41.550

  26686574.380                    26686576.460    26686594.700    26686596.260
                 140238920.522 7                 104723883.144 8 107455884.819 8
 106089936.922 7        47.950                          48.250          48.600
        43.900
  38369971.660
                 201636088.314 7
                        45.300

  38732680.620
                 203541659.325 7
                        45.850

 13  7 19  0 32  0.0000000  0 24G13G25G04G17G32G10G02G01G20G31G23G11
                                R03R02R18R04R17R12R19R11R13E11S26S20
  21586074.100
  21586070.700   113435654.066 8  88391441.979 7
                        49.300          42.600

                                  25687444.580
                                                 100803052.53216
                                                        38.350

  22289526.040
  22289523.200   117132282.457 8  91271922.869 6
                        48.450          39.200

  22903700.680    22903698.100
  22903697.660   120359773.135 8  93786825.726 7
                        48.350          43.600

  22638094.300
  22638090.660   118964140.248 8  92699414.771 7
                        50.200          43.250

  24212620.560
  24212619.800   127238210.296 7  99146660.496 5
                        46.150          35.050

  25871657.680
                 135956485.355 5
                        33.350

  22890510.700    22890511.180    22890510.040
  22890510.220   120290543.537 8  93732945.379 7  89827408.580 8
                        48.650          44.350          49.850

  20372026.440
  20372021.820   107055871.677 8  83420193.316 7
                        49.750          47.350

  23732730.340    23732726.960
  23732726.080   124716374.567 8  97181596.583 7
                        48.000          42.350

  20506847.380
  20506840.740   107764303.529 8  83972197.086 7
                        51.050          46.550

  25542293.680
  25542293.140   134225724.100 6 104591503.532 6
                        38.500          36.250

  19513871.200
  19513870.800   104459393.073 7  81246229.105 7
                        47.400          46.700

  21649852.720
  21649855.140   115527904.200 8  89855118.277 7
                        48.850          42.850

  21133800.180
  21133805.040   112813689.822 7  87743990.854 7
                        47.950          44.950

  21787097.700
  21787098.300   116668983.377 8  90742572.358 7
                        48.450          42.950

  24234253.440
  24234257.740   129682374.150 6 100864073.202 6
                        41.950          36.950

  21442586.100
  21442589.260   114542484.318 8  89088637.644 6
                        48.550          41.700

  21318204.000
  21318203.940   114038022.750 8  88696243.590 7
                        48.300          44.200

  23735131.220
  23735133.560   126833365.578 7  98648200.014 5
                        43.750          33.600

  22321052.880
  22321057.160   119193199.229 7  92705861.423 6
                        47.650          41.950

  26704437.820                    26704440.040    26704458.300    26704459.840
                 140332793.583 7                 104793982.994 7 107527813.379 7
 106160951.128 7        47.850                          46.700          47.950
        43.050
  38369497.340
                 201633598.415 7
                        45.750

  38732684.580
                 203541680.437 7
                        46.200

 13  7 19  0 32 30.0000000  0 23G13G25G04G17G32G10G01G20G31G23G11R03
                                R02R18R04R17R12R19R11R13E11S26S20
  21570451.580
  21570448.180   113353557.435 8  88327470.623 7
                        49.100          43.050

  25690388.880                    25690388.760
  25690379.580   135003904.13315 105197809.58915 100814605.13016
                        35.900          31.700          37.650

  22273828.700
  22273825.900   117049792.410 8  91207644.937 6
                        48.050          40.200

  22915645.260    22915642.580
  22915642.180   120422541.722 8  93835736.250 7
                        48.100          43.250

  22652740.920
  22652737.400   119041109.123 8  92759390.491 7
                        50.050          43.250

  24193450.480
  24193449.180   127137469.164 7  99068161.017 5
                        45.900          35.300

  22910018.580    22910019.400    22910018.240
  22910018.540   120393059.257 8  93812827.691 7  89903962.449 8
                        48.250          44.550          50.750

  20378816.840
  20378812.200   107091555.399 8  83447998.807 7
                        49.350          47.300

  23744768.180    23744765.000
  23744764.040   124779634.400 7  97230889.941 7
                        47.750          42.300

  20501543.980
  20501537.380   107736434.155 8  83950480.703 7
                        50.850          46.850

  25564184.980
  25564184.580   134340763.072 6 104681144.138 5
                        39.450          34.150

  19513937.260
  19513936.800   104459746.488 7  81246503.981 7
                        47.450          46.450

  21665711.700
  21665714.140   115612530.775 8  89920938.924 7
                        48.750          42.700

  21151559.560
  21151564.440   112908490.431 8  87817724.598 7
                        48.650          44.650

  21771241.980
  21771242.700   116584077.479 8  90676534.496 7
                        48.750          42.750

  24260105.580
  24260109.860   129820712.865 6 100971669.749 5
                        41.250          35.800

  21440135.760
  21440138.840   114529394.886 8  89078456.986 6
                        48.750          41.550

  21308990.340
  21308990.300   113988736.186 8  88657909.615 7
                        48.300          43.700

  23753246.500
  23753248.660   126930169.323 7  98723491.793 5
                        43.000          33.350

  22299886.340
  22299890.500   119080171.407 7  92617950.980 6
                        47.750          41.250

  26722312.020                    26722314.100    26722332.380    26722333.860
                 140426721.819 7                 104864124.055 7 107599784.216 7
 106232007.076 7        47.800                          47.600          47.950
        42.950
  38369022.540
                 201631107.492 7
                        45.300

  38732688.560
                 203541702.301 7
                        45.800

 13  7 19  0 33  0.0000000  0 24G13G25G04G17G32G10G02G01G20G31G23G11
                                R03R02R18R04R17R12R19R11R13E11S26S20
  21554899.460
  21554896.020   113271830.671 8  88263787.463 7
                        48.950          42.700

                                  25693435.840
                                                 100826562.41116
                                                        38.700

  22258200.660
  22258197.840   116967666.503 8  91143650.746 6
                        48.100          40.350

  22927670.680    22927668.020
  22927667.540   120485735.029 8  93884977.735 7
                        48.100          43.900

  22667416.840
  22667413.400   119118231.643 8  92819485.932 7
                        50.000          43.350

  24174294.720
  24174293.060   127036805.118 7  98989721.572 5
                        46.400          35.250

  25830535.860
  25830533.860   135740379.85416 105771715.91514
                        37.050          26.450

  22929571.540    22929572.340    22929571.200
  22929571.460   120495810.136 8  93892893.268 7  89980691.932 8
                        48.350          44.700          50.200

  20385676.540
  20385671.880   107127603.481 8  83476088.220 7
                        49.250          47.700

  23756896.860    23756893.720
  23756892.860   124843371.454 7  97280555.167 7
                        47.450          42.900

  20496328.340
  20496321.800   107709025.955 8  83929123.678 7
                        50.850          47.000

  25586067.240
  25586066.220   134455752.678 7 104770746.298 5
                        43.200          33.850

  19514073.620
  19514073.300   104460476.862 7  81247072.063 7
                        47.700          46.800

  21681600.900
  21681603.300   115697318.647 8  89986885.024 7
                        49.200          42.800

  21169422.040
  21169426.880   113003841.154 8  87891886.222 7
                        48.650          44.800

  21755422.740
  21755423.460   116499366.009 8  90610647.849 7
                        49.000          43.250

  24285947.120
  24285951.500   129958996.067 6 101079223.177 5
                        39.800          35.300

  21437839.080
  21437842.240   114517126.332 8  89068914.806 6
                        49.100          41.800

  21299921.000
  21299920.920   113940221.568 8  88620176.032 7
                        48.650          44.150

  23771457.240
  23771459.580   127027483.057 7  98799180.248 5
                        43.050          34.400

  22278791.440
  22278795.340   118967526.258 8  92530338.153 6
                        48.000          41.250

  26740195.700                    26740197.660    26740215.960    26740217.480
                 140520700.254 7                 104934302.593 7 107671793.517 7
 106303100.994 6        47.900                          46.450          47.250
        41.950
  38368547.840
                 201628612.821 7
                        45.300

  38732692.480
                 203541721.915 7
                        45.750

 13  7 19  0 33 30.0000000  0 24G13G25G04G17G32G10G02G01G20G31G23G11
                                R03R02R18R04R17R12R19R11R13E11S26S20
  21539418.480
  21539415.060   113190477.995 8  88200395.812 7
                        49.150          42.350

  25696586.380    25696582.480    25696586.960
  25696583.220   135036469.85516 105223218.45915 100838929.16616
                        37.150          33.800          39.200

  22242642.800
  22242640.060   116885909.263 8  91079943.841 6
                        48.250          39.650

  22939776.900    22939774.280
  22939773.840   120549353.219 8  93934550.283 7
                        48.150          43.650

  22682122.280
  22682118.960   119195509.398 8  92879702.329 7
                        50.150          42.600

  24155154.200
  24155152.600   126936221.582 7  98911344.883 6
                        46.300          36.050

  25809980.100
  25809975.880   135632359.765 5 105687540.28815
                        32.350          31.450

  22949169.300    22949170.120    22949168.800
  22949169.380   120598796.479 8  93973142.305 7  90057597.248 8
                        48.700          44.950          49.050

  20392605.960
  20392601.360   107164018.155 8  83504463.280 7
                        49.350          47.200

  23769116.420    23769113.180
  23769112.500   124907585.607 7  97330592.147 7
                        47.800          42.350

  20491200.940
  20491194.420   107682081.333 8  83908127.888 7
                        50.950          46.750

  25607940.140
  25607939.100   134570693.237 7 104860310.254 5
                        43.400          34.250

  19514280.880
  19514280.580   104461586.253 8  81247934.928 7
                        48.000          46.150

  21697520.640
  21697523.060   115782269.184 8  90052957.647 7
                        49.550          42.050

  21187387.160
  21187392.060   113099740.336 8  87966474.421 7
                        48.500          44.150

  21739640.320
  21739640.960   116414851.942 8  90544914.736 7
                        48.800          42.300

  24311777.960
  24311781.980   130097222.371 6 101186732.371 5
                        39.300          33.400

  21435696.780
  21435699.980   114505682.048 8  89060013.703 6
                        49.150          41.200

  21290996.880
  21290996.700   113892483.554 8  88583046.474 7
                        49.000          43.500

  23789763.360
  23789765.920   127125305.027 7  98875263.965 5
                        42.050          33.900

  22257769.480
  22257773.220   118855270.600 8  92443028.284 6
                        48.050          40.150

  26758089.220                    26758090.760    26758109.300    26758110.660
                 140614729.305 8                 105004518.927 7 107743841.592 8
 106374233.202 7        48.800                          44.800          48.050
        42.800
  38368073.660
                 201626117.770 7
                        45.500

  38732696.460
                 203541741.265 7
                        45.900

 13  7 19  0 34  0.0000000  0 24G13G25G04G17G32G10G02G01G20G31G23G11
                                R03R02R18R04R17R12R19R11R13E11S26S20
  21524009.180
  21524005.620   113109501.320 8  88137297.145 7
                        49.200          43.150

  25699839.480    25699839.740    25699839.420
  25699838.840   135053562.489 6 105236537.496 6 100851693.249 6
                        41.350          36.650          41.600

  22227155.580
  22227152.920   116804523.945 8  91016526.745 6
                        48.250          40.250

  22951963.460    22951960.900
  22951960.440   120613393.740 8  93984451.918 7
                        48.050          44.150

  22696857.240
  22696853.980   119272942.078 8  92940039.449 7
                        50.050          43.300

  24136029.400
  24136027.740   126835720.101 7  98833032.137 6
                        46.650          37.700

  25789429.560
  25789425.940   135524366.17416 105603385.15915
                        36.950          32.250

  22968811.580    22968812.520    22968810.740
  22968811.860   120702016.737 8  94053573.622 7  90134677.274 8
                        48.400          45.900          49.300

  20399605.240
  20399600.640   107200799.467 8  83533124.039 8
                        49.400          48.050

  23781426.580    23781423.180
  23781422.560   124972275.640 7  97380999.957 7
                        47.300          43.150

  20486161.920
  20486155.280   107655600.921 8  83887493.816 7
                        50.950          47.200

  25629803.080
  25629802.060   134685583.360 6 104949834.882 5
                        39.000          35.950

  19514559.060
  19514558.620   104463074.992 7  81249092.847 7
                        47.450          46.350

  21713470.780
  21713473.160   115867381.921 8  90119156.415 7
                        49.300          42.350

  21205454.360
  21205459.360   113196184.464 8  88041486.464 7
                        48.400          44.600

  21723895.040
  21723895.680   116330536.511 8  90479336.121 7
                        48.950          43.000

  24337598.060
  24337601.800   130235389.021 6 101294195.338 5
                        38.800          33.700

  21433708.840
  21433712.060   114495063.134 8  89051754.560 6
                        48.300          41.500

  21282218.500
  21282218.340   113845524.608 8  88546522.876 7
                        48.700          44.150

  23808163.900
  23808166.960   127223632.206 6  98951740.638 5
                        41.700          33.850

  22236821.320
  22236824.900   118743409.248 7  92356025.089 6
                        47.800          40.250

  26775991.980                    26775993.220    26776011.880    26776013.180
                 140708807.575 8                 105074772.046 7 107815927.406 7
 106445402.667 6        49.100                          45.050          46.950
        41.600
  38367598.280
                 201623621.260 7
                        45.400

  38732700.340
                 203541762.025 7
                        45.850

 13  7 19  0 34 30.0000000  0 23G13G04G17G32G10G02G01G20G31G23G11R03
                                R02R18R04R17R12R19R11R13E11S26S20
  21508671.760
  21508667.940   113028902.121 8  88074492.606 7
                        48.950          42.900

  22211739.660
  22211736.920   116723513.101 7  90953401.447 6
                        47.850          41.300

  22964229.960    22964227.480
  22964227.040   120677854.496 7  94034681.005 7
                        47.350          44.100

  22711621.660
  22711618.340   119350529.329 8  93000497.017 7
                        49.700          43.300

  24116920.420
  24116918.980   126735302.127 7  98754784.459 6
                        46.250          37.100

  25768883.760
  25768878.820   135416393.057 6 105519250.037 5
                        38.700          34.400

  22988497.980    22988498.960    22988497.060
  22988498.280   120805469.275 8  94134185.928 7  90211930.720 8
                        48.000          45.250          50.150

  20406674.280
  20406669.580   107237947.055 8  83562070.203 7
                        49.100          47.750

  23793826.900    23793823.520
  23793822.800   125037439.417 7  97431776.908 7
                        46.850          42.950

  20481211.400
  20481204.560   107629585.297 8  83867221.914 7
                        50.750          47.100

  25651655.940
  25651655.200   134800421.450 6 105039318.896 5
                        41.250          35.350

  19514907.960
  19514907.600   104464943.118 8  81250545.842 7
                        48.100          46.900

  21729451.080
  21729453.540   115952656.408 8  90185480.987 7
                        49.700          42.950

  21223622.960
  21223628.100   113293169.959 8  88116919.557 7
                        49.000          45.050

  21708187.080
  21708187.580   116246420.627 8  90413912.702 7
                        49.200          43.400

  24363405.180
  24363410.360   130373492.130 6 101401608.726 5
                        37.700          34.250

  21431875.740
  21431878.900   114485271.174 8  89044138.595 7
                        48.950          42.000

  21273586.100
  21273586.260   113799347.857 8  88510607.633 7
                        48.950          44.600

  23826658.040
  23826661.620   127322460.549 6  99028607.106 5
                        40.000          33.850

  22215948.080
  22215951.600   118631947.487 8  92269332.669 6
                        48.100          40.700

  26793903.680                    26793904.880    26793923.580    26793924.900
                 140802933.537 8                 105145060.756 7 107888049.754 7
 106516608.195 7        49.150                          45.850          47.350
        42.050
  38367122.240
                 201621124.556 7
                        44.950

  38732703.900
                 203541781.471 7
                        45.300

 13  7 19  0 35  0.0000000  0 23G13G04G17G32G10G02G01G20G31G23G11R03
                                R02R18R04R17R12R19R11R13E11S26S20
  21493406.040
  21493402.160   112948679.945 8  88011981.854 7
                        49.100          43.600

  22196395.180
  22196392.500   116642877.459 8  90890568.501 6
                        48.000          41.300

  22976575.560    22976573.060
  22976572.600   120742730.705 7  94085233.843 7
                        47.950          44.400

  22726414.960
  22726411.620   119428268.288 8  93061072.798 7
                        49.900          43.600

  24097827.220
  24097825.760   126634966.639 7  98676601.056 6
                        46.450          38.050

  25748342.500
  25748337.920   135308444.361 5 105435134.104 5
                        35.900          32.750

  23008227.860    23008228.860    23008226.960
  23008228.060   120909149.929 8  94214975.991 7  90289354.528 8
                        48.000          45.650          49.800

  20413812.500
  20413807.680   107275458.313 8  83591299.748 8
                        49.250          48.100

  23806316.480    23806313.220
  23806312.340   125103072.840 7  97482919.826 7
                        46.900          43.100

  20476348.900
  20476341.980   107604032.320 8  83847310.511 7
                        50.900          47.550

  25673498.440
  25673497.480   134915203.159 7 105128759.023 5
                        44.550          35.750

  19515327.340
  19515327.040   104467188.183 7  81252292.012 7
                        47.900          46.850

  21745461.080
  21745463.700   116038089.492 8  90251928.933 7
                        48.950          42.650

  21241891.900
  21241897.020   113390690.404 8  88192768.725 7
                        48.750          44.650

  21692515.980
  21692516.380   116162502.807 8  90348643.334 7
                        48.800          43.200

  24389199.340
  24389206.180   130511526.306 5 101508968.290 5
                        35.200          31.700

  21430197.080
  21430200.240   114476304.242 8  89037164.339 6
                        48.800          41.950

  21265099.760
  21265100.240   113753953.094 8  88475300.601 7
                        48.550          44.150

  23845244.900
  23845248.560   127421783.962 6  99105858.589 5
                        38.950          32.950

  22195150.100
  22195153.640   118520887.763 7  92182952.958 6
                        47.700          41.000

  26811823.980                    26811824.820    26811843.460    26811844.860
                 140897103.276 8                 105215382.189 7 107960205.667 7
 106587846.866 6        49.550                          44.950          46.250
        40.800
  38366646.620
                 201618624.767 7
                        45.250

  38732706.900
                 203541797.746 7
                        45.600

 13  7 19  0 35 30.0000000  0 24G13G04G17G32G10G02G01G20G31G23G11R03
                                R02R18R20R04R17R12R19R11R13E11S26S20
  21478212.140
  21478208.260   112868835.478 8  87949765.425 7
                        49.250          42.550

  22181122.460
  22181119.640   116562618.593 8  90828029.160 6
                        48.300          39.800

  22988999.560    22988997.120
  22988996.540   120808019.039 7  94136107.832 7
                        47.800          43.250

  22741236.840
  22741233.440   119506157.470 8  93121765.642 7
                        50.050          42.400

  24078749.420
  24078747.920   126534713.797 7  98598482.055 6
                        45.650          36.400

  25727806.100
  25727800.400   135200520.549 5 105351037.584 4
                        34.400          27.200

  23028000.540    23028001.520    23027999.700
  23028000.680   121013055.980 7  94295941.697 7  90366946.660 8
                        47.900          45.000          49.450

  20421019.680
  20421014.780   107313332.079 8  83620811.772 7
                        49.400          47.100

  23818894.820    23818891.600
  23818890.740   125169172.678 7  97534426.173 7
                        46.900          42.400

  20471574.080
  20471567.320   107578941.107 8  83827758.941 7
                        50.800          46.600

  25695329.760
  25695328.820   135029926.043 7 105218153.339 5
                        45.800          34.300

  19515817.000
  19515816.580   104469809.119 7  81254330.528 7
                        47.950          44.350

  21761500.620
  21761503.320   116123679.666 8  90318499.058 6
                        49.150          40.150

  21260260.160
  21260265.240   113488741.034 8  88269030.278 7
                        48.700          42.000

  24659946.760
                 131867814.53416
                        38.800

  21676881.760
  21676882.160   116078783.032 8  90283528.008 6
                        49.100          40.850

  24414981.800
  24414987.280   130649487.397 5 101616270.953 4
                        31.750          24.900

  21428672.900
  21428676.200   114468162.626 8  89030831.996 6
                        48.800          39.400

  21256760.080
  21256760.360   113709341.865 8  88440602.996 6
                        48.750          41.750

  23863923.860
  23863926.860   127521597.635 6  99183491.398 4
                        40.950          29.500

  22174428.120
  22174431.600   118410233.922 7  92096888.914 6
                        47.350          38.650

  26829751.880                    26829752.520    26829771.360    26829772.760
                 140991314.167 8                 105285734.354 7 108032393.126 7
 106659116.680 6        49.900                          44.400          45.750
        40.650
  38366171.440
                 201616121.831 7
                        45.400

  38732709.160
                 203541809.280 7
                        45.800

 13  7 19  0 36  0.0000000  0 23G13G04G17G32G10G02G01G20G31G23G11R03
                                R02R18R20R04R12R19R11R13E11S26S20
  21463091.060
  21463087.120   112789373.621 8  87887847.130 7
                        49.200          42.950

  22165922.580
  22165919.660   116482742.726 8  90765788.262 6
                        48.350          40.700

  23001502.060    23001499.640
  23001499.020   120873720.047 7  94187303.385 7
                        47.550          43.650

  22756087.840
  22756084.460   119584199.842 8  93182577.853 7
                        49.950          43.250

  24059688.260
  24059686.960   126434548.257 7  98520431.079 6
                        46.200          36.100

  25707275.960
  25707268.740   135092627.674 6 105266965.073 5
                        37.500          32.050

  23047816.300    23047817.380    23047815.740
  23047816.520   121117189.046 7  94377084.295 7  90444708.300 8
                        47.600          44.950          49.700

  20428296.440
  20428291.560   107351571.624 8  83650608.814 7
                        49.400          47.000

  23831562.200    23831559.060
  23831558.220   125235740.511 7  97586297.194 7
                        47.000          42.400

  20466887.760
  20466881.220   107554315.401 8  83808570.100 7
                        50.800          46.800

  25717150.120
  25717149.360   135144591.984 7 105307503.255 5
                        45.250          34.650

  19516377.560
  19516377.040   104472809.295 7  81256664.004 7
                        47.950          46.350

  21777570.240
  21777572.860   116209429.559 8  90385193.389 7
                        49.600          42.050

  21278727.660
  21278732.700   113587321.469 8  88345703.890 7
                        48.850          43.900

  24637569.480
  24637573.840   131748153.164 6 102470805.099 6
                        39.400          38.700

  21661285.480
  21661285.980   115995265.883 8  90218570.283 7
                        48.950          43.150

  21427304.140
  21427307.580   114460850.905 8  89025145.115 6
                        48.900          41.650

  21248568.140
  21248568.240   113665519.801 8  88406519.185 7
                        49.100          43.750

  23882694.600
  23882697.460   127621901.445 6  99261505.462 5
                        41.650          30.550

  22153783.760
  22153787.380   118299994.659 7  92011147.339 6
                        47.750          40.800

  26847687.660                    26847688.640    26847707.360    26847708.780
                 141085568.050 8                 105356118.620 7 108104613.513 7
 106730419.005 6        49.600                          44.700          45.600
        40.200
  38365695.180
                 201613619.982 7
                        45.450

  38732711.720
                 203541822.970 7
                        45.800

 13  7 19  0 36 30.0000000  0 23G13G04G17G32G10G02G01G20G31G23G11R03
                                R02R18R20R04R12R19R11R13E11S26S20
  21448042.580
  21448038.640   112710293.430 8  87826226.230 7
                        49.650          43.750

  22150795.560
  22150792.500   116403249.426 8  90703845.461 6
                        49.050          40.950

  23014082.060    23014079.820
  23014079.280   120939828.916 8  94238816.744 7
                        48.000          45.100

  22770967.360
  22770964.000   119662392.092 8  93243506.853 7
                        50.300          43.550

  24040643.780
  24040642.280   126334468.338 7  98442446.802 6
                        47.150          37.100

  25686750.840
  25686743.020   134984765.406 6 105182916.475 5
                        40.800          34.050

  23067674.480    23067675.720    23067674.080
  23067674.860   121221544.509 8  94458400.179 7  90522636.024 8
                        48.300          46.400          49.450

  20435642.220
  20435637.420   107390174.011 8  83680688.590 7
                        49.850          47.700

  23844317.820    23844314.620
  23844313.840   125302771.565 8  97638529.172 7
                        48.000          43.800

  20462289.620
  20462283.180   107530152.496 8  83789741.883 7
                        51.300          47.750

  25738958.620
  25738958.140   135259196.433 7 105396805.267 5
                        44.900          34.500

  19517008.220
  19517007.800   104476185.725 7  81259290.125 7
                        47.650          46.600

  21793669.140
  21793671.660   116295335.772 8  90452009.304 7
                        49.200          42.100

  21297293.140
  21297298.120   113686424.851 8  88422784.251 7
                        48.300          44.200

  24615244.980
  24615248.320   131628771.990 7 102377952.973 7
                        43.700          43.350

  21645726.600
  21645727.280   115911948.966 8  90153768.312 7
                        48.500          43.300

  21426090.200
  21426093.720   114454366.563 8  89020101.750 6
                        48.350          41.700

  21240523.760
  21240523.700   113622486.905 8  88373049.161 7
                        48.600          44.100

  23901555.600
  23901558.940   127722688.280 7  99339895.245 5
                        42.100          30.850

  22133217.300
  22133220.920   118190171.372 7  91925729.294 6
                        47.500          41.500

  26865631.060                    26865632.020    26865650.780    26865652.140
                 141179860.436 8                 105426531.642 7 108176863.412 7
 106801750.465 6        49.950                          44.450          44.650
        39.350
  38365218.080
                 201611115.374 7
                        46.150

  38732713.880
                 203541834.552 7
                        46.350

 13  7 19  0 37  0.0000000  0 23G13G04G17G32G10G02G01G20G31G23G11R03
                                R02R18R20R04R12R19R11R13E11S26S20
  21433066.800
  21433062.860   112631595.419 8  87764903.144 7
                        49.350          43.300

  22135741.600
  22135738.500   116324140.448 8  90642202.130 6
                        48.700          40.450

  23026739.040    23026736.860
  23026736.380   121006342.097 7  94290645.148 7
                        47.700          43.950

  22785875.100
  22785871.720   119740732.608 8  93304551.386 7
                        50.100          43.100

  24021615.740
  24021614.180   126234474.125 7  98364529.328 6
                        46.100          37.800

  25666230.980
  25666223.660   134876934.651 7 105098892.467 4
                        43.050          29.200

  23087574.560    23087575.880    23087573.980
  23087574.960   121326119.487 7  94539887.127 7  90600727.673 8
                        47.800          45.300          49.450

  20443056.700
  20443051.980   107429137.613 8  83711049.838 7
                        49.500          47.100

  23857161.180    23857157.740
  23857157.080   125370262.958 8  97691119.839 7
                        48.300          42.450

  20457779.520
  20457773.060   107506451.668 8  83771273.722 7
                        51.050          47.000

  25760754.760
  25760754.500   135373736.405 7 105486057.013 5
                        43.900          31.150

  19517709.080
  19517708.580   104479937.384 8  81262208.087 7
                        48.400          46.100

  21809796.940
  21809799.380   116381396.648 8  90518945.521 6
                        49.400          41.650

  21315955.620
  21315960.620   113786046.191 8  88500267.453 7
                        48.600          43.750

  24592972.920
  24592976.140   131509673.263 6 102285320.629 6
                        40.250          41.750

  21630205.100
  21630205.740   115828832.256 8  90089122.034 7
                        49.100          42.700

  21425031.100
  21425034.460   114448709.473 8  89015701.816 6
                        48.900          41.150

  21232626.840
  21232626.780   113580243.785 8  88340193.409 7
                        48.900          43.600

  23920506.020
  23920509.980   127823953.720 7  99418657.252 5
                        43.700          30.050

  22112729.420
  22112733.120   118080767.799 7  91840637.705 6
                        47.950          40.900

  26883581.320                    26883582.220    26883601.000    26883602.300
                 141274188.640 8                 105496971.425 7 108249140.769 7
 106873109.036 6        49.400                          44.950          45.600
        40.600
  38364740.680
                 201608607.298 7
                        45.650

  38732716.560
                 203541847.847 7
                        46.050

 13  7 19  0 37 30.0000000  0 23G13G04G17G32G10G02G01G20G31G23G11R03
                                R02R18R20R04R12R19R11R13E11S26S20
  21418164.760
  21418160.880   112553285.028 8  87703882.091 7
                        49.150          44.100

  22120761.980
  22120758.820   116245421.922 8  90580863.054 6
                        48.550          40.950

  23039473.200    23039470.940
  23039470.420   121073260.297 7  94342789.167 7
                        47.800          44.300

  22800811.600
  22800808.220   119819224.437 8  93365713.826 7
                        50.050          43.450

  24002604.520
  24002602.940   126134570.475 7  98286682.418 6
                        44.900          36.750

  25645717.860
  25645712.000   134769141.232 7 105014897.556 4
                        44.450          27.700

  23107516.620    23107518.000    23107515.880
  23107517.080   121430915.633 7  94621546.411 7  90678984.484 8
                        47.400          45.550          48.800

  20450540.640
  20450535.900   107468465.944 8  83741695.283 7
                        49.550          47.700

  23870092.380    23870088.760
  23870088.120   125438215.861 8  97744070.155 7
                        48.650          42.700

  20453358.140
  20453351.640   107483216.949 8  83753168.765 7
                        51.050          47.750

  25782538.960
  25782538.900   135488213.425 7 105575259.767 4
                        43.750          24.950

  19518480.720
  19518480.140   104484067.672 8  81265420.531 7
                        48.000          46.750

  21825954.180
  21825956.640   116467614.747 8  90586004.028 7
                        49.200          42.100

  21334715.000
  21334720.040   113886185.134 8  88578153.235 7
                        48.550          44.200

  24570755.660
  24570758.200   131390865.322 6 102192914.582 6
                        36.100          41.400

  21614721.900
  21614722.280   115745920.171 8  90024634.898 7
                        48.850          43.150

  21424127.780
  21424130.840   114443884.033 8  89011948.709 6
                        48.750          41.600

  21224878.720
  21224878.680   113538796.477 8  88307956.622 7
                        48.900          44.250

  23939546.060
  23939549.880   127925697.379 7  99497791.199 5
                        44.100          30.400

  22092321.880
  22092325.480   117971792.802 7  91755879.434 7
                        47.950          42.050

  26901538.400                    26901539.660    26901558.180    26901559.760
                 141368554.534 8                 105567439.344 7 108321447.008 7
 106944496.117 6        48.600                          44.500          44.100
        39.300
  38364263.240
                 201606097.850 7
                        45.500

  38732719.880
                 203541863.134 7
                        45.850

 13  7 19  0 38  0.0000000  0 23G13G04G17G32G10G02G01G20G31G23G11R03
                                R02R18R20R04R12R19R11R13E11S26S20
  21403336.360
  21403332.520   112475361.888 8  87643162.796 7
                        49.100          44.500

  22105856.840
  22105853.700   116167094.890 8  90519829.026 6
                        48.450          41.600

  23052283.660    23052281.380
  23052280.880   121140579.513 7  94395245.673 7
                        47.400          44.900

  22815776.480
  22815773.100   119897865.383 8  93426992.457 7
                        50.150          43.250

  23983610.200
  23983608.520   126034756.833 7  98208905.630 6
                        45.000          37.450

  25625211.860
  25625207.020   134661385.451 7 104930932.041 3
                        46.700          22.650

  23127500.020    23127501.500    23127499.120
  23127500.580   121535929.495 7  94703375.335 7  90757403.874 8
                        46.900          45.500          49.550

  20458093.600
  20458088.860   107508156.954 8  83772623.332 7
                        49.600          47.950

  23883110.660    23883106.820
  23883106.200   125506626.662 8  97797377.256 7
                        48.650          42.950

  20449025.180
  20449018.520   107460446.610 8  83735425.662 7
                        51.100          47.900

  25804310.700
  25804310.140   135602624.743 7 105664411.368 4
                        43.650          29.300

  19519322.680
  19519322.160   104488574.774 7  81268926.059 7
                        47.850          46.250

  21842140.480
  21842142.980   116553988.023 8  90653183.211 6
                        49.450          41.600

  21353570.280
  21353575.380   113986836.145 8  88656437.282 7
                        48.300          43.700

  24548593.100
  24548595.580   131272350.057 6 102100736.022 6
                        37.900          37.650

  21599276.680
  21599277.080   115663211.984 8  89960306.354 7
                        49.150          43.150

  21423379.920
  21423382.800   114439889.048 8  89008841.521 6
                        48.700          41.300

  21217279.400
  21217279.360   113498145.680 8  88276339.342 7
                        48.500          43.750

  23958674.520
  23958677.220   128027913.549 7  99577292.685 4
                        44.350          28.600

  22071995.080
  22071998.740   117863249.161 8  91671456.670 6
                        48.150          41.850

  26919502.100                    26919503.560    26919522.140    26919523.720
                 141462954.838 8                 105637932.958 7 108393779.606 7
 107015909.222 6        48.000                          45.350          44.700
        39.550
  38363785.300
                 201603586.049 7
                        45.600

  38732723.200
                 203541879.911 7
                        46.000

 13  7 19  0 38 30.0000000  0 23G13G04G17G32G10G02G01G20G31G23G11R03
                                R02R18R20R04R12R19R11R13E11S26S20
  21388581.960
  21388578.120   112397827.324 8  87582746.293 7
                        49.300          43.900

  22091026.540
  22091023.360   116089161.437 8  90459101.682 6
                        48.450          41.000

  23065169.920    23065167.740
  23065167.160   121208296.865 7  94448012.413 7
                        47.500          43.950

  22830769.540
  22830766.160   119976654.524 8  93488386.574 7
                        50.150          42.300

  23964633.360
  23964631.920   125935034.074 7  98131199.711 6
                        44.800          36.250

  25604713.620
  25604707.560   134553668.982 7 104847004.41214
                        47.000          28.200

  23147524.240    23147525.920    23147523.640
  23147524.920   121641158.747 7  94785372.092 7  90835984.093 8
                        47.250          44.400          48.650

  20465715.540
  20465710.800   107548210.369 8  83803833.783 7
                        49.600          47.200

  23896215.580    23896211.580
  23896210.900   125575492.958 8  97851039.301 6
                        48.800          41.750

  20444780.520
  20444773.740   107438140.427 8  83718044.235 7
                        51.150          47.000

  25826069.540
  25826068.320   135716967.783 6 105753509.687 4
                        41.750          24.300

  19520234.880
  19520234.420   104493458.181 8  81272724.262 7
                        48.100          47.100

  21858355.600
  21858358.180   116640515.192 8  90720482.098 7
                        49.400          42.750

  21372520.700
  21372525.860   114087994.686 8  88735116.091 7
                        48.300          44.750

  24526485.840
  24526488.280   131154131.544 5 102008788.244 6
                        34.900          39.750

  21583869.540
  21583869.980   115580707.902 8  89896136.567 7
                        49.050          44.100

  21422787.680
  21422790.600   114436724.832 8  89006380.482 7
                        48.850          42.400

  21209829.180
  21209829.440   113458292.896 8  88245342.743 7
                        48.800          44.950

  23977890.740
  23977892.560   128130598.307 7  99657158.656 5
                        44.650          30.100

  22051749.940
  22051753.700   117755141.341 8  91587372.877 7
                        48.650          42.800

  26937471.740                    26937473.520    26937492.400    26937493.620
                 141557387.434 7                 105708450.696 7 108466136.941 7
 107087346.758 7        46.550                          44.600          46.650
        42.250
  38363306.560
                 201601073.508 7
                        45.450

  38732726.020
                 203541894.173 7
                        45.950

 13  7 19  0 39  0.0000000  0 22G13G04G17G32G10G02G01G20G31G23G11R03
                                R02R18R04R12R19R11R13E11S26S20
  21373901.240
  21373897.280   112320679.202 8  87522630.904 7
                        49.350          43.800

  22076270.960
  22076268.020   116011620.819 8  90398680.452 6
                        48.400          40.700

  23078130.780    23078128.500
  23078127.960   121276406.465 7  94501084.803 7
                        47.100          43.100

  22845790.060
  22845786.700   120055587.695 8  93549892.912 7
                        50.150          42.200

  23945673.920
  23945672.200   125835399.871 7  98053562.733 6
                        45.650          36.400

  25584222.720
  25584217.500   134445990.294 7 104763098.905 4
                        46.850          29.900

  23167588.800    23167590.200    23167588.260
  23167589.240   121746597.986 7  94867532.486 7  90914721.122 8
                        47.250          43.400          49.100

  20473405.640
  20473400.900   107588621.870 8  83835323.255 7
                        49.600          46.750

  23909406.000    23909402.000
  23909401.200   125644809.060 8  97905051.843 6
                        48.550          41.000

  20440623.440
  20440616.640   107416294.932 8  83701021.781 7
                        51.050          46.850

  25847814.380
  25847812.620   135831237.250 6 105842550.637 3
                        41.850          23.600

  19521216.700
  19521216.240   104498714.166 7  81276812.246 7
                        47.800          46.200

  21874598.840
  21874601.320   116727192.038 8  90787897.397 6
                        49.350          41.250

  21391564.840
  21391570.000   114189653.147 8  88814183.717 7
                        48.400          43.800

  21568500.140
  21568500.560   115498405.353 8  89832123.523 7
                        49.100          43.000

  21422350.300
  21422353.420   114434388.357 8  89004563.237 6
                        48.750          41.350

  21202528.120
  21202528.360   113419236.680 8  88214965.694 7
                        48.950          43.800

  23997193.020
  23997194.620   128233743.866 7  99737382.998 5
                        43.600          30.200

  22031586.700
  22031590.440   117647470.428 8  91503628.888 7
                        48.350          42.250

  26955446.860                    26955448.880    26955467.500    26955469.060
                 141651847.072 7                 105778988.576 7 108538514.978 7
 107158804.716 6        46.250                          45.550          45.950
        41.350
  38362826.940
                 201598555.658 7
                        45.600

  38732727.480
                 203541904.076 7
                        45.950

 13  7 19  0 39 30.0000000  0 22G13G04G17G32G10G02G01G20G31G23G11R03
                                R02R18R04R12R19R11R13E11S26S20
  21359295.220
  21359291.240   112243923.870 8  87462821.589 7
                        48.850          44.400

  22061591.440
  22061588.640   115934480.049 8  90338570.794 6
                        48.100          41.400

  23091166.580    23091164.220
  23091163.720   121344909.570 7  94554463.807 7
                        47.400          43.800

  22860838.700
  22860835.320   120134668.990 8  93611514.684 7
                        49.650          43.300

  23926731.820
  23926730.520   125735859.748 7  97975999.116 6
                        45.750          38.800

  25563740.580
  25563735.700   134338356.295 7 104679228.244 5
                        45.300          33.750

  23187693.840    23187694.960    23187693.400
  23187694.060   121852249.896 7  94949858.615 7  90993616.967 8
                        47.100          43.900          49.550

  20481164.580
  20481159.880   107629395.696 8  83867095.067 7
                        48.950          47.550

  23922682.340    23922678.560
  23922677.600   125714577.270 8  97959416.681 6
                        48.100          41.550

  20436554.780
  20436548.100   107394914.660 8  83684361.853 8
                        50.750          48.000

  25869546.060
  25869543.480   135945436.375 6 105931455.93614
                        39.300          28.000

  19522268.940
  19522268.580   104504347.170 8  81281193.477 7
                        48.000          46.100

  21890870.900
  21890873.140   116814022.481 8  90855432.166 6
                        49.200          41.300

  21410702.720
  21410707.960   114291812.066 8  88893640.592 7
                        48.400          43.700

  21553169.440
  21553169.800   115416309.877 8  89768271.530 7
                        49.200          42.750

  21422068.820
  21422072.140   114432884.942 8  89003393.932 6
                        48.800          41.400

  21195377.140
  21195377.320   113380983.775 8  88185213.447 7
                        48.700          43.500

  24016581.620
  24016583.300   128337351.090 7  99817966.380 4
                        42.850          28.250

  22011507.020
  22011510.640   117540245.697 8  91420231.922 6
                        48.600          41.950

  26973427.860                    26973429.920    26973448.480    26973449.940
                 141746336.703 7                 105849548.878 7 108610915.998 7
 107230285.378 6        46.200                          46.050          46.700
        41.850
  38362347.400
                 201596035.227 7
                        44.950

  38732729.140
                 203541913.643 7
                        45.350

 13  7 19  0 40  0.0000000  0 22G13G04G17G32G10G02G01G20G31G23G11R03
                                R02R18R04R12R19R11R13E11S26S20
  21344763.480
  21344759.480   112167559.098 8  87403316.607 7
                        49.050          43.950

  22046987.860
  22046985.160   115857738.244 8  90278772.029 6
                        48.100          41.800

  23104276.220    23104273.720
  23104273.220   121413800.452 7  94608144.993 7
                        47.300          43.300

  22875914.780
  22875911.400   120213894.454 8  93673248.787 7
                        49.850          42.250

  23907807.740
  23907806.180   125636411.726 7  97898507.224 6
                        46.400          37.600

  25543266.780
  25543262.180   134230765.952 7 104595391.605 6
                        44.500          38.650

  23207838.360    23207839.340    23207838.040
  23207838.500   121958109.154 7  95032346.297 7  91072667.633 8
                        47.550          44.000          50.000

  20488991.780
  20488987.160   107670528.393 8  83899146.521 7
                        49.150          47.050

  23936043.680    23936039.980
  23936039.020   125784792.030 8  98014129.482 6
                        48.150          41.100

  20432574.120
  20432567.520   107373996.579 8  83668062.072 7
                        51.000          47.250

  25891263.040
  25891264.600   136059559.770 5 106020405.20915
                        33.200          32.300

  19523391.080
  19523390.620   104510353.816 8  81285865.315 7
                        48.000          46.750

  21907170.940
  21907173.000   116901002.308 8  90923083.116 7
                        49.700          42.100

  21429932.900
  21429938.240   114394463.923 8  88973480.867 7
                        48.150          44.550

  21537876.800
  21537877.120   115334418.897 8  89704578.600 7
                        49.050          43.250

  21421942.660
  21421946.040   114432211.407 8  89002870.087 7
                        48.750          42.100

  21188375.940
  21188376.200   113343532.504 8  88156084.685 7
                        48.650          44.350

  24036054.960
  24036057.220   128441412.486 7  99898903.007 4
                        42.600          29.500

  21991511.080
  21991514.640   117433468.901 8  91337183.362 7
                        48.100          42.600

  26991413.000                    26991415.460    26991434.060    26991435.480
                 141840851.178 7                 105920127.751 7 108683336.065 7
 107301784.847 6        46.950                          46.300          46.450
        41.650
  38361866.900
                 201593510.270 7
                        45.150

  38732730.280
                 203541921.055 7
                        45.800

 13  7 19  0 40 30.0000000  0 22G13G04G17G32G10G02G01G20G31G23R03R02
                                R18R20R04R12R19R11R13E11S26S20
  21330306.620
  21330302.620   112091587.820 8  87344118.243 7
                        48.950          44.700

  22032461.040
  22032458.500   115781399.531 8  90219287.353 6
                        48.250          41.200

  23117459.440    23117456.880
  23117456.260   121483078.005 7  94662127.475 7
                        47.300          43.000

  22891018.440
  22891015.020   120293264.846 8  93735095.830 7
                        49.250          42.650

  23888901.300
  23888899.660   125537058.304 7  97821089.069 6
                        46.450          38.150

  25522801.840
  25522797.360   134123222.523 7 104511591.551 5
                        42.850          35.500

  23228022.220    23228023.180    23228021.980
  23228022.240   122064175.203 7  95114995.113 7  91151872.728 8
                        47.300          44.000          50.050

  20496887.600
  20496882.940   107712020.991 8  83931478.410 7
                        49.100          47.150

  23949489.980    23949486.220
  23949485.260   125855452.592 8  98069189.649 6
                        48.150          40.650

  20428681.780
  20428675.080   107353542.039 8  83652123.480 7
                        50.750          47.400

  19524583.200
  19524582.760   104516735.154 7  81290828.574 7
                        47.900          47.200

  21923499.060
  21923501.220   116988132.240 8  90990850.811 7
                        49.450          42.800

  21449254.920
  21449260.300   114497606.256 8  89053702.610 7
                        48.100          44.750

  24438621.360
  24438622.400   130684289.88615
                        35.900          32.100

  21522622.760
  21522623.040   115252734.631 8  89641046.436 7
                        49.100          43.700

  21421972.260
  21421975.500   114432369.624 8  89002993.163 7
                        48.800          42.650

  21181525.420
  21181525.720   113306886.614 8  88127582.334 7
                        48.950          44.900

  24055613.040
  24055615.520   128545925.593 6  99980190.950 5
                        41.800          30.200

  21971600.060
  21971603.620   117327145.638 8  91254487.536 7
                        48.350          43.400

  27009403.340                    27009405.840    27009424.360    27009425.840
                 141935390.183 7                 105990724.929 7 108755774.930 7
 107373302.869 7        46.550                          46.600          47.250
        43.050
  38361385.500
                 201590983.115 7
                        44.800

  38732731.720
                 203541928.391 7
                        45.200

 13  7 19  0 41  0.0000000  0 23G13G04G17G32G10G02G01G20G31G23G11R03
                                R02R18R20R04R12R19R11R13E11S26S20
  21315925.180
  21315921.300   112016013.084 8  87285228.876 7
                        49.800          44.250

  22018011.760
  22018009.080   115705467.642 8  90160119.672 6
                        49.250          41.000

  23130715.940    23130713.420
  23130712.880   121552741.186 7  94716410.432 7
                        47.850          43.000

  22906149.800
  22906146.440   120372780.861 8  93797056.340 7
                        50.000          42.100

  23870013.560
  23870011.920   125437802.216 7  97743746.739 5
                        47.200          35.200

  25502346.200
  25502342.240   134015729.530 7 104427830.785 6
                        43.300          36.450

  23248245.240    23248246.160    23248244.840
  23248245.280   122170447.439 8  95197804.586 7  91231231.783 8
                        48.000          44.150          49.550

  20504852.020
  20504847.400   107753874.183 8  83964091.278 7
                        49.700          46.550

  23963021.000    23963017.100
  23963016.240   125926558.062 8  98124596.506 6
                        49.400          41.350

  20424877.960
  20424871.160   107333552.546 8  83636547.272 7
                        51.500          46.950

  25934654.400
  25934651.600   136287526.82216 106198062.72215
                        37.100          32.700

  19525845.380
  19525845.060   104523492.275 8  81296084.113 7
                        48.550          46.650

  21939855.420
  21939857.940   117075413.165 8  91058735.948 7
                        49.850          42.150

  21468668.340
  21468673.680   114601236.167 8  89134303.584 7
                        48.950          43.950

  24416803.240
                 130567611.067 6
                        37.950

  21507407.700
  21507407.940   115171258.887 8  89577676.453 7
                        49.700          43.050

  21422157.940
  21422161.060   114433361.309 8  89003764.486 6
                        49.250          41.750

  21174826.100
  21174826.240   113271049.074 8  88099708.705 7
                        49.550          44.150

  24075255.180
  24075258.000   128650887.809 7 100061828.160 5
                        42.200          30.050

  21951775.180
  21951778.780   117221282.221 8  91172149.377 7
                        49.100          42.350

  27027398.580                    27027400.840    27027419.260    27027420.700
                 142029953.248 8                 106061340.085 7 108828232.239 7
 107444839.102 6        48.250                          46.200          46.900
        41.950
  38360904.140
                 201588456.026 7
                        46.000

  38732733.340
                 203541935.640 7
                        46.400

 13  7 19  0 41 30.0000000  0 23G13G04G17G32G10G02G01G20G31G23G11R03
                                R02R18R20R04R12R19R11R13E11S26S20
  21301619.180
  21301615.420   111940835.201 8  87226648.740 7
                        49.400          44.750

  22003640.280
  22003637.360   115629944.322 8  90101270.364 6
                        49.200          41.750

  23144044.980    23144042.420
  23144041.940   121622786.000 7  94770990.766 7
                        47.600          43.450

  22921308.660
  22921305.280   120452440.972 8  93859129.137 7
                        49.950          42.600

  23851143.960
  23851142.360   125338643.276 7  97666480.120 6
                        47.000          37.100

  25481900.440
  25481896.980   133908288.002 7 104344110.085 5
                        42.000          35.250

  23268506.720    23268507.760    23268506.420
  23268506.940   122276922.818 7  95280772.347 7  91310742.538 8
                        47.400          44.800          49.250

  20512884.660
  20512880.180   107796086.674 8  83996984.128 7
                        49.350          47.300

  23976636.100    23976632.120
  23976631.420   125998105.183 8  98180347.512 6
                        49.000          41.700

  20421162.300
  20421155.440   107314026.500 8  83621332.188 7
                        51.300          47.650

  25956327.980
  25956326.560   136401418.454 6 106286809.272 5
                        40.800          35.400

  19527177.620
  19527177.320   104530623.978 7  81301630.990 7
                        47.750          46.050

  21956239.660
  21956242.600   117162842.953 8  91126736.880 6
                        49.150          41.850

  21488172.300
  21488177.500   114705348.461 8  89215279.742 7
                        48.800          43.650

  24395043.820
                 130451253.007 6
                        37.350

  21492231.540
  21492231.780   115089991.772 8  89514468.743 7
                        49.000          42.750

  21422499.440
  21422502.580   114435185.477 8  89005183.308 6
                        48.700          41.550

  21168277.820
  21168277.860   113236020.432 8  88072464.212 7
                        48.650          43.750

  24094980.780
  24094983.780   128756294.021 6 100143810.730 5
                        40.750          30.250

  21932037.000
  21932040.700   117115881.879 8  91090171.387 6
                        48.400          41.850

  27045397.460                    27045399.800    27045418.240    27045419.580
                 142124537.644 7                 106131971.187 7 108900705.898 7
 107516391.482 6        47.950                          46.000          46.550
        41.500
  38360423.520
                 201585927.592 7
                        45.700

  38732735.260
                 203541943.899 7
                        46.050

 13  7 19  0 42  0.0000000  0 23G13G04G17G32G10G02G01G20G31G23G11R03
                                R02R18R20R04R12R19R11R13E11S26S20
  21287388.600
  21287384.900   111866053.498 8  87168377.313 7
                        49.550          44.600

  21989346.620
  21989343.540   115554830.190 8  90042739.903 6
                        49.250          41.450

  23157445.760    23157443.240
  23157442.800   121693207.795 7  94825864.855 7
                        47.350          42.700

  22936494.480
  22936491.140   120532242.955 8  93921312.481 6
                        49.950          41.950

  23832292.940
  23832291.340   125239581.062 7  97589288.872 6
                        46.900          36.850

  25461464.660
  25461461.460   133800898.378 6 104260429.865 6
                        39.050          36.250

  23288806.400    23288807.480    23288806.060
  23288806.560   122383597.786 7  95363895.641 7  91390402.332 8
                        47.750          44.950          49.300

  20520985.320
  20520980.880   107838656.321 8  84030155.284 7
                        49.350          46.950

  23990334.400    23990330.380
  23990329.780   126070090.147 8  98236439.697 6
                        48.500          41.200

  20417534.600
  20417527.720   107294962.858 8  83606477.420 7
                        51.250          47.550

  25977985.360
  25977984.060   136515227.884 7 106375491.748 6
                        44.750          37.350

  19528579.600
  19528579.200   104538128.512 8  81307467.848 7
                        48.150          46.650

  21972651.520
  21972654.500   117250419.329 8  91194851.808 7
                        49.750          42.350

  21507765.500
  21507770.580   114809937.343 8  89296626.586 7
                        48.950          44.000

  24373344.160
  24373346.400   130335218.194 6 101371851.97415
                        39.000          31.800

  21477094.280
  21477094.460   115008932.231 8  89451422.485 7
                        49.350          43.600

  21422996.420
  21422999.720   114437840.808 8  89007248.578 7
                        48.600          42.050

  21161880.860
  21161880.940   113201801.143 8  88045849.216 7
                        49.050          44.250

  24114788.320
  24114791.600   128862138.670 6 100226134.338 5
                        41.050          31.500

  21912386.140
  21912389.820   117010947.898 8  91008556.120 6
                        48.700          41.900

  27063399.980                    27063402.140    27063420.620    27063421.860
                 142219140.006 8                 106202615.695 7 108973193.316 7
 107587957.445 6        48.850                          45.350          47.250
        41.800
  38359942.260
                 201583396.373 7
                        45.400

  38732736.480
                 203541950.021 7
                        45.950

 13  7 19  0 42 30.0000000  0 23G13G04G17G32G10G02G01G20G31G23G11R03
                                R02R18R20R04R12R19R11R13E11S26S20
  21273233.760
  21273230.040   111791669.466 8  87110415.759 7
                        49.650          43.900

  21975131.160
  21975128.000   115480127.415 8  89984529.981 6
                        49.150          41.200

  23170917.740    23170915.180
  23170914.680   121764003.491 7  94881030.290 7
                        47.650          42.300

  22951707.120
  22951703.820   120612185.689 8  93983605.494 6
                        49.800          41.400

  23813460.680
  23813458.640   125140616.405 7  97512173.609 6
                        47.400          37.250

  25441039.500
  25441036.260   133693566.522 6 104176789.626 6
                        38.300          37.350

  23309143.560    23309144.760    23309143.220
  23309143.800   122490469.963 7  95447172.594 7  91470209.395 8
                        47.150          44.650          49.650

  20529153.880
  20529149.420   107881582.417 8  84063604.180 7
                        49.400          46.350

  24004115.400    24004111.400
  24004110.840   126142510.198 8  98292870.885 6
                        48.100          40.900

  20413994.720
  20413987.880   107276360.889 8  83591982.388 7
                        51.150          47.200

  25999626.440
  25999625.020   136628951.873 7 106464107.630 5
                        45.700          34.950

  19530050.920
  19530050.580   104546005.039 7  81313594.034 7
                        47.900          46.450

  21989090.620
  21989093.360   117338141.140 8  91263079.852 6
                        49.550          41.950

  21527447.120
  21527452.060   114914997.964 8  89378340.323 7
                        48.700          43.900

  24351705.880
  24351708.960   130219510.036 6 101281856.742 5
                        39.700          30.250

  21461995.740
  21461995.980   114928080.487 8  89388537.835 7
                        48.950          43.550

  21423648.920
  21423652.300   114441327.197 8  89009960.212 6
                        48.350          41.800

  21155635.460
  21155635.500   113168392.449 8  88019864.686 7
                        48.700          43.850

  24134676.940
  24134680.480   128968417.324 6 100308795.448 5
                        40.300          32.600

  21892823.480
  21892827.000   116906484.417 8  90927306.794 7
                        48.350          42.000

  27081405.720                    27081407.480    27081425.900    27081427.080
                 142313758.165 8                 106273272.024 7 109045692.853 7
 107659535.379 6        49.300                          45.700          47.000
        41.650
  38359459.780
                 201580862.363 7
                        45.400

  38732737.220
                 203541953.182 7
                        45.900

 13  7 19  0 43  0.0000000  0 23G13G04G17G32G10G02G01G20G31G23G11R03
                                R02R18R20R04R12R19R11R13E11S26S20
  21259154.900
  21259151.140   111717684.589 8  87052765.238 7
                        49.550          44.750

  21960994.400
  21960991.260   115405838.326 8  89926642.422 6
                        49.000          41.600

  23184460.440    23184457.920
  23184457.380   121835170.666 7  94936485.198 7
                        47.150          42.600

  22966946.460
  22966943.140   120692268.688 8  94046007.812 7
                        49.600          42.250

  23794647.260
  23794645.080   125041750.341 7  97435135.199 6
                        46.700          38.550

  25420626.640
  25420622.140   133586286.599 6 104093194.873 5
                        40.700          35.350

  23329517.760    23329519.100    23329517.560
  23329518.220   122597537.387 7  95530601.697 7  91550162.279 8
                        46.900          45.400          49.550

  20537390.300
  20537385.800   107924864.695 8  84097330.623 7
                        49.300          46.750

  24017978.660    24017974.880
  24017974.320   126215362.982 7  98349639.297 6
                        47.700          40.700

  20410542.720
  20410535.920   107258220.614 8  83577847.131 7
                        51.300          47.400

  26021250.720
  26021249.720   136742588.951 7 106552655.780 5
                        44.200          33.000

  19531591.920
  19531591.500   104554253.675 7  81320009.644 7
                        47.750          45.600

  22005556.820
  22005559.300   117426007.610 8  91331420.403 6
                        49.200          41.100

  21547216.340
  21547221.160   115020526.618 8  89460418.111 7
                        48.400          42.750

  24330129.560
  24330133.860   130104132.866 6 101192118.960 5
                        39.750          33.400

  21446936.160
  21446936.600   114847437.610 8  89325815.655 7
                        48.750          42.850

  21424457.200
  21424460.400   114445644.719 8  89013318.297 6
                        48.800          40.650

  21149542.040
  21149541.720   113135796.132 8  87994512.016 7
                        48.850          43.050

  24154646.140
  24154649.640   129075125.664 6 100391790.758 5
                        39.450          32.350

  21873349.800
  21873353.200   116802496.135 8  90846427.063 6
                        48.100          40.950

  27099413.440                    27099415.560    27099433.820    27099435.100
                 142408390.442 8                 106343938.896 7 109118203.223 7
 107731124.000 7        49.050                          45.900          47.350
        42.450
  38358976.120
                 201578325.287 7
                        45.450

  38732738.240
                 203541957.446 7
                        45.900

 13  7 19  0 43 30.0000000  0 23G13G04G17G32G10G02G01G20G31G23G11R03
                                R02R18R20R04R12R19R11R13E11S26S20
  21245153.340
  21245149.540   111644105.974 8  86995431.283 7
                        49.650          44.000

  21946937.940
  21946934.920   115331971.609 8  89869083.968 6
                        48.650          41.350

  23198074.380    23198071.920
  23198071.400   121906712.432 7  94992231.968 7
                        47.300          42.100

  22982213.440
  22982210.180   120772497.241 8  94108523.537 6
                        49.400          41.700

  23775853.660
  23775851.680   124942989.982 7  97358179.165 6
                        46.300          37.650

  25400223.820
  25400219.260   133479070.567 6 104009649.975 6
                        37.950          36.600

  23349929.840    23349931.380    23349929.560
  23349930.400   122704804.004 7  95614185.998 7  91630263.901 8
                        46.450          44.400          49.450

  20545695.480
  20545691.020   107968508.579 8  84131338.831 7
                        49.100          46.250

  24031925.020    24031921.320
  24031920.740   126288652.166 7  98406747.736 6
                        47.300          40.300

  20407179.740
  20407172.900   107240547.872 8  83564076.170 7
                        51.250          47.200

  26042859.500
  26042858.740   136856143.928 6 106641139.936 5
                        39.700          30.750

  19533203.420
  19533202.960   104562880.059 7  81326719.047 7
                        47.800          45.000

  22022051.160
  22022053.540   117514024.196 8  91399877.711 6
                        49.050          40.650

  21567073.380
  21567078.240   115126524.712 8  89542861.003 7
                        48.600          42.100

  24308617.080
  24308620.760   129989096.877 6 101102646.478 5
                        39.300          33.400

  21431916.840
  21431917.360   114767010.468 8  89263261.249 7
                        48.900          42.050

  21425422.380
  21425425.300   114450799.386 8  89017327.491 6
                        48.800          40.200

  21143601.880
  21143601.400   113104019.859 8  87969797.149 7
                        48.800          42.600

  24174696.080
  24174699.440   129182266.085 6 100475122.142 5
                        38.700          31.750

  21853967.080
  21853970.360   116698993.607 8  90765925.134 6
                        48.350          40.200

  27117424.800                    27117427.100    27117445.200    27117446.620
                 142503041.040 8                 106414619.423 7 109190727.608 7
 107802726.456 6        48.800                          46.200          45.400
        40.100
  38358493.920
                 201575791.215 7
                        45.250

  38732739.780
                 203541966.708 7
                        45.700

 13  7 19  0 44  0.0000000  0 23G13G04G17G32G10G02G01G20G31G23G11R03
                                R02R18R20R04R12R19R11R13E11S26S20
  21231228.200
  21231224.160   111570928.265 8  86938409.710 7
                        49.700          44.700

  21932961.000
  21932958.060   115258522.916 8  89811851.255 6
                        48.700          41.400

  23211757.940    23211755.400
  23211754.860   121978619.242 8  95048263.177 7
                        48.000          42.800

  22997506.720
  22997503.440   120852864.030 8  94171146.986 6
                        49.450          41.750

  23757078.740
  23757077.140   124844329.654 7  97281301.088 6
                        45.700          37.650

  25379833.080
  25379827.920   133371914.157 7 103926151.436 5
                        42.850          35.100

  23370378.280    23370379.880    23370377.900
  23370378.980   122812261.087 7  95697918.714 7  91710507.754 8
                        46.600          45.100          48.650

  20554068.040
  20554063.640   108012506.734 8  84165623.101 7
                        49.250          46.750

  24045952.720    24045949.280
  24045948.640   126362368.955 7  98464189.385 6
                        47.650          41.050

  20403904.480
  20403897.560   107223335.997 8  83550664.329 7
                        51.400          47.600

  26064451.220
  26064450.220   136969608.433 7 106729553.654 4
                        42.400          27.400

  19534884.280
  19534883.700   104571877.211 8  81333716.830 7
                        48.100          47.850

  22038572.160
  22038574.700   117602183.148 8  91468445.748 7
                        49.100          43.600

  21587016.300
  21587021.260   115232981.478 8  89625660.641 7
                        48.700          45.150

  24287167.960
  24287171.460   129874399.269 6 101013437.221 6
                        40.100          39.050

  21416936.720
  21416937.180   114686792.726 8  89200869.703 7
                        48.950          45.350

  21426542.960
  21426545.820   114456784.578 8  89021982.652 7
                        48.700          43.500

  21137813.920
  21137813.480   113073058.061 8  87945715.763 7
                        48.900          45.800

  24194824.540
  24194827.920   129289827.485 6 100558780.884 5
                        39.650          35.250

  21834674.900
  21834678.320   116595974.770 8  90685799.416 7
                        48.400          43.750

  27135438.140                    27135440.440    27135458.600    27135459.940
                 142597701.413 8                 106485307.246 7 109263259.464 7
 107874336.296 7        48.600                          44.550          47.450
        42.250
  38358011.480
                 201573253.277 7
                        45.600

  38732741.100
                 203541972.444 7
                        46.000

 13  7 19  0 44 30.0000000  0 23G13G04G17G32G10G02G01G20G31G23G11R03
                                R02R18R20R04R12R19R11R13E11S26S20
  21217379.500
  21217375.280   111498152.450 8  86881701.316 7
                        50.100          46.350

  21919063.960
  21919061.240   115185494.476 8  89754946.014 7
                        49.000          43.050

  23225510.380    23225507.820
  23225507.260   122050888.035 8  95104576.454 7
                        48.400          44.700

  23012826.200
  23012822.860   120933368.207 8  94233877.487 7
                        49.800          43.200

  23738323.660
  23738321.780   124745770.392 7  97204501.737 6
                        46.350          38.400

  25359453.900
  25359448.340   133264819.232 7 103842700.776 5
                        44.700          34.650

  23390862.600    23390864.200    23390862.140
  23390863.320   122919906.398 7  95781798.105 7  91790892.156 8
                        46.450          46.850          49.400

  20562507.960
  20562503.540   108056858.602 8  84200182.995 8
                        49.450          48.400

  24060061.420    24060058.120
  24060057.400   126436510.700 7  98521962.172 7
                        47.350          43.100

  20400716.820
  20400709.940   107206584.670 8  83537611.367 8
                        51.400          49.400

  26086025.420
  26086023.400   137082980.101 5 106817905.90914
                        34.850          27.800

  19536634.240
  19536633.700   104581244.568 8  81341002.552 7
                        48.250          46.750

  22055119.760
  22055122.520   117690483.832 8  91537124.025 7
                        49.350          42.450

  21607044.200
  21607049.340   115339892.393 8  89708813.508 7
                        48.750          44.000

  24265783.080
  24265786.420   129760044.363 6 100924494.529 6
                        40.300          37.700

  21401995.820
  21401996.360   114606785.313 8  89138641.763 7
                        49.000          44.200

  21427818.640
  21427821.740   114463599.854 8  89027283.423 6
                        48.500          41.950

  21132178.500
  21132178.160   113042912.551 8  87922269.270 7
                        48.950          44.550

  24215031.200
  24215034.500   129397805.797 6 100642764.018 5
                        38.600          33.400

  21815474.120
  21815477.420   116493443.847 8  90606053.196 7
                        48.650          42.350

  27153453.080                    27153455.240    27153473.380    27153474.760
                 142692369.579 8                 106556000.903 7 109335797.314 7
 107945952.048 6        49.000                          45.600          45.250
        40.000
  38357527.700
                 201570711.955 7
                        45.550

  38732741.900
                 203541975.865 7
                        46.100

 13  7 19  0 45  0.0000000  0 22G13G04G17G32G10G02G01G20G31G23R03R02
                                R18R20R04R12R19R11R13E11S26S20
  21203608.320
  21203603.960   111425783.909 8  86825310.269 7
                        49.950          43.600

  21905248.140
  21905245.460   115112892.259 8  89698372.899 6
                        48.950          41.700

  23239331.820    23239329.280
  23239328.760   122123519.788 8  95161172.560 6
                        48.000          41.750

  23028172.400
  23028169.080   121014012.778 8  94296717.382 6
                        49.850          40.650

  23719588.580
  23719586.460   124647317.066 7  97127784.950 6
                        45.900          36.750

  25339087.060
  25339081.760   133157791.470 7 103759302.474 5
                        43.300          33.500

  23411383.120    23411384.600    23411382.480
  23411383.760   123027741.465 7  95865825.365 7  91871418.276 8
                        46.650          44.300          48.150

  20571015.740
  20571011.280   108101567.165 8  84235020.825 7
                        49.550          45.300

  24074251.260    24074248.120
  24074247.200   126511078.705 7  98580067.107 6
                        47.200          40.850

  20397617.420
  20397610.560   107190297.289 8  83524919.920 7
                        51.400          46.800

  19538453.860
  19538453.360   104590985.519 7  81348578.849 7
                        47.850          47.450

  22071694.260
  22071697.140   117778928.844 8  91605914.561 7
                        48.950          43.200

  21627157.180
  21627162.400   115447256.843 8  89792319.126 7
                        48.250          44.650

  24244463.360
  24244467.400   129646039.367 6 100835824.020 6
                        37.550          38.500

  21387095.000
  21387095.600   114526992.350 8  89076580.622 7
                        48.450          45.200

  21429250.480
  21429253.620   114471249.028 8  89033232.779 7
                        48.100          42.850

  21126696.540
  21126696.380   113013588.465 8  87899461.656 7
                        48.800          45.400

  24235315.700
  24235318.760   129506200.419 6 100727070.863 5
                        41.100          33.700

  21796366.260
  21796369.460   116391408.866 8  90526692.693 7
                        48.600          43.400

  27171469.720                    27171471.880    27171490.140    27171491.440
                 142787047.401 8                 106626701.776 7 109408342.568 8
 108017575.112 7        48.350                          44.000          48.050
        43.050
  38357043.840
                 201568170.704 7
                        45.500

  38732742.000
                 203541977.092 7
                        46.000

 13  7 19  0 45 30.0000000  0 22G13G04G17G32G10G02G01G20G31G23R03R02
                                R18R20R04R12R19R11R13E11S26S20
  21189914.380
  21189909.960   111353821.813 8  86769235.933 7
                        49.700          44.700

  21891513.660
  21891510.920   115040716.959 8  89642132.444 6
                        48.750          41.800

  23253221.440    23253218.780
  23253218.320   122196509.776 8  95218047.789 7
                        48.050          42.300

  23043544.880
  23043541.540   121094795.287 8  94359664.759 6
                        49.750          41.850

  23700873.640
  23700871.520   124548968.788 7  97051150.028 6
                        45.250          38.000

  25318733.040
  25318728.280   133050831.082 7 103675956.703 4
                        44.600          29.300

  23431938.900    23431940.320    23431938.220
  23431939.440   123135762.448 7  95949997.490 7  91952083.235 8
                        46.350          44.300          48.800

  20579591.120
  20579586.500   108146630.449 8  84270135.067 7
                        49.350          47.350

  24088521.380    24088518.240
  24088517.340   126586068.568 7  98638500.764 6
                        46.600          41.600

  20394605.880
  20394598.960   107174471.687 8  83512588.300 7
                        51.250          47.750

  19540342.860
  19540342.480   104601098.067 8  81356444.167 7
                        48.000          47.350

  22088295.300
  22088298.180   117867515.724 8  91674815.428 7
                        49.000          42.250

  21647353.960
  21647359.220   115555068.637 8  89876172.670 7
                        48.700          44.350

  24223209.840
  24223213.580   129532386.891 6 100747427.625 6
                        39.000          38.300

  21372234.040
  21372234.560   114447412.737 8  89014685.409 7
                        49.100          44.400

  21430838.060
  21430841.220   114479730.012 8  89039829.106 7
                        48.700          42.600

  21121368.100
  21121368.020   112985084.968 8  87877292.284 7
                        49.100          44.600

  24255677.180
  24255680.220   129615005.441 7 100811696.937 5
                        43.900          33.050

  21777351.680
  21777354.940   116289872.548 8  90447720.054 7
                        48.650          43.300

  27189486.940                    27189489.800    27189507.960    27189509.160
                 142881731.232 7                 106697407.124 7 109480892.404 7
 108089202.704 6        46.700                          43.850          44.300
        38.850
  38356560.880
                 201565630.436 7
                        45.250

  38732741.220
                 203541975.363 7
                        45.750

 13  7 19  0 46  0.0000000  0 22G13G04G17G32G10G02G01G20G31G23R03R02
                                R18R20R04R12R19R11R13E11S26S20
  21176297.840
  21176293.480   111282267.133 8  86713479.056 7
                        49.850          43.700

  21877860.860
  21877858.120   114968970.887 8  89586226.455 6
                        48.850          40.800

  23267178.620    23267175.920
  23267175.420   122269854.913 7  95275199.791 6
                        47.950          41.800

  23058943.480
  23058940.060   121175714.875 8  94422718.954 6
                        49.800          41.550

  23682178.680
  23682176.580   124450726.699 7  96974597.843 6
                        45.900          36.100

  25298392.220
  25298387.360   132943940.353 7 103592665.158 4
                        45.300          29.250

  23452529.680    23452531.000    23452528.960
  23452529.980   123243967.152 7  96034312.776 7  92032885.362 8
                        47.000          43.750          48.750

  20588233.700
  20588229.100   108192047.669 8  84305525.100 7
                        49.300          45.900

  24102871.320    24102868.140
  24102867.220   126661477.778 7  98697261.157 6
                        46.950          41.350

  20391682.160
  20391675.180   107159107.534 8  83500616.240 7
                        51.400          47.200

  19542301.240
  19542301.020   104611581.734 7  81364598.128 7
                        47.950          47.700

  22104922.780
  22104925.580   117956243.522 8  91743825.890 7
                        48.950          43.150

  21667633.840
  21667639.040   115663323.587 8  89960370.896 7
                        48.450          44.750

  24202023.080
  24202026.460   129419090.877 6 100659308.497 6
                        38.250          38.550

  21357413.120
  21357413.580   114368047.185 8  88952956.682 7
                        48.800          45.400

  21432581.320
  21432584.500   114489042.280 8  89047071.981 7
                        48.600          43.100

  21116193.420
  21116193.340   112957403.866 8  87855762.548 7
                        48.950          45.600

  24276114.700
  24276117.480   129724216.676 7 100896638.932 5
                        44.100          33.400

  21758431.500
  21758434.740   116188839.855 8  90369139.111 7
                        48.300          43.900

  27207505.600                    27207508.540    27207526.420    27207527.780
                 142976419.205 7                 106768115.545 7 109553445.405 7
 108160833.413 6        47.350                          44.200          44.900
        39.200
  38356078.120
                 201563090.546 7
                        45.500

  38732740.380
                 203541971.472 7
                        46.100

 13  7 19  0 46 30.0000000  0 22G13G04G17G32G10G02G01G20G31G23R03R02
                                R18R20R04R12R19R11R13E11S26S20
  21162759.440
  21162755.260   111211123.322 8  86658042.353 7
                        49.750          44.800

  21864290.540
  21864287.620   114897658.183 8  89530658.153 7
                        48.850          42.100

  23281203.060    23281200.520
  23281199.900   122343554.043 7  95332627.598 6
                        47.650          41.800

  23074368.300
  23074364.880   121256772.833 8  94485880.967 7
                        49.750          42.000

  23663504.140
  23663502.420   124352593.586 7  96898130.593 6
                        46.400          37.550

  25278065.320
  25278060.780   132837123.315 7 103509431.049 5
                        45.800          32.400

  23473155.320    23473156.640    23473154.740
  23473155.700   123352355.322 7  96118771.033 7  92113824.514 8
                        47.350          44.000          48.200

  20596943.840
  20596939.260   108237820.147 8  84341191.968 7
                        49.550          45.650

  24117300.920    24117297.680
  24117296.760   126737305.680 7  98756347.834 6
                        47.100          41.600

  20388846.580
  20388839.600   107144206.537 8  83489005.091 7
                        51.450          47.400

  19544329.320
  19544329.080   104622438.280 7  81373042.116 7
                        47.850          47.150

  22121577.040
  22121579.700   118045113.276 8  91812946.772 7
                        49.300          42.900

  21687996.180
  21688001.440   115772018.986 8  90044911.698 7
                        48.350          44.200

  24180903.980
  24180906.980   129306157.181 6 100571471.178 6
                        36.900          39.800

  21342632.500
  21342633.000   114288898.126 8  88891396.351 7
                        49.000          45.250

  21434480.580
  21434483.820   114499187.578 8  89054962.776 7
                        48.750          42.700

  21111172.960
  21111172.800   112930547.916 8  87834874.614 7
                        49.200          45.250

  24296627.800
  24296630.340   129833831.648 7 100981894.959 5
                        44.750          31.500

  21739606.460
  21739609.840   116088315.945 8  90290953.897 7
                        48.600          43.850

  27225525.120                    27225527.860    27225545.920    27225547.200
                 143071111.218 7                 106838826.998 7 109626001.524 7
 108232467.201 6        46.800                          42.650          46.550
        41.250
  38355594.760
                 201560550.398 7
                        45.600

  38732739.880
                 203541968.671 7
                        46.100

 13  7 19  0 47  0.0000000  0 22G13G04G17G32G10G02G01G20G31G23R03R02
                                R18R20R04R12R19R11R13E11S26S20
  21149298.780
  21149294.740   111140387.922 8  86602923.888 7
                        49.900          44.850

  21850802.320
  21850799.420   114826777.510 8  89475426.501 6
                        49.000          41.800

  23295293.760    23295291.360
  23295290.760   122417601.074 7  95390326.520 7
                        47.700          42.500

  23089818.720
  23089815.320   121337964.973 8  94549147.539 6
                        49.550          41.750

  23644850.320
  23644848.240   124254567.001 7  96821746.322 6
                        47.250          37.850

  25257752.260
  25257747.980   132730378.247 7 103426253.042 4
                        46.950          29.800

  23493814.840    23493816.280    23493814.380
  23493815.240   123460921.367 7  96203367.881 7  92194896.478 8
                        47.400          44.150          50.050

  20605720.900
  20605716.280   108283944.051 8  84377132.664 7
                        49.500          46.300

  24131809.140    24131805.920
  24131805.000   126813546.691 7  98815756.408 7
                        47.150          42.600

  20386098.500
  20386091.540   107129765.258 8  83477752.157 7
                        51.450          47.800

  19546426.300
  19546426.000   104633663.530 8  81381772.870 7
                        48.250          46.850

  22138257.080
  22138259.800   118134120.704 8  91882174.724 7
                        49.200          42.000

  21708439.500
  21708444.820   115881146.843 8  90129788.845 7
                        48.350          43.600

  24159852.680
  24159855.740   129193586.403 6 100483916.110 6
                        36.450          38.400

  21327891.940
  21327892.380   114209962.700 8  88830002.174 7
                        49.050          44.600

  21436535.040
  21436538.300   114510162.118 8  89063498.528 7
                        48.800          42.050

  21106306.560
  21106306.240   112904515.112 8  87814626.898 7
                        49.350          44.600

  24317214.940
  24317217.580   129943843.261 7 101067459.499 4
                        43.950          29.800

  21720877.160
  21720880.540   115988302.453 8  90213165.667 7
                        48.450          43.350

  27243544.300                    27243546.960    27243565.140    27243566.340
                 143165802.149 7                 106909537.640 7 109698556.800 7
 108304100.160 6        46.350                          44.200          44.850
        39.200
  38355110.480
                 201558006.793 7
                        45.400

  38732739.580
                 203541965.875 7
                        46.000

 13  7 19  0 47 30.0000000  0 23G13G04G17G32G10G02G01G20G31G23R03R02
                                R18R20R04R14R12R19R11R13E11S26S20
  21135916.480
  21135912.460   111070063.556 8  86548125.709 7
                        50.050          44.850

  21837397.020
  21837394.180   114756333.045 8  89420534.751 6
                        49.200          41.250

  23309450.360    23309448.140
  23309447.580   122491994.706 7  95448295.500 7
                        47.400          42.950

  23105294.740
  23105291.400   121419292.046 8  94612519.255 7
                        49.650          42.350

  23626217.480
  23626215.180   124156649.777 7  96745447.271 6
                        47.750          37.850

  25237453.640
  25237449.060   132623708.891 7 103343133.981 4
                        45.100          25.050

  23514508.160    23514509.460    23514507.700
  23514508.440   123569664.712 7  96288102.898 7  92276100.855 8
                        47.650          43.850          49.200

  20614565.020
  20614560.380   108330420.160 8  84413347.810 7
                        49.700          46.050

  24146395.720    24146392.540
  24146391.640   126890199.713 7  98875486.024 7
                        47.850          42.350

  20383438.060
  20383431.180   107115784.738 8  83466858.262 7
                        51.500          47.750

  19548592.520
  19548592.180   104645259.071 7  81390791.629 7
                        47.850          46.600

  22154962.920
  22154965.880   118223266.606 8  91951510.380 6
                        48.800          41.950

  21728963.440
  21728968.780   115990704.553 8  90215000.321 7
                        48.600          43.300

  24138870.540
  24138873.480   129081384.225 5 100396647.780 6
                        35.100          38.250

  21313191.700
  21313192.100   114131243.366 8  88768776.081 7
                        48.800          44.150

  24591887.420
  24591897.240   131088607.06516 101957842.618 5
                        37.900          31.200

  21438744.920
  21438748.120   114521966.997 8  89072680.102 6
                        48.850          41.600

  21101594.380
  21101594.200   112879308.249 8  87795021.580 7
                        49.050          44.350

  24337875.680
  24337878.500   130054248.285 7 101153330.030 4
                        44.250          29.750

  21702244.540
  21702247.920   115888805.278 8  90135779.029 7
                        48.350          43.200

  27261563.120                    27261565.740    27261583.940    27261585.040
                 143260491.590 7                 106980247.197 7 109771110.944 7
 108375732.011 6        46.100                          42.550          43.750
        38.200
  38354626.680
                 201555464.296 7
                        45.650

  38732739.020
                 203541961.829 7
                        46.250

 13  7 19  0 48  0.0000000  0 23G13G04G17G32G10G02G01G20G31G23R03R02
                                R18R20R04R14R12R19R11R13E11S26S20
  21122612.940
  21122608.860   111000152.592 8  86493649.659 7
                        50.100          45.100

  21824075.460
  21824072.560   114686328.077 8  89365985.462 6
                        49.000          41.800

  23323672.460    23323670.340
  23323669.800   122566732.756 7  95506532.874 7
                        47.550          42.250

  23120796.540
  23120793.260   121500754.510 8  94675996.476 7
                        49.700          42.050

  23607605.680
  23607603.360   124058843.993 7  96669235.056 6
                        47.700          37.350

  25217170.040
  25217165.620   132517118.487 7 103260076.554 4
                        45.350          27.000

  23535235.020    23535236.120    23535234.500
  23535235.000   123678584.306 7  96372975.262 7  92357436.837 8
                        47.500          43.650          49.250

  20623476.340
  20623471.620   108377248.947 8  84449837.770 7
                        49.850          46.050

  24161060.440    24161057.220
  24161056.400   126967263.113 8  98935535.431 7
                        48.050          42.850

  20380865.440
  20380858.600   107102265.852 8  83456324.085 7
                        51.500          47.800

  19550827.920
  19550827.520   104657225.339 7  81400098.733 7
                        47.850          46.750

  22171694.760
  22171697.820   118312551.268 8  92020953.977 7
                        48.650          42.200

  21749567.300
  21749572.640   116100688.685 8  90300543.466 7
                        48.650          43.700

  24117958.320
  24117961.100   128969555.813 5 100309670.047 6
                        35.500          38.100

  21298532.020
  21298532.380   114052741.857 8  88707719.407 7
                        48.900          44.350

  24566447.180
  24566456.540   130952995.953 6 101852367.732 5
                        41.250          34.300

  21441110.440
  21441113.480   114534603.070 8  89082508.165 6
                        48.650          41.750

  21097036.900
  21097036.760   112854929.339 8  87776060.228 7
                        49.100          44.600

  24358609.640
  24358611.980   130165043.816 7 101239474.30913
                        44.400          23.100

  21683709.640
  21683713.140   115789829.957 8  90058798.274 7
                        48.200          43.900

  27279581.780                    27279584.260    27279602.260    27279603.520
                 143355178.826 7                 107050955.099 7 109843663.419 7
 108447362.200 6        46.900                          42.750          43.250
        37.950
  38354143.660
                 201552922.052 7
                        45.800

  38732738.380
                 203541957.559 7
                        46.300

 13  7 19  0 48 30.0000000  0 23G13G04G17G32G10G02G01G20G31G23R03R02
                                R18R20R04R14R12R19R11R13E11S26S20
  21109388.180
  21109383.980   110930655.458 8  86439496.076 7
                        50.050          44.900

  21810837.900
  21810834.920   114616764.109 8  89311779.815 6
                        49.200          41.700

  23337959.520    23337957.360
  23337956.860   122641811.802 7  95565035.955 7
                        47.150          42.050

  23136323.840
  23136320.600   121582350.867 8  94739578.016 6
                        49.550          41.300

  23589014.940
  23589013.060   123961149.644 7  96593109.677 6
                        47.800          37.650

  25196901.920
  25196897.240   132410608.490 7 103177081.690 4
                        45.800          28.650

  23555994.860    23555995.860    23555994.240
  23555994.800   123787677.194 7  96457982.640 7  92438902.226 8
                        47.450          43.550          49.650

  20632454.420
  20632449.660   108424428.832 8  84486601.308 7
                        49.600          45.500

  24175802.700    24175799.420
  24175798.600   127044733.847 8  98995902.227 7
                        48.000          42.200

  20378380.480
  20378373.660   107089207.341 8  83446148.632 7
                        51.450          47.500

  19553132.380
  19553132.000   104669561.393 7  81409693.443 7
                        47.850          47.200

  22188452.400
  22188455.320   118401973.132 8  92090504.282 7
                        48.750          42.250

  21770250.140
  21770255.440   116211094.262 8  90386414.402 7
                        48.750          43.800

  24097115.880
  24097119.320   128858104.323 5 100222985.549 6
                        35.800          38.500

  21283913.120
  21283913.360   113974458.022 8  88646832.009 7
                        49.150          44.750

  24540988.920
  24540998.160   130817288.808 7 101746818.041 6
                        42.550          36.850

  21443631.240
  21443634.220   114548068.804 8  89092981.507 7
                        48.300          42.200

  21092634.360
  21092634.220   112831378.735 8  87757743.108 7
                        49.050          44.800

  24379415.960
                 130276225.255 7
                        44.300

  21665273.100
  21665276.580   115691379.910 8  89982226.057 7
                        48.000          44.000

  27297599.000                    27297601.840    27297619.780    27297621.100
                 143449861.139 7                 107121659.337 7 109916212.126 6
 108518988.673 6        46.850                          43.900          41.800
        36.750
  38353660.160
                 201550377.813 7
                        45.450

  38732737.500
                 203541953.045 7
                        46.000

 13  7 19  0 49  0.0000000  0 23G13G04G17G32G10G02G01G20G31G23R03R02
                                R18R20R04R14R12R19R11R13E11S26S20
  21096242.180
  21096238.040   110861572.953 8  86385665.584 7
                        50.000          46.300

  21797684.740
  21797681.600   114547643.263 8  89257919.453 7
                        49.400          42.350

  23352310.820    23352308.860
  23352308.300   122717228.732 7  95623802.320 7
                        46.850          43.350

  23151876.480
  23151873.220   121664080.295 8  94803263.252 7
                        49.550          42.800

  23570445.700
  23570443.820   123863567.994 7  96517072.097 6
                        47.650          39.100

  25176649.420
  25176644.960   132304181.021 7 103094151.172 5
                        45.650          34.100

  23576787.160    23576788.280    23576786.660
  23576787.300   123896941.237 7  96543123.383 7  92520495.422 8
                        47.150          45.300          50.050

  20641499.200
  20641494.400   108471959.545 8  84523638.232 7
                        49.550          46.900

  24190621.900    24190618.680
  24190617.860   127122609.287 8  99056584.380 7
                        48.250          43.850

  20375983.020
  20375976.200   107076608.780 8  83436331.596 8
                        51.500          48.750

  19555505.920
  19555505.460   104682266.817 8  81419575.438 7
                        48.100          46.550

  22205235.720
  22205238.420   118491531.380 8  92160160.658 6
                        49.100          41.850

  21791011.020
  21791016.320   116321916.817 8  90472609.656 7
                        48.900          43.250

  24076345.320
  24076348.860   128747033.553 6 100136597.154 6
                        37.150          37.200

  21269335.020
  21269335.200   113896392.533 8  88586114.452 7
                        49.050          44.250

  24515512.700
  24515522.360   130681487.776 6 101641195.366 6
                        37.000          38.200

  21446307.280
  21446310.460   114562363.774 8  89104099.814 6
                        48.650          41.850

  21088386.800
  21088386.780   112808657.611 8  87740071.135 7
                        48.850          44.600

  24400293.800
  24400301.320   130387787.666 7 101412733.588 4
                        42.850          27.000

  21646935.660
  21646939.200   115593459.484 7  89906065.783 7
                        47.900          43.700

  27315615.280                    27315618.240    27315636.260    27315637.380
                 143544536.683 7                 107192358.510 7 109988755.638 7
 108590610.012 6        46.800                          44.850          44.550
        39.900
  38353176.020
                 201547832.498 7
                        45.700

  38732736.380
                 203541946.849 7
                        46.100

 13  7 19  0 49 30.0000000  0 22G13G04G17G32G10G02G01G20G31G23R03R02
                                R18R20R04R12R19R11R13E11S26S20
  21083175.640
  21083171.580   110792908.180 8  86332160.600 7
                        50.050          46.650

  21784616.600
  21784613.240   114478969.291 8  89204407.306 7
                        49.450          42.150

  23366726.120    23366724.280
  23366723.780   122792981.952 7  95682830.705 7
                        46.850          43.050

  23167454.600
  23167451.360   121745943.808 8  94867052.967 7
                        49.250          42.550

  23551898.320
  23551896.500   123766101.677 7  96441124.416 6
                        47.100          39.550

  25156413.320
  25156408.780   132197839.463 7 103011287.639 5
                        43.600          35.050

  23597611.860    23597613.020    23597611.460
  23597611.940   124006375.785 7  96628396.993 7  92602215.945 8
                        46.450          45.050          49.650

  20650610.840
  20650606.060   108519841.742 8  84560949.032 7
                        49.700          46.450

  24205517.980    24205514.660
  24205513.880   127200888.332 8  99117581.036 7
                        48.800          43.600

  20373673.380
  20373666.500   107064471.529 8  83426874.011 8
                        51.450          48.650

  19557948.580
  19557948.160   104695342.905 7  81429745.732 7
                        47.900          46.400

  22222044.740
  22222047.320   118581226.766 8  92229923.692 6
                        49.300          41.550

  21811849.440
  21811854.800   116433153.325 8  90559126.876 7
                        48.750          42.550

  24055646.900
  24055650.340   128636349.390 6 100050509.457 5
                        40.000          35.950

  21254798.020
  21254798.180   113818547.797 8  88525568.594 7
                        49.050          44.000

  21449138.760
  21449142.040   114577488.749 8  89115863.675 6
                        48.900          41.500

  21084294.800
  21084294.840   112786768.547 8  87723046.326 7
                        49.050          44.100

  24421242.340
  24421250.640   130499729.246 6 101499799.187 4
                        38.200          26.700

  21628698.620
  21628702.200   115496074.873 7  89830322.249 7
                        47.950          43.500

  27333629.980                    27333633.180    27333651.140    27333652.400
                 143639205.159 7                 107263052.388 7 110061293.730 7
 108662226.000 6        47.600                          44.600          45.100
        40.350
  38352691.700
                 201545286.167 7
                        45.650

  38732735.700
                 203541942.451 7
                        46.000

 13  7 19  0 50  0.0000000  0 21G13G04G17G32G10G02G01G20G31G23R03R02
                                R18R20R04R12R19R13E11S26S20
  21070188.460
  21070184.460   110724660.385 8  86278980.525 7
                        50.400          44.900

  21771633.660
  21771630.220   114410743.215 8  89151244.163 6
                        49.800          41.750

  23381204.740    23381202.780
  23381202.300   122869066.804 7  95742117.533 6
                        47.400          41.700

  23183057.740
  23183054.480   121827938.909 8  94930945.213 6
                        49.600          41.200

  23533372.760
  23533370.640   123668749.898 7  96365265.961 6
                        47.350          37.850

  25136193.740
  25136189.220   132091584.688 7 102928491.784 5
                        43.900          30.050

  23618468.120    23618469.460    23618468.160
  23618468.320   124115977.088 7  96713800.526 7  92684060.968 8
                        46.650          43.850          49.750

  20659789.120
  20659784.240   108568073.469 8  84598532.184 7
                        50.100          44.850

  24220490.080    24220486.800
  24220485.920   127279567.094 8  99178889.158 7
                        49.050          42.100

  20371451.120
  20371444.220   107052793.621 8  83417774.352 7
                        51.600          47.250

  19560460.120
  19560459.760   104708787.592 8  81440202.713 7
                        48.300          47.050

  22238878.980
  22238881.580   118671056.714 8  92299791.386 7
                        49.400          42.600

  21832764.220
  21832769.520   116544797.769 8  90645961.373 7
                        49.000          43.350

  24035021.260
  24035024.300   128526054.335 6  99964724.355 5
                        39.850          35.700

  21240302.000
  21240302.120   113740922.519 8  88465193.422 7
                        49.200          44.750

  21452125.300
  21452128.520   114593441.741 8  89128271.553 7
                        49.150          42.250

  21080358.200
  21080358.300   112765710.629 8  87706667.956 7
                        49.150          44.750

  21610562.360
  21610565.860   115399228.369 7  89754997.224 7
                        47.700          44.300

  27351643.220                    27351646.080    27351663.980    27351665.340
                 143733863.009 8                 107333738.342 7 110133823.685 7
 108733833.951 6        48.300                          45.100          45.450
        40.750
  38352207.340
                 201542738.534 7
                        46.100

  38732734.580
                 203541936.873 7
                        46.450

